date_added,FHRSID,BusinessName,BusinessType,AddressLine1,AddressLine2,AddressLine3,AddressLine4,PostCode,LocalAuthorityName,RatingValue,RatingDate,SchemeType,NewRatingPending,Latitude,Longitude,AddressSingleLine
2026-04-01,608313,South Eastern Tavern,Pub/bar/nightclub,11 Margate Road,Ramsgate,Kent,,CT11 7SP,Thanet,5,2022-05-24,FHRS,False,51.339067,1.414555,"11 Margate Road, Ramsgate, Kent, CT11 7SP"
2026-04-01,242981,Spalding Golf Club,Pub/bar/nightclub,Spalding Golf Club,Spalding,Surfleet,,PE11 4EA,South Holland,Exempt,,FHRS,False,52.8397709,-0.1221131,"Spalding Golf Club, Spalding, Surfleet, PE11 4EA"
2026-04-01,1013594,Grattons Indoor Bowls Club Bar,Pub/bar/nightclub,The Grattons Indoor Bowls Club,Grattons Drive,Pound Hill,Crawley,RH10 3AG,Crawley,5,2026-03-31,FHRS,False,51.126349,-0.155005,"The Grattons Indoor Bowls Club, Grattons Drive, Pound Hill, Crawley, RH10 3AG"
2026-04-01,1930269,knockabout,Pub/bar/nightclub,26 Market Square,,Dover,,CT16 1NG,Dover,AwaitingInspection,,FHRS,False,51.1252693,1.3128398,"26 Market Square, Dover, CT16 1NG"
2026-04-01,1930270,The Plough Inn Ripple (Samanthatradingltd),Pub/bar/nightclub,Church Lane Deal,,Kent,,Ct148jh,Dover,AwaitingInspection,,FHRS,False,51.20374855,1.3634816,"Church Lane Deal, Kent, Ct148jh"
2026-04-01,1930271,The Prince Albert,Pub/bar/nightclub,Prince Albert Public House 83 Biggin Street,,Dover,Kent,CT16 1BB,Dover,5,2026-03-13,FHRS,False,51.1275163,1.3091909,"Prince Albert Public House 83 Biggin Street, Dover, Kent, CT16 1BB"
2026-04-01,1930094,Oddfellows Arms,Pub/bar/nightclub,Oddfellows Arms 1 Hartford Road,Davenham,Northwich,Cheshire,CW9 8JA,Cheshire West and Chester,AwaitingInspection,,FHRS,True,53.2355766296387,-2.51260304450989,"Oddfellows Arms 1 Hartford Road, Davenham, Northwich, Cheshire, CW9 8JA"
2026-04-01,1930082,The Deva Tap,Pub/bar/nightclub,121 Brook Street,,Chester,Cheshire,CH1 3DU,Cheshire West and Chester,AwaitingInspection,,FHRS,True,53.1966822,-2.8841447,"121 Brook Street, Chester, Cheshire, CH1 3DU"
2026-04-01,1930178,The Engine,Pub/bar/nightclub,Moor Road,Hunslet,Leeds,,LS10 2JJ,Leeds,AwaitingInspection,,FHRS,False,53.772135,-1.533015,"Moor Road, Hunslet, Leeds, LS10 2JJ"
2026-04-01,1018173,The Key Club,Pub/bar/nightclub,66 Merrion Street,Leeds,,,LS2 8LW,Leeds,AwaitingInspection,,FHRS,False,53.800948,-1.543809,"66 Merrion Street, Leeds, LS2 8LW"
2026-04-01,1930124,The Exeter,Pub/bar/nightclub,Exeter Inn,Bullen Street,Thorverton,Exeter,EX5 5NG,Mid Devon,AwaitingInspection,,FHRS,False,50.8081099,-3.5275876,"Exeter Inn, Bullen Street, Thorverton, Exeter, EX5 5NG"
2026-04-01,1929987,Vitto Kitchens,Pub/bar/nightclub,The Prince Of Wales,117 Ewell Road,Surbiton,,KT6 6AL,Kingston-Upon-Thames,AwaitingInspection,,FHRS,True,51.3896487,-0.2975555,"The Prince Of Wales, 117 Ewell Road, Surbiton, KT6 6AL"
2026-04-01,1930120,The Golden Fleece,Pub/bar/nightclub,Golden Fleece,23 Whitehall Road East,Birkenshaw,Bradford,BD11 2EQ,Kirklees,AwaitingInspection,,FHRS,False,53.7475941,-1.6909163,"Golden Fleece, 23 Whitehall Road East, Birkenshaw, Bradford, BD11 2EQ"
2026-04-01,1930118,Travellers Rest Brockholes,Pub/bar/nightclub,Travellers Rest,88 New Mill Road,Brockholes,Holmfirth,HD9 7AZ,Kirklees,AwaitingInspection,,FHRS,False,53.599843,-1.778758,"Travellers Rest, 88 New Mill Road, Brockholes, Holmfirth, HD9 7AZ"
2026-04-01,1930115,White Cross Inn,Pub/bar/nightclub,2 Bradley Road,Bradley,Huddersfield,,HD2 1XD,Kirklees,5,2026-03-17,FHRS,False,53.680751,-1.739728,"2 Bradley Road, Bradley, Huddersfield, HD2 1XD"
2026-04-01,1930201,Black  rabbit,Pub/bar/nightclub,10 ASHFIELD TERRACE,,CHESTER-LE-STREET,,DH3 3PD,Durham,AwaitingInspection,,FHRS,False,54.8516542,-1.57295,"10 ASHFIELD TERRACE, CHESTER-LE-STREET, DH3 3PD"
2026-04-01,304299,Kennedy's Bar,Pub/bar/nightclub,37-38 FORE BONDGATE,,BISHOP AUCKLAND,,DL14 7PE,Durham,AwaitingInspection,,FHRS,False,54.6652363,-1.6773982,"37-38 FORE BONDGATE, BISHOP AUCKLAND, DL14 7PE"
2026-04-01,1930207,Queens head,Pub/bar/nightclub,2 SHERBURN ROAD,,DURHAM,,DH1 2JR,Durham,5,2026-03-06,FHRS,False,54.7788749,-1.5558821,"2 SHERBURN ROAD, DURHAM, DH1 2JR"
2026-04-01,1930213,Raby Arms,Pub/bar/nightclub,17 MARKET PLACE,,BARNARD CASTLE,,DL12 8NF,Durham,AwaitingInspection,,FHRS,False,54.5427561,-1.9233557,"17 MARKET PLACE, BARNARD CASTLE, DL12 8NF"
2026-04-01,1930236,The Red Lion,Pub/bar/nightclub,The Red Lion  Plawsworth,,Durham,United Kingdom,DH2 3NL,Durham,AwaitingInspection,,FHRS,True,,,"The Red Lion  Plawsworth, Durham, United Kingdom, DH2 3NL"
2026-04-01,1930361,The Bell,Pub/bar/nightclub,4 High Street,Standon,Hertfordshire,,SG11 1LA,East Hertfordshire,AwaitingInspection,,FHRS,False,51.883627,0.0273489,"4 High Street, Standon, Hertfordshire, SG11 1LA"
2026-04-01,1929913,Sir Loin Of Beef,Pub/bar/nightclub,152 Highland Road,Southsea,,,PO4 9NH,Portsmouth,AwaitingInspection,,FHRS,True,50.7864570617676,-1.05864095687866,"152 Highland Road, Southsea, PO4 9NH"
2026-04-01,1903703,King William,Pub/bar/nightclub,King William Iv,54 Combe Road,Combe Down,Bath,BA2 5HY,Bath and North East Somerset,5,2026-03-26,FHRS,False,51.359101,-2.350265,"King William Iv, 54 Combe Road, Combe Down, Bath, BA2 5HY"
2026-04-01,372559,The Sutton Arms,Pub/bar/nightclub,14-16 Station Lane,Hornchurch,,,RM12 6NJ,Havering,5,2026-03-13,FHRS,False,51.561287,0.220507,"14-16 Station Lane, Hornchurch, RM12 6NJ"
2026-04-01,1929954,Tigermilk,Pub/bar/nightclub,,17-19 Derrys Cross,Plymouth,,PL1 2SW,Plymouth City,AwaitingInspection,,FHRS,True,50.369383,-4.14603,"17-19 Derrys Cross, Plymouth, PL1 2SW"
2026-04-01,1930365,Cherry Tree,Pub/bar/nightclub,Cherry Tree Inn,Church Street,Horbury,Wakefield,WF4 6LT,Wakefield,AwaitingInspection,,FHRS,False,53.6607704162598,-1.55429601669312,"Cherry Tree Inn, Church Street, Horbury, Wakefield, WF4 6LT"
2026-04-01,553607,The Horn & Horseshoes,Pub/bar/nightclub,Horns And Horseshoes Foster Street,Harlow,North Weald Bassett,Essex,CM17 9HX,Epping Forest,5,2025-10-14,FHRS,False,,,"Horns And Horseshoes Foster Street, Harlow, North Weald Bassett, Essex, CM17 9HX"
2026-04-01,554346,The Nags Head,Pub/bar/nightclub,The Dog and Pickle Church Road,Moreton,Ongar,Essex,CM5 0HZ,Epping Forest,5,2024-09-19,FHRS,False,,,"The Dog and Pickle Church Road, Moreton, Ongar, Essex, CM5 0HZ"
2026-04-01,554494,Waltham Holy Cross Conservative Club Ltd,Pub/bar/nightclub,Waltham Holy Cross Conservative Club,35 Honey Lane,Waltham Abbey,Essex,EN9 3AS,Epping Forest,5,2025-03-07,FHRS,False,51.6861159,0.0120982,"Waltham Holy Cross Conservative Club, 35 Honey Lane, Waltham Abbey, Essex, EN9 3AS"
2026-04-01,554350,West Essex Golf Club Ltd,Pub/bar/nightclub,West Essex Golf Club Bury Road,London,Waltham Abbey,Essex,E4 7QL,Epping Forest,5,2024-01-23,FHRS,False,,,"West Essex Golf Club Bury Road, London, Waltham Abbey, Essex, E4 7QL"
2026-04-01,554446,Woodbine,Pub/bar/nightclub,The Woodbine PH,Honey Lane,Waltham Abbey,Essex,EN9 3QT,Epping Forest,2,2025-09-11,FHRS,False,51.6786155700684,0.0424159988760948,"The Woodbine PH, Honey Lane, Waltham Abbey, Essex, EN9 3QT"
2026-04-02,65183,Royal British Legion Social Club,Pub/bar/nightclub,,2 High Street,Turriff,Aberdeenshire,AB53 4DS,Aberdeenshire,Pass,2019-01-30,FHIS,False,57.537274,-2.46153,"2 High Street, Turriff, Aberdeenshire, AB53 4DS"
2026-04-02,236698,Gosforth Golf Club,Pub/bar/nightclub,Gosforth Golf Club Broadway East,Gosforth,Newcastle Upon Tyne,,NE3 5EU,Newcastle Upon Tyne,5,2024-10-31,FHRS,False,55.0176438,-1.6147925,"Gosforth Golf Club Broadway East, Gosforth, Newcastle Upon Tyne, NE3 5EU"
2026-04-02,235918,High Gosforth Park Golf Club,Pub/bar/nightclub,Parklands Golf Club High Gosforth Park,Gosforth,Newcastle Upon Tyne,,NE3 5HT,Newcastle Upon Tyne,5,2024-09-25,FHRS,False,55.0372537,-1.6097379,"Parklands Golf Club High Gosforth Park, Gosforth, Newcastle Upon Tyne, NE3 5HT"
2026-04-02,670274,NCJ Juve Lounge,Pub/bar/nightclub,Training Ground Offices Newcastle Football Centre Gibside Gardens,,Newcastle Upon Tyne,,NE15 7PP,Newcastle Upon Tyne,5,2024-10-29,FHRS,False,54.9764783,-1.6800996,"Training Ground Offices Newcastle Football Centre Gibside Gardens, Newcastle Upon Tyne, NE15 7PP"
2026-04-02,1104676,Newcastle Blue Star,Pub/bar/nightclub,Scotswood Sports And Social Centre 378 Denton Road,,Newcastle Upon Tyne,,NE15 7HB,Newcastle Upon Tyne,5,2025-12-13,FHRS,False,,,"Scotswood Sports And Social Centre 378 Denton Road, Newcastle Upon Tyne, NE15 7HB"
2026-04-02,1384687,Newcastle Theatre Royal Trust LTD,Pub/bar/nightclub,Theatre Royal 100 Grey Street,,Newcastle Upon Tyne,,NE1 6BR,Newcastle Upon Tyne,5,2026-03-12,FHRS,False,54.9727128,-1.6120342,"Theatre Royal 100 Grey Street, Newcastle Upon Tyne, NE1 6BR"
2026-04-02,1157993,Newcastle United Golf Club,Pub/bar/nightclub,Newcastle United Golf Club Ponteland Road,,Newcastle Upon Tyne,,NE5 3JW,Newcastle Upon Tyne,5,2025-12-13,FHRS,False,,,"Newcastle United Golf Club Ponteland Road, Newcastle Upon Tyne, NE5 3JW"
2026-04-02,236773,Northern Football Club,Pub/bar/nightclub,Northern Football Club Mccracken Park Great North Road,Gosforth,Newcastle Upon Tyne,,NE3 2DT,Newcastle Upon Tyne,5,2025-01-15,FHRS,False,55.0238545,-1.6209268,"Northern Football Club Mccracken Park Great North Road, Gosforth, Newcastle Upon Tyne, NE3 2DT"
2026-04-02,1930740,PILGRIM,Pub/bar/nightclub,54 - 56 Pilgrim Street,,Newcastle Upon Tyne,,NE1 6SF,Newcastle Upon Tyne,AwaitingInspection,,FHRS,False,54.9724758,-1.6109742,"54 - 56 Pilgrim Street, Newcastle Upon Tyne, NE1 6SF"
2026-04-02,1930729,Revolution,Pub/bar/nightclub,38 Collingwood Street,,Newcastle Upon Tyne,,NE1 1JF,Newcastle Upon Tyne,AwaitingInspection,,FHRS,False,54.9699052,-1.613623,"38 Collingwood Street, Newcastle Upon Tyne, NE1 1JF"
2026-04-02,237184,The Newcastle Greyhound Stadium,Pub/bar/nightclub,Brough Park Greyhound Stadium Fossway,,Newcastle Upon Tyne,,NE6 2XJ,Newcastle Upon Tyne,5,2024-12-04,FHRS,False,,,"Brough Park Greyhound Stadium Fossway, Newcastle Upon Tyne, NE6 2XJ"
2026-04-02,1111181,Westerhope Golf Club,Pub/bar/nightclub,Westerhope Golf Club Stamfordham Road,Westerhope,Newcastle Upon Tyne,,NE5 1PP,Newcastle Upon Tyne,5,2024-11-06,FHRS,False,55.005416,-1.7021502,"Westerhope Golf Club Stamfordham Road, Westerhope, Newcastle Upon Tyne, NE5 1PP"
2026-04-02,1930830,The Last Drop Inn,Pub/bar/nightclub,279 Eltham High Street,,Eltham,Greenwich,SE9 1TY,Greenwich,AwaitingInspection,,FHRS,False,51.4510552,0.063793,"279 Eltham High Street, Eltham, Greenwich, SE9 1TY"
2026-04-02,1930824,The Vanbrugh,Pub/bar/nightclub,The Vanbrugh Tavern 91 Colomb Street,,Greenwich,,SE10 9EZ,Greenwich,AwaitingInspection,,FHRS,False,51.4834106,0.0079148,"The Vanbrugh Tavern 91 Colomb Street, Greenwich, SE10 9EZ"
2026-04-02,1930404,The Red Lion,Pub/bar/nightclub,Red Lion 16 Chapel Road,,Breachwood Green,Hertfordshire,SG4 8NU,North Hertfordshire,AwaitingInspection,,FHRS,False,51.885464,-0.329897,"Red Lion 16 Chapel Road, Breachwood Green, Hertfordshire, SG4 8NU"
2026-04-02,1930416,WeBrew Kingston,Pub/bar/nightclub,5 Ram Passage,Kingston Upon Thames,,,KT1 1HH,Kingston-Upon-Thames,AwaitingInspection,,FHRS,False,51.4084384,-0.3083639,"5 Ram Passage, Kingston Upon Thames, KT1 1HH"
2026-04-02,1930563,PAM'S BAR AND NIGHTCLUB,Pub/bar/nightclub,38-40 High Street,Congleton,,Cheshire East,CW12 1BD,Cheshire East,AwaitingInspection,,FHRS,False,53.1627093,-2.21191,"38-40 High Street, Congleton, Cheshire East, CW12 1BD"
2026-04-02,328638,Thirteen,Pub/bar/nightclub,,13 Market Place,,Kendal,LA9 4TP,Westmorland and Furness,AwaitingInspection,,FHRS,False,54.328348,-2.746577,"13 Market Place, Kendal, LA9 4TP"
2026-04-02,1930661,The Hare & Hounds,Pub/bar/nightclub,Hare And Hounds Hotel Bath Road,Speen,Newbury,West Berkshire,RG14 1QY,West Berkshire,AwaitingInspection,,FHRS,False,,,"Hare And Hounds Hotel Bath Road, Speen, Newbury, West Berkshire, RG14 1QY"
2026-04-02,1930663,The Old Boot Inn,Pub/bar/nightclub,The Old Boot Inn,Stanford Dingley,Reading,West Berkshire,RG7 6LT,West Berkshire,AwaitingInspection,,FHRS,False,,,"The Old Boot Inn, Stanford Dingley, Reading, West Berkshire, RG7 6LT"
2026-04-02,1930658,The Wheelwrights Arms,Pub/bar/nightclub,The Wheelwright Arms 4 The Broadway,Lambourn,Hungerford,West Berkshire,RG17 8XY,West Berkshire,AwaitingInspection,,FHRS,False,51.509041,-1.5297836,"The Wheelwright Arms 4 The Broadway, Lambourn, Hungerford, West Berkshire, RG17 8XY"
2026-04-02,1930583,Greenman,Pub/bar/nightclub,Green Man Main Street,,Mollington,Oxfordshire,OX17 1BB,Cherwell,AwaitingInspection,,FHRS,False,52.1234921,-1.3546588,"Green Man Main Street, Mollington, Oxfordshire, OX17 1BB"
2026-04-02,1930606,Sportsters,Pub/bar/nightclub,,7 Gilmour Street,Paisley,Renfrewshire,PA1 1DD,Renfrewshire,Awaiting Inspection,2026-03-31,FHIS,False,55.846178,-4.424085,"7 Gilmour Street, Paisley, Renfrewshire, PA1 1DD"
2026-04-02,1930450,Horse & Jockey,Pub/bar/nightclub,18 Birchfield Road,Widnes,Halton,,WA8 7SU,Halton,AwaitingInspection,,FHRS,False,53.3729529,-2.7325849,"18 Birchfield Road, Widnes, Halton, WA8 7SU"
2026-04-02,1930448,The Prospect Inn,Pub/bar/nightclub,70 Weston Road,Runcorn,Halton,,WA7 4LD,Halton,AwaitingInspection,,FHRS,False,53.3240128,-2.7448376,"70 Weston Road, Runcorn, Halton, WA7 4LD"
2026-04-02,1930648,K&N Hospitality Ltd,Pub/bar/nightclub,White Hart,Stratford Road,Newbold-on-Stour,Stratford-upon-Avon,CV37 8TS,Stratford-on-Avon,AwaitingInspection,,FHRS,False,52.115735,-1.641225,"White Hart, Stratford Road, Newbold-on-Stour, Stratford-upon-Avon, CV37 8TS"
2026-04-02,1723126,Bell Inn Middleton,Pub/bar/nightclub,Bell Inn,The Street,Middleton,Saxmundham,IP17 3NN,East Suffolk,5,2024-05-23,FHRS,False,52.2550824,1.5576927,"Bell Inn, The Street, Middleton, Saxmundham, IP17 3NN"
2026-04-02,1930488,The Castle Inn,Pub/bar/nightclub,Castle Inn,Castle Street,Framlingham,Woodbridge,IP13 9BP,East Suffolk,AwaitingInspection,,FHRS,True,52.2232322,1.3459592,"Castle Inn, Castle Street, Framlingham, Woodbridge, IP13 9BP"
2026-04-03,1931322,The Music Room,Pub/bar/nightclub,,3-5 Church Street,Larkhall,South Lanarkshire,ML9 1EZ,South Lanarkshire,Awaiting Inspection,,FHIS,False,55.7370208,-3.9714379,"3-5 Church Street, Larkhall, South Lanarkshire, ML9 1EZ"
2026-04-03,1931392,Rose and Crown,Pub/bar/nightclub,Rose and Crown Ph,Vicarage Lane,Ivinghoe,Buckinghamshire,LU7 9EQ,Buckinghamshire,5,2026-03-31,FHRS,False,51.837545,-0.6296514,"Rose and Crown Ph, Vicarage Lane, Ivinghoe, Buckinghamshire, LU7 9EQ"
2026-04-03,1931395,The Eagle,Pub/bar/nightclub,The Eagle Public House,145 High Street,Amersham,Buckinghamshire,HP7 0DY,Buckinghamshire,5,2026-03-17,FHRS,False,51.6675834655762,-0.620334029197693,"The Eagle Public House, 145 High Street, Amersham, Buckinghamshire, HP7 0DY"
2026-04-03,1931521,Abbey Gates Bar & Grill,Pub/bar/nightclub,Abbey Gate,88 Main Street,Kilwinning,North Ayrshire,KA13 6AG,North Ayrshire,Pass,2026-03-10,FHIS,False,55.6539591,-4.6986523,"Abbey Gate, 88 Main Street, Kilwinning, North Ayrshire, KA13 6AG"
2026-04-03,1931520,Black Bull Inn,Pub/bar/nightclub,,2 Vennel Street,Dalry,North Ayrshire,KA24 4AF,North Ayrshire,Awaiting Inspection,,FHIS,False,55.7080626,-4.7218059,"2 Vennel Street, Dalry, North Ayrshire, KA24 4AF"
2026-04-03,1931518,Millport Golf Club,Pub/bar/nightclub,Millport Golf Club,Golf Road,Millport,North Ayrshire,KA28 0HB,North Ayrshire,Awaiting Inspection,,FHIS,False,55.7588091,-4.9395626,"Millport Golf Club, Golf Road, Millport, North Ayrshire, KA28 0HB"
2026-04-03,1928892,The Morgan Pub,Pub/bar/nightclub,52 Clarence Road,Malvern,Worcestershire,,WR14 3EQ,Malvern Hills,AwaitingInspection,,FHRS,False,52.1072944,-2.3175516,"52 Clarence Road, Malvern, Worcestershire, WR14 3EQ"
2026-04-03,1931032,Church Inn,Pub/bar/nightclub,Church Road,Darley Dale,Derbyshire,,DE4 2GG,Derbyshire Dales,1,2024-10-25,FHRS,False,53.166558,-1.602001,"Church Road, Darley Dale, Derbyshire, DE4 2GG"
2026-04-03,1930979,CENTRAL BAR,Pub/bar/nightclub,Central Bar,415 Great Northern Road,Aberdeen,Aberdeen City,AB24 2EU,Aberdeen City,Awaiting Inspection,1999-04-01,FHIS,False,57.170451,-2.1250232,"Central Bar, 415 Great Northern Road, Aberdeen, Aberdeen City, AB24 2EU"
2026-04-03,1930977,SLAINS,Pub/bar/nightclub,,10-12 Belmont Street,,,AB21 0UR,Aberdeen City,Awaiting Inspection,1999-04-01,FHIS,False,,,"10-12 Belmont Street, AB21 0UR"
2026-04-03,1848250,Mid Kent Golf Club,Pub/bar/nightclub,Singlewell Road,Gravesend,Kent,,DA11 7RB,Gravesham,AwaitingInspection,,FHRS,False,51.426094,0.368058,"Singlewell Road, Gravesend, Kent, DA11 7RB"
2026-04-03,1931238,The Pig Pub,Pub/bar/nightclub,Public House and Premises,36 White Rock,Hastings,East Sussex,TN34 1JL,Hastings,AwaitingInspection,,FHRS,False,50.8543761,0.5754263,"Public House and Premises, 36 White Rock, Hastings, East Sussex, TN34 1JL"
2026-04-03,250668,Stockton Cricket & Rugby Club,Pub/bar/nightclub,,52a Oxbridge Avenue,,Stockton-On-Tees,TS18 4JF,Stockton On Tees,5,2024-07-18,FHRS,False,54.565039,-1.338263,"52a Oxbridge Avenue, Stockton-On-Tees, TS18 4JF"
2026-04-03,1931366,Forde Hall Catering,Pub/bar/nightclub,Forde Hall Social Club Brunel Road Newton Abbot,,,,TQ12 4AG,Teignbridge,AwaitingInspection,,FHRS,False,,,"Forde Hall Social Club Brunel Road Newton Abbot, TQ12 4AG"
2026-04-03,1931374,Top Hat & Tails,Pub/bar/nightclub,40 Northumberland Place Teignmouth,,,,TQ14 8BU,Teignbridge,AwaitingInspection,,FHRS,False,50.5449189,-3.4981059,"40 Northumberland Place Teignmouth, TQ14 8BU"
2026-04-03,1930973,Duke of Cambridge,Pub/bar/nightclub,Tilford Road,,Farnham,,GU102DD,Waverley,AwaitingInspection,,FHRS,False,51.17748804,-0.74904214,"Tilford Road, Farnham, GU102DD"
2026-04-03,1930951,Ales And Blooms Ltd,Pub/bar/nightclub,136 Tankerton Road,East Of Tankerton Circus,Whitstable,Kent,CT5 2AN,Canterbury City,AwaitingInspection,,FHRS,False,51.3635999,1.0439429,"136 Tankerton Road, East Of Tankerton Circus, Whitstable, Kent, CT5 2AN"
2026-04-03,1210093,Earth Venue,Pub/bar/nightclub,,11-17 STOKE NEWINGTON ROAD,Hackney,London,N16 8BH,Hackney,Exempt,,FHRS,False,51.5509667,-0.0753677,"11-17 STOKE NEWINGTON ROAD, Hackney, London, N16 8BH"
2026-04-03,1931343,The Blustery Barrel,Pub/bar/nightclub,8 Windy Bank,Colne,Lancashire,,BB8 9HZ,Pendle,AwaitingInspection,,FHRS,False,53.8573837,-2.1684382,"8 Windy Bank, Colne, Lancashire, BB8 9HZ"
2026-04-03,1913505,The Cub,Pub/bar/nightclub,14 - 15 Milsom Place,City Centre,Bath,Bath And North East Somerset,BA1 1BZ,Bath and North East Somerset,AwaitingInspection,,FHRS,True,51.3839017,-2.3605711,"14 - 15 Milsom Place, City Centre, Bath, Bath And North East Somerset, BA1 1BZ"
2026-04-03,1931253,The Country House Inn,Pub/bar/nightclub,Country House Inn,174 - 176 Withycombe Village Road,Exmouth,,EX8 3BA,East Devon,AwaitingInspection,,FHRS,False,50.6294142,-3.3982374,"Country House Inn, 174 - 176 Withycombe Village Road, Exmouth, EX8 3BA"
2026-04-03,1931296,The Hart,Pub/bar/nightclub,573 Harlestone Road,Duston,Northampton,NN5 6NU,NN5 6NU,West Northamptonshire,AwaitingInspection,,FHRS,False,52.260355,-0.953488,"573 Harlestone Road, Duston, Northampton, NN5 6NU, NN5 6NU"
2026-04-03,1930943,Railway Hotel,Pub/bar/nightclub,Preston Street,Faversham,Kent,,ME13 8PE,Swale,AwaitingInspection,,FHRS,False,51.3135924,0.89087265,"Preston Street, Faversham, Kent, ME13 8PE"
2026-04-03,1930936,The Bank,Pub/bar/nightclub,44 - 45 Court Street,Faversham,Kent,,ME13 7AP,Swale,AwaitingInspection,,FHRS,False,51.3161615,0.8916711,"44 - 45 Court Street, Faversham, Kent, ME13 7AP"
2026-04-03,1930942,The Park Tavern,Pub/bar/nightclub,Park Road,Sittingbourne,Kent,,ME10 1DZ,Swale,AwaitingInspection,,FHRS,False,51.337678,0.729993,"Park Road, Sittingbourne, Kent, ME10 1DZ"
2026-04-03,1931350,The Railway Pub,Pub/bar/nightclub,The Railway,Station Road,Hinckley,Leicestershire,LE10 1AP,Hinckley and Bosworth,5,2026-03-18,FHRS,False,52.537408,-1.372315,"The Railway, Station Road, Hinckley, Leicestershire, LE10 1AP"
2026-04-03,1911973,The Red Lion,Pub/bar/nightclub,Red Lion Inn,36 Fore Street,Newlyn,Penzance,TR18 5JP,Cornwall,AwaitingInspection,,FHRS,True,50.1021496,-5.5479114,"Red Lion Inn, 36 Fore Street, Newlyn, Penzance, TR18 5JP"
2026-04-08,1932008,Sunny Bank Club,Pub/bar/nightclub,Sunnybank Club,Sunnybank Park Homes,Wenlock Bank,Lapley,ST19 9QH,South Staffordshire,5,2026-03-31,FHRS,False,52.7187119,-2.2050685,"Sunnybank Club, Sunnybank Park Homes, Wenlock Bank, Lapley, ST19 9QH"
2026-04-08,1932009,The Crown,Pub/bar/nightclub,15 High Street,Pattingham,WOLVERHAMPTON,,WV6 7BQ,South Staffordshire,5,2026-03-25,FHRS,False,52.5888432,-2.2654213,"15 High Street, Pattingham, WOLVERHAMPTON, WV6 7BQ"
2026-04-08,1931773,The Old Chestnut,Pub/bar/nightclub,The Old Chestnut Public House,12 Station Approach West,Redhill,Surrey,RH1 6HP,Reigate and Banstead,AwaitingInspection,,FHRS,False,51.2276151,-0.1715303,"The Old Chestnut Public House, 12 Station Approach West, Redhill, Surrey, RH1 6HP"
2026-04-08,1931769,Cow & Telescope Pub T/A Wide Mouth Frog Ltd,Pub/bar/nightclub,Cow & Telescope,79 Southchurch Road,Southend-on-sea,Essex,SS1 2NL,Southend-On-Sea,5,2026-03-17,FHRS,False,51.5402768,0.7148892,"Cow & Telescope, 79 Southchurch Road, Southend-on-sea, Essex, SS1 2NL"
2026-04-08,1153526,The White Horse,Pub/bar/nightclub,The Jackson Stops,Rookery Lane,Stretton,Oakham,LE15 7RA,Rutland,AwaitingInspection,,FHRS,False,,,"The Jackson Stops, Rookery Lane, Stretton, Oakham, LE15 7RA"
2026-04-08,1869432,Dacre Banks Cricket Club,Pub/bar/nightclub,Max Pullan Sports Club Dacre To Summerbridge,,,Dacre Banks,HG3 4ED,North Yorkshire,AwaitingInspection,,FHRS,False,54.0554673,-1.6962011,"Max Pullan Sports Club Dacre To Summerbridge, Dacre Banks, HG3 4ED"
2026-04-08,1869218,Grantham Arms,Pub/bar/nightclub,Grantham Arms Cut Bridge To Church Lane,,,Milby,YO51 9BW,North Yorkshire,AwaitingInspection,,FHRS,False,,,"Grantham Arms Cut Bridge To Church Lane, Milby, YO51 9BW"
2026-04-08,1931956,The Dawney Arms,Pub/bar/nightclub,The Dawnay Arms Main Street,,,Shipton By Beningbrough,YO30 1AB,North Yorkshire,AwaitingInspection,,FHRS,True,54.0211258,-1.1579995,"The Dawnay Arms Main Street, Shipton By Beningbrough, YO30 1AB"
2026-04-08,1931709,Pembroke Arms,Pub/bar/nightclub,29 Hitchin Street,Biggleswade,Beds,,SG18 8BE,Central Bedfordshire,AwaitingInspection,,FHRS,False,52.084708,-0.265636,"29 Hitchin Street, Biggleswade, Beds, SG18 8BE"
2026-04-08,1931683,The Gunmakers Arms,Pub/bar/nightclub,Trysull Road,Wolverhampton,West Midlands,,WV3 7JE,Wolverhampton,AwaitingInspection,,FHRS,False,52.575392,-2.157579,"Trysull Road, Wolverhampton, West Midlands, WV3 7JE"
2026-04-08,1931938,Cactus Cue Club,Pub/bar/nightclub,Unit 19 Tridax Business Park Honeywood Parkway,White Cliffs Business Park,Whitfield,Kent,CT16 3QX,Dover,AwaitingInspection,,FHRS,False,51.1527193,1.3059264,"Unit 19 Tridax Business Park Honeywood Parkway, White Cliffs Business Park, Whitfield, Kent, CT16 3QX"
2026-04-08,1931940,Fleur de lis Hotel LTD,Pub/bar/nightclub,4 Delf Street,,Sandwich,,CT13 9BZ,Dover,AwaitingInspection,,FHRS,False,51.2749783,1.3396299,"4 Delf Street, Sandwich, CT13 9BZ"
2026-04-08,1931657,The Bear Inn,Pub/bar/nightclub,Tostock Road,Beyton,BURY ST EDMUNDS,Suffolk,IP30 9AG,Mid Suffolk,AwaitingInspection,,FHRS,False,52.233129,0.837672,"Tostock Road, Beyton, BURY ST EDMUNDS, Suffolk, IP30 9AG"
2026-04-08,173675,Star Inn,Pub/bar/nightclub,Manor Road,Sulgrave,,,OX17 2SA,West Northamptonshire,4,2012-03-15,FHRS,False,52.1055068969727,-1.18610405921936,"Manor Road, Sulgrave, OX17 2SA"
2026-04-08,160452,The Olde Coach House,Pub/bar/nightclub,Main Street,Ashby St Ledgers,West Northamptonshire,,CV23 8UN,West Northamptonshire,5,2024-11-11,FHRS,False,,,"Main Street, Ashby St Ledgers, West Northamptonshire, CV23 8UN"
2026-04-08,728631,MULLANS BAR,Pub/bar/nightclub,48 Church Street,,Downpatrick,Down,BT30 6EJ,"Newry, Mourne and Down",5,2020-01-16,FHRS,False,54.331066,-5.716138,"48 Church Street, Downpatrick, Down, BT30 6EJ"
2026-04-08,728401,THE ANNE BOAL INN,Pub/bar/nightclub,86 Main Street,Killough,Killough,Down,BT30 7QD,"Newry, Mourne and Down",5,2020-03-03,FHRS,False,54.2549285888672,-5.64516592025757,"86 Main Street, Killough, Killough, Down, BT30 7QD"
2026-04-08,1911608,The Boston and County Club Limited,Pub/bar/nightclub,,Park Gate,,Boston,PE21 6RL,Boston,AwaitingInspection,,FHRS,False,52.9801831,-0.02219015,"Park Gate, Boston, PE21 6RL"
2026-04-08,1931692,The Jailhouse,Pub/bar/nightclub,Undercroft Town Hall Maltravers Street,,Arundel,West Sussex,BN18 9AP,Arun,AwaitingInspection,,FHRS,False,50.8548403,-0.5554784,"Undercroft Town Hall Maltravers Street, Arundel, West Sussex, BN18 9AP"
2026-04-08,1931978,The London Stone,Pub/bar/nightclub,13 - 15 Victoria Street,St Albans,Hertfordshire,,AL1 3JJ,St Albans City,AwaitingInspection,,FHRS,True,51.7521573,-0.3375509,"13 - 15 Victoria Street, St Albans, Hertfordshire, AL1 3JJ"
2026-04-08,1931998,Blythe Hill Tavern,Pub/bar/nightclub,The Blythe Hotel,319 Stanstead Road,London,,SE23 1JB,Lewisham,5,2017-03-31,FHRS,False,51.4424096,-0.0338595,"The Blythe Hotel, 319 Stanstead Road, London, SE23 1JB"
2026-04-08,462910,Plough Inn,Pub/bar/nightclub,41 Holborn Hill,Millom,Cumbria,LA18 5BH,,Cumberland,AwaitingInspection,,FHRS,True,54.2117726,-3.2748713,"41 Holborn Hill, Millom, Cumbria, LA18 5BH"
2026-04-08,1931797,Hux at the Holden,Pub/bar/nightclub,The Charles Holden 198 High Street Collier's Wood,,Colliers Wood,Merton,SW19 2BH,Merton,AwaitingInspection,,FHRS,False,51.4179714,-0.1787114,"The Charles Holden 198 High Street Collier's Wood, Colliers Wood, Merton, SW19 2BH"
2026-04-09,110554,Bull & Sun,Pub/bar/nightclub,11 Baylegate,Bridlington,East Riding Of Yorkshire,,YO16 7JT,East Riding of Yorkshire,AwaitingInspection,,FHRS,False,54.093183,-0.204201,"11 Baylegate, Bridlington, East Riding Of Yorkshire, YO16 7JT"
2026-04-09,1932264,The Bull Inn,Pub/bar/nightclub,The Bull Reading Road,Streatley,Reading,West Berkshire,RG8 9JJ,West Berkshire,AwaitingInspection,,FHRS,False,51.5224637,-1.1489954,"The Bull Reading Road, Streatley, Reading, West Berkshire, RG8 9JJ"
2026-04-09,1932050,The Four Chesnuts,Pub/bar/nightclub,234 Oving Road,Chichester,West Sussex,,PO19 7EJ,Chichester,5,2026-03-19,FHRS,False,50.83671,-0.763787,"234 Oving Road, Chichester, West Sussex, PO19 7EJ"
2026-04-09,1932049,Kerry O' Shea's,Pub/bar/nightclub,Unit 3,305 Whitley Road,Whitley Bay,Tyne And Wear,NE26 2HU,North Tyneside,5,2026-03-25,FHRS,False,55.0417091,-1.4469662,"Unit 3, 305 Whitley Road, Whitley Bay, Tyne And Wear, NE26 2HU"
2026-04-09,327204,Ticket Office Bar,Pub/bar/nightclub,Unit 11 Station Plaza,Station Road,Ilkley,,LS29 8HF,Bradford,AwaitingInspection,,FHRS,False,53.924682,-1.822348,"Unit 11 Station Plaza, Station Road, Ilkley, LS29 8HF"
2026-04-09,1932219,Bathams Brewery,Pub/bar/nightclub,10 Delph Road,Brierley Hill,,,DY5 2TN,Dudley,5,2026-02-25,FHRS,False,52.474627,-2.115819,"10 Delph Road, Brierley Hill, DY5 2TN"
2026-04-09,1932217,The Ivy House Club,Pub/bar/nightclub,57 Ivyhouse Lane,Coseley,Bilston,,WV14 9JH,Dudley,4,2026-01-19,FHRS,False,52.543477,-2.089238,"57 Ivyhouse Lane, Coseley, Bilston, WV14 9JH"
2026-04-09,1932211,The Starving Rascal,Pub/bar/nightclub,1 Brettell Lane,Brierley Hill,,,DY8 4BN,Dudley,AwaitingInspection,,FHRS,False,52.4726588258606,-2.14465082868672,"1 Brettell Lane, Brierley Hill, DY8 4BN"
2026-04-09,1932216,The Widders Pub,Pub/bar/nightclub,The Widders,Barrack Lane,Cradley,Halesowen,B63 2UX,Dudley,4,2015-01-06,FHRS,False,,,"The Widders, Barrack Lane, Cradley, Halesowen, B63 2UX"
2026-04-09,1929110,Bottle & Jug Dept,Pub/bar/nightclub,21 South Farm Road,,Worthing,West Sussex,BN14 7AD,Worthing,5,2026-03-24,FHRS,False,50.8188344,-0.378808,"21 South Farm Road, Worthing, West Sussex, BN14 7AD"
2026-04-09,104261,Squires,Pub/bar/nightclub,,47-49 Church Street,Lancaster,Lancashire,LA1 1LP,Lancaster City,AwaitingInspection,,FHRS,True,54.049459,-2.800202,"47-49 Church Street, Lancaster, Lancashire, LA1 1LP"
2026-04-09,1932096,Holly Bush,Pub/bar/nightclub,Holly Bush,Hollybush Inn,Llay Road Cefn-Y-Bedd,Flintshire,LL12 9UD,Flintshire,AwaitingInspection,,FHRS,False,,,"Holly Bush, Hollybush Inn, Llay Road Cefn-Y-Bedd, Flintshire, LL12 9UD"
2026-04-09,1932096,Holly Bush,Pub/bar/nightclub,Holly Bush,Hollybush Inn,Llay Road Cefn-Y-Bedd,Flintshire,LL12 9UD,Sir y Fflint,AwaitingInspection,,FHRS,False,,,"Holly Bush, Hollybush Inn, Llay Road Cefn-Y-Bedd, Flintshire, LL12 9UD"
2026-04-09,1932109,Hare and Hounds,Pub/bar/nightclub,The Hare And Hounds Holyhead Road,Oakengates,Telford,Shropshire,TF2 6DJ,Telford and Wrekin Council,AwaitingInspection,,FHRS,False,52.6907083,-2.4493215,"The Hare And Hounds Holyhead Road, Oakengates, Telford, Shropshire, TF2 6DJ"
2026-04-10,1932369,All Nations Community Centre,Pub/bar/nightclub,Chase Lane,Eastern Avenue,Gloucester,,GL4 6PH,Gloucester City,AwaitingInspection,,FHRS,False,51.8554128,-2.2249127,"Chase Lane, Eastern Avenue, Gloucester, GL4 6PH"
2026-04-10,1932605,Food In The Shoes,Pub/bar/nightclub,The Three Horse Shoes,Duton Hill,Tilty,Dunmow,CM6 2DX,Uttlesford,AwaitingInspection,,FHRS,False,51.9170007,0.3319848,"The Three Horse Shoes, Duton Hill, Tilty, Dunmow, CM6 2DX"
2026-04-10,1932608,Kings Arms Hotel,Pub/bar/nightclub,1 Station Road,Stansted,Essex,,CM24 8BE,Uttlesford,AwaitingInspection,,FHRS,False,51.9016489,0.1994231,"1 Station Road, Stansted, Essex, CM24 8BE"
2026-04-10,1932612,The Chequers,Pub/bar/nightclub,The Chequers Inn,Braintree Road,Felsted,Dunmow,CM6 3DL,Uttlesford,AwaitingInspection,,FHRS,False,51.857352,0.436342,"The Chequers Inn, Braintree Road, Felsted, Dunmow, CM6 3DL"
2026-04-10,1932388,Karmaa Kitchens Limited,Pub/bar/nightclub,Horse & Chains,High Street,Bushey,Hertfordshire,WD23 1BL,Hertsmere,AwaitingInspection,,FHRS,False,,,"Horse & Chains, High Street, Bushey, Hertfordshire, WD23 1BL"
2026-04-10,1932602,Plum Pudding,Pub/bar/nightclub,Rugeley Road,Armitage,Rugeley,Staffordshire,WS15 4AZ,Lichfield,AwaitingInspection,,FHRS,False,52.7452163696289,-1.88865995407104,"Rugeley Road, Armitage, Rugeley, Staffordshire, WS15 4AZ"
2026-04-10,1932400,Behind The Wall,Pub/bar/nightclub,,14 Melville Street,,Falkirk,FK1 1HZ,Falkirk,Pass,2026-04-01,FHIS,False,56.001149,-3.785447,"14 Melville Street, Falkirk, FK1 1HZ"
2026-04-10,1932476,The Broken Drum,Pub/bar/nightclub,308 Westwood Lane,Sidcup,Kent,,DA15 9PT,Bexley,AwaitingInspection,,FHRS,False,51.45174,0.103178,"308 Westwood Lane, Sidcup, Kent, DA15 9PT"
2026-04-10,1931278,The Red Lion,Pub/bar/nightclub,4 St Anns Road,Malvern,Worcestershire,,WR14 4RG,Malvern Hills,AwaitingInspection,,FHRS,False,52.1121942,-2.3306708,"4 St Anns Road, Malvern, Worcestershire, WR14 4RG"
2026-04-10,1927494,Calley Arms,Pub/bar/nightclub,The Calley Arms,Hodson Lane,Hodson,Swindon,SN4 0QG,Swindon,AwaitingInspection,,FHRS,False,51.5229110717773,-1.75150799751282,"The Calley Arms, Hodson Lane, Hodson, Swindon, SN4 0QG"
2026-04-10,1932508,Drunken Duck,Pub/bar/nightclub,86 Chapel Street,Gortalowry,Cookstown,Co. Tyrone,BT80 8QD,Mid Ulster,AwaitingInspection,,FHRS,False,54.641134,-6.74385,"86 Chapel Street, Gortalowry, Cookstown, Co. Tyrone, BT80 8QD"
2026-04-10,1843360,Cowie Tavern,Pub/bar/nightclub,22 Main Street,Cowie,,,FK7 7BL,Stirling,Pass,2025-12-12,FHIS,False,56.0818057,-3.8694378,"22 Main Street, Cowie, FK7 7BL"
2026-04-10,1928842,Laros – Greek Street Food (Sale),Pub/bar/nightclub,Little B,195 Marsland Road,Sale,,M33 3ND,Trafford,AwaitingInspection,,FHRS,False,53.4173416,-2.3204691,"Little B, 195 Marsland Road, Sale, M33 3ND"
2026-04-10,1932491,Park Avenue Food Court,Pub/bar/nightclub,Forecourt,21 The Avenue,Minehead,Somerset,TA24 5AY,Somerset,AwaitingInspection,,FHRS,True,51.2066412,-3.474545,"Forecourt, 21 The Avenue, Minehead, Somerset, TA24 5AY"
2026-04-10,1932593,The Activity Companions Social Club,Pub/bar/nightclub,Ile Youth and Community Centre,Frog Lane,Ilminster,Somerset,TA19 0AP,Somerset,AwaitingInspection,,FHRS,False,50.9265867,-2.9073591,"Ile Youth and Community Centre, Frog Lane, Ilminster, Somerset, TA19 0AP"
2026-04-10,1932493,The Carew Arms,Pub/bar/nightclub,Crowcombe Road,Crowcombe,Bishops Lydeard,Somerset,TA4 4AD,Somerset,AwaitingInspection,,FHRS,True,51.1248127,-3.2307184,"Crowcombe Road, Crowcombe, Bishops Lydeard, Somerset, TA4 4AD"
2026-04-10,1932492,Woods bar and Restaurant,Pub/bar/nightclub,Woods Bar & Restaurant Woods Bar & Resturant,4 Bank Square,Dulverton,Somerset,TA22 9BU,Somerset,5,2026-02-19,FHRS,False,,,"Woods Bar & Restaurant Woods Bar & Resturant, 4 Bank Square, Dulverton, Somerset, TA22 9BU"
2026-04-10,1932416,Rebel's,Pub/bar/nightclub,Station Approach,Unit 1,Station Approach,East Boldon,NE36 0AB,South Tyneside,AwaitingInspection,,FHRS,False,54.9475243,-1.4198163,"Station Approach, Unit 1, Station Approach, East Boldon, NE36 0AB"
2026-04-10,8908,The Queens Arms,Pub/bar/nightclub,Queens Arms,Bunnian Place,Basingstoke,Hampshire,RG21 7JE,Basingstoke and Deane,5,2026-03-26,FHRS,False,51.268184,-1.086132,"Queens Arms, Bunnian Place, Basingstoke, Hampshire, RG21 7JE"
2026-04-11,1933229,Boston Bar,Pub/bar/nightclub,104 Hanover Street,Edinburgh,,,EH2 1DR,Edinburgh (City of),Awaiting Inspection,,FHIS,False,55.954486,-3.198273,"104 Hanover Street, Edinburgh, EH2 1DR"
2026-04-11,1933227,O'Neills Edinburgh,Pub/bar/nightclub,9 Hunter Square,Edinburgh,,,,Edinburgh (City of),Pass,2026-03-25,FHIS,False,55.9495535,-3.1875817,"9 Hunter Square, Edinburgh"
2026-04-11,1933127,Griffin Inn,Pub/bar/nightclub,Griffin Inn,Church Lane,Eccleston,,WA10 5AD,St Helens,AwaitingInspection,,FHRS,False,53.4529016,-2.7783377,"Griffin Inn, Church Lane, Eccleston, WA10 5AD"
2026-04-11,1932926,Bayhorse Bar & Kitchen,Pub/bar/nightclub,2 Polepark Road,Dundee,,,DD1 5QS,Dundee City,Awaiting Inspection,2026-04-10,FHIS,False,56.462519,-2.990755,"2 Polepark Road, Dundee, DD1 5QS"
2026-04-11,1933216,Sportsmans Rest,Pub/bar/nightclub,Main Road,Porchfield,Isle Of Wight,,PO30 4LP,Isle of Wight,AwaitingInspection,,FHRS,False,,,"Main Road, Porchfield, Isle Of Wight, PO30 4LP"
2026-04-11,1933163,Hurstpierpoint Lawn Tennis Club,Pub/bar/nightclub,Hurstpierpoint Lawn Tennis Club,South Avenue Recreation Ground,South Avenue,Hurstpierpoint,BN6 9QA,Mid Sussex,AwaitingInspection,,FHRS,False,,,"Hurstpierpoint Lawn Tennis Club, South Avenue Recreation Ground, South Avenue, Hurstpierpoint, BN6 9QA"
2026-04-11,1550818,Falmouth House masonic Hall Ltd,Pub/bar/nightclub,Falmouth House 81 Hexham Road,,Newcastle Upon Tyne,,NE15 9DX,Newcastle Upon Tyne,5,2026-01-08,FHRS,False,54.9957675,-1.7603661,"Falmouth House 81 Hexham Road, Newcastle Upon Tyne, NE15 9DX"
2026-04-11,1581129,MERKUR Slots,Pub/bar/nightclub,44 - 48 Clayton Street,,Newcastle Upon Tyne,,NE1 5PF,Newcastle Upon Tyne,5,2024-01-09,FHRS,False,54.9717587,-1.6172139,"44 - 48 Clayton Street, Newcastle Upon Tyne, NE1 5PF"
2026-04-11,1933138,The Wobbly Duck,Pub/bar/nightclub,Basement 4 Eldon Square,,Newcastle Upon Tyne,,NE1 7JG,Newcastle Upon Tyne,AwaitingInspection,,FHRS,False,54.9744638,-1.6144546,"Basement 4 Eldon Square, Newcastle Upon Tyne, NE1 7JG"
2026-04-11,1933087,Rose & Crown,Pub/bar/nightclub,Rose And Crown 8 Church Street,,Ludlow,Shropshire,SY8 1AP,Shropshire,AwaitingInspection,,FHRS,False,52.3679075,-2.7197631,"Rose And Crown 8 Church Street, Ludlow, Shropshire, SY8 1AP"
2026-04-11,1932869,Oxygen,Pub/bar/nightclub,24a Dryden Street,Leicester,,,LE1 3QE,Leicester City,Exempt,,FHRS,False,52.6395029,-1.1285356,"24a Dryden Street, Leicester, LE1 3QE"
2026-04-11,1932746,The Railway Mirfield,Pub/bar/nightclub,The Railway,212 Huddersfield Road,Mirfield,,WF14 9PX,Kirklees,5,2026-03-30,FHRS,False,53.6757516,-1.6978754,"The Railway, 212 Huddersfield Road, Mirfield, WF14 9PX"
2026-04-11,1932743,The Rising Sun,Pub/bar/nightclub,162 Penistone Road,Shelley,Huddersfield,,HD8 8JB,Kirklees,AwaitingInspection,,FHRS,True,53.594665,-1.702621,"162 Penistone Road, Shelley, Huddersfield, HD8 8JB"
2026-04-11,1904557,The Croft,Pub/bar/nightclub,The Croft Inn,Hatt,Saltash,Cornwall,PL12 6PJ,Cornwall,AwaitingInspection,,FHRS,True,50.4326024,-4.2564179,"The Croft Inn, Hatt, Saltash, Cornwall, PL12 6PJ"
2026-04-11,1933175,The Blacksmiths Arms,Pub/bar/nightclub,The Blacksmiths Arms The Street,,Offham,,BN7 3QD,Lewes,AwaitingInspection,,FHRS,True,,,"The Blacksmiths Arms The Street, Offham, BN7 3QD"
2026-04-11,1932901,Rob Finch Catering,Pub/bar/nightclub,Dinsdale Golf Club,Neasham Road,Brass Castle,Middleton St George,DL2 1DW,Darlington,AwaitingInspection,,FHRS,False,54.5003974,-1.4841538,"Dinsdale Golf Club, Neasham Road, Brass Castle, Middleton St George, DL2 1DW"
2026-04-11,1924103,"Rocket Room, Leicester Square",Pub/bar/nightclub,20-21 LEICESTER SQUARE,,LONDON,,WC2H 7JX,Westminster,AwaitingInspection,,FHRS,False,51.5107698,-0.1292758,"20-21 LEICESTER SQUARE, LONDON, WC2H 7JX"
2026-04-13,730982,The Sugar Loaf,Pub/bar/nightclub,2 Nottingham Road,Ab Kettleby,Melton Mowbray,,LE14 3JB,Melton,1,2025-09-09,FHRS,False,52.80647,-0.92853,"2 Nottingham Road, Ab Kettleby, Melton Mowbray, LE14 3JB"
2026-04-14,1933600,Cross Keys,Pub/bar/nightclub,Cross Keys,15 Byard Lane,,Nottingham,NG1 2GJ,Nottingham City,AwaitingInspection,,FHRS,False,52.951957,-1.146717,"Cross Keys, 15 Byard Lane, Nottingham, NG1 2GJ"
2026-04-14,1933599,Hand & Heart,Pub/bar/nightclub,,65-67 Derby Road,,Nottingham,NG1 5BA,Nottingham City,AwaitingInspection,,FHRS,False,52.955406,-1.160254,"65-67 Derby Road, Nottingham, NG1 5BA"
2026-04-14,1933602,Mssng Pieces Bar,Pub/bar/nightclub,,34b Heathcoat Street,,Nottingham,NG1 3AA,Nottingham City,AwaitingInspection,,FHRS,False,52.9548978,-1.142891,"34b Heathcoat Street, Nottingham, NG1 3AA"
2026-04-14,1933637,The Chelsfield,Pub/bar/nightclub,The Chelsfield 1 Windsor Drive,,Orpington,,BR6 6EY,Bromley,AwaitingInspection,,FHRS,False,51.3568495,0.1065674,"The Chelsfield 1 Windsor Drive, Orpington, BR6 6EY"
2026-04-14,1933308,Concept,Pub/bar/nightclub,6 The Candar,Fore Street,ILFRACOMBE,Devon,EX34 9DG,North Devon,AwaitingInspection,,FHRS,False,,,"6 The Candar, Fore Street, ILFRACOMBE, Devon, EX34 9DG"
2026-04-14,1933648,The Grasshobbler,Pub/bar/nightclub,7 High Street,,,Leyburn,DL8 5AQ,North Yorkshire,AwaitingInspection,,FHRS,False,54.3103805,-1.8305687,"7 High Street, Leyburn, DL8 5AQ"
2026-04-14,1933402,Hit King,Pub/bar/nightclub,9 Stoney Lane,London,,,E1 7BH,City of London Corporation,AwaitingInspection,,FHRS,False,51.51552,-0.077752,"9 Stoney Lane, London, E1 7BH"
2026-04-14,1933420,Heartbreakers,Pub/bar/nightclub,7 Hanover Buildings,Southampton,,,SO14 1JX,Southampton,AwaitingInspection,,FHRS,False,50.9028216,-1.4016339,"7 Hanover Buildings, Southampton, SO14 1JX"
2026-04-14,1933416,The Regents Park,Pub/bar/nightclub,35 Regents Park Road,Southampton,,,SO15 8PF,Southampton,AwaitingInspection,,FHRS,False,50.9159438,-1.4429572,"35 Regents Park Road, Southampton, SO15 8PF"
2026-04-14,554502,Ongar Youth Centre,Pub/bar/nightclub,The Gables,Ongar,Essex,,CM5 0GA,Epping Forest,5,2025-04-30,FHRS,False,51.714964,0.24705,"The Gables, Ongar, Essex, CM5 0GA"
2026-04-14,1933479,The Three Jolly Wheelers,Pub/bar/nightclub,735 Chigwell Road,Woodford Green,Chigwell,Essex,IG8 8AU,Epping Forest,AwaitingInspection,,FHRS,False,51.6092049,0.0590573,"735 Chigwell Road, Woodford Green, Chigwell, Essex, IG8 8AU"
2026-04-14,1933481,The Woodman,Pub/bar/nightclub,The Woodman Public House 155 London Road,Stanford Rivers,Ongar,Essex,CM5 9QF,Epping Forest,5,2025-06-02,FHRS,False,51.6760959,0.2131202,"The Woodman Public House 155 London Road, Stanford Rivers, Ongar, Essex, CM5 9QF"
2026-04-14,1933385,Prince Albert,Pub/bar/nightclub,The Prince Albert Public House,Railway Street,City Centre,Wolverhampton,WV1 1LG,Wolverhampton,AwaitingInspection,,FHRS,False,52.586976,-2.12298,"The Prince Albert Public House, Railway Street, City Centre, Wolverhampton, WV1 1LG"
2026-04-14,1488081,The Farmhouse At Fincham,Pub/bar/nightclub,Lynn Road,Fincham,King's Lynn,Norfolk,PE33 9HE,King's Lynn and West Norfolk,3,2026-03-04,FHRS,False,52.6307754516602,0.481842994689941,"Lynn Road, Fincham, King's Lynn, Norfolk, PE33 9HE"
2026-04-14,1933697,Castleford Sports and Social Club,Pub/bar/nightclub,1 Powell Street,Castleford,,,WF10 1EL,Wakefield,3,2026-03-13,FHRS,False,53.725097,-1.354092,"1 Powell Street, Castleford, WF10 1EL"
2026-04-14,1933700,The Angel,Pub/bar/nightclub,Wakefield Road,Ackworth,Pontefract,,WF7 7AB,Wakefield,AwaitingInspection,,FHRS,True,53.641017,-1.346861,"Wakefield Road, Ackworth, Pontefract, WF7 7AB"
2026-04-14,1933397,The Egg & Monkey,Pub/bar/nightclub,1 Silver Street,Aylesbury,Buckinghamshire,,HP20 2PT,Buckinghamshire,AwaitingInspection,,FHRS,False,51.816136,-0.813193,"1 Silver Street, Aylesbury, Buckinghamshire, HP20 2PT"
2026-04-14,1933444,Butlers of Arundel,Pub/bar/nightclub,25B Tarrant Street,,Arundel,West Sussex,BN18 9DG,Arun,AwaitingInspection,,FHRS,False,50.8541444,-0.5552016,"25B Tarrant Street, Arundel, West Sussex, BN18 9DG"
2026-04-14,1933496,BAR LOKO BRYAN,Pub/bar/nightclub,Unit 5,149 New Cross Road,London,,SE14 5DJ,Lewisham,5,2026-01-16,FHRS,False,51.47607421875,-0.0475279986858368,"Unit 5, 149 New Cross Road, London, SE14 5DJ"
2026-04-14,1933683,Bexhill Conservative Club ltd,Pub/bar/nightclub,Bexhill Conservative Association 6A Amherst Road,,Bexhill,East Sussex,TN40 1QJ,Rother,AwaitingInspection,,FHRS,False,50.8422797,0.4722686,"Bexhill Conservative Association 6A Amherst Road, Bexhill, East Sussex, TN40 1QJ"
2026-04-14,1933628,The Bull,Pub/bar/nightclub,The Bull Inn Public House,5 Tonbridge Road,Barming,Kent,ME16 9HB,Maidstone,AwaitingInspection,,FHRS,False,51.263067,0.470446,"The Bull Inn Public House, 5 Tonbridge Road, Barming, Kent, ME16 9HB"
2026-04-15,1934043,Imperial Inn,Pub/bar/nightclub,38 Bridge Street,Ballyvally,Banbridge,Down,BT32 3JU,"Armagh City, Banbridge and Craigavon",AwaitingInspection,,FHRS,False,54.350582,-6.269117,"38 Bridge Street, Ballyvally, Banbridge, Down, BT32 3JU"
2026-04-15,1933709,The New Pin,Pub/bar/nightclub,The New Pin,Swarkestone Road,Derby,,DE73 5UA,Derby City,AwaitingInspection,,FHRS,False,,,"The New Pin, Swarkestone Road, Derby, DE73 5UA"
2026-04-15,1933893,The Boars Head,Pub/bar/nightclub,4 Clwyd Street,,Ruthin,Denbighshire,LL15 1HW,Sir Ddinbych,AwaitingInspection,,FHRS,False,53.114268,-3.312248,"4 Clwyd Street, Ruthin, Denbighshire, LL15 1HW"
2026-04-15,1933952,The New Scarbrough,Pub/bar/nightclub,47 Dewsbury Road,Tingley,Wakefield,,WF3 1LH,Leeds,AwaitingInspection,,FHRS,False,,,"47 Dewsbury Road, Tingley, Wakefield, WF3 1LH"
2026-04-15,1933767,The Red Lion,Pub/bar/nightclub,Red Lion,High Street,Southwick,Fareham,PO17 6EF,Winchester City,5,2026-04-08,FHRS,False,50.87463,-1.112396,"Red Lion, High Street, Southwick, Fareham, PO17 6EF"
2026-04-15,1934031,Bute Arms,Pub/bar/nightclub,Bute Arms,Hookergate Lane,High Spen,Rowlands Gill,NE39 2BD,Gateshead,AwaitingInspection,,FHRS,False,,,"Bute Arms, Hookergate Lane, High Spen, Rowlands Gill, NE39 2BD"
2026-04-15,1933746,Olivers Bar,Pub/bar/nightclub,AquaVitae,10 Ormond Place,Cheltenham,Gloucestershire,GL50 1JD,Cheltenham,AwaitingInspection,,FHRS,False,51.899031,-2.076557,"AquaVitae, 10 Ormond Place, Cheltenham, Gloucestershire, GL50 1JD"
2026-04-15,1933745,The Ridge,Pub/bar/nightclub,Windyridge Road,Cheltenham,Gloucestershire,,GL50 4RA,Cheltenham,5,2026-04-13,FHRS,False,51.916277,-2.086851,"Windyridge Road, Cheltenham, Gloucestershire, GL50 4RA"
2026-04-15,1933796,Monks Head,Pub/bar/nightclub,44 New Hythe Lane,Larkfield,Aylesford,Kent,ME20 6PN,Tonbridge and Malling,5,2026-04-01,FHRS,False,51.2999452,0.4423114,"44 New Hythe Lane, Larkfield, Aylesford, Kent, ME20 6PN"
2026-04-15,1933893,The Boars Head,Pub/bar/nightclub,4 Clwyd Street,,Ruthin,Denbighshire,LL15 1HW,Denbighshire,AwaitingInspection,,FHRS,False,53.114268,-3.312248,"4 Clwyd Street, Ruthin, Denbighshire, LL15 1HW"
2026-04-15,1933891,Paddy's Kash 22,Pub/bar/nightclub,22 Church Street,,Frodsham,Cheshire,WA6 6QW,Cheshire West and Chester,AwaitingInspection,,FHRS,True,53.2947167,-2.724583,"22 Church Street, Frodsham, Cheshire, WA6 6QW"
2026-04-15,1933881,That Beer Place,Pub/bar/nightclub,116 Foregate Street,,Chester,Cheshire,CH1 1HB,Cheshire West and Chester,AwaitingInspection,,FHRS,False,,,"116 Foregate Street, Chester, Cheshire, CH1 1HB"
2026-04-15,364221,Mystique uk ltd (prince of wales),Pub/bar/nightclub,,14,Ruby Street,London,SE15 1LL,Southwark,5,2019-03-05,FHRS,False,51.482316,-0.061721,"14, Ruby Street, London, SE15 1LL"
2026-04-15,289214,The Blake Arms,Pub/bar/nightclub,Station Road,Seghill,Northumberland,,NE23 7EF,Northumberland,AwaitingInspection,,FHRS,False,55.063634,-1.548438,"Station Road, Seghill, Northumberland, NE23 7EF"
2026-04-15,1933928,Tyne Valley Tap Room Limited,Pub/bar/nightclub,,Stocksfield,Northumberland,,NE43 7TN,Northumberland,AwaitingInspection,,FHRS,False,54.950569152832,-1.9171439409256,"Stocksfield, Northumberland, NE43 7TN"
2026-04-15,1934054,The Denton Holme Working Mens Conservative Club Ltd,Pub/bar/nightclub,,1 Morley Street,Carlisle,,CA2 5HQ,Cumberland,5,2026-02-27,FHRS,False,,,"1 Morley Street, Carlisle, CA2 5HQ"
2026-04-15,1933985,Friars Court,Pub/bar/nightclub,3 Friars Court,Barbauld Street,,,WA1 1EX,Warrington,AwaitingInspection,,FHRS,False,,,"3 Friars Court, Barbauld Street, WA1 1EX"
2026-04-15,1933990,Horseshoe inn,Pub/bar/nightclub,,1 Smithy Lane,,,WA3 7HQ,Warrington,AwaitingInspection,,FHRS,False,53.43747983,-2.55564176,"1 Smithy Lane, WA3 7HQ"
2026-04-16,468269,The Anchor Inn,Pub/bar/nightclub,School Road,Coldingham,,Scottish Borders,TD14 5NS,Scottish Borders,Pass,2022-07-06,FHIS,False,55.89066471,-2.16956923,"School Road, Coldingham, Scottish Borders, TD14 5NS"
2026-04-16,1934187,White Swan inn,Pub/bar/nightclub,High Street,Blyth,Nottinghamshire,,S81 8EQ,Bassetlaw,AwaitingInspection,,FHRS,False,,,"High Street, Blyth, Nottinghamshire, S81 8EQ"
2026-04-16,1934459,The White Horse,Pub/bar/nightclub,White Horse Inn Windsor Terrace,Twynyrodyn,Merthyr Tydfil,,CF47 0DN,Merthyr Tudful,5,2026-03-13,FHRS,False,51.743822,-3.373081,"White Horse Inn Windsor Terrace, Twynyrodyn, Merthyr Tydfil, CF47 0DN"
2026-04-16,1934218,The Amsterdam Inn,Pub/bar/nightclub,The Amsterdam 467 - 471 Upper Shoreham Road,,Shoreham-by-sea,West Sussex,BN43 5WQ,Adur,AwaitingInspection,,FHRS,False,50.8396776,-0.285634,"The Amsterdam 467 - 471 Upper Shoreham Road, Shoreham-by-sea, West Sussex, BN43 5WQ"
2026-04-16,144055,Ship Inn,Pub/bar/nightclub,,5 Shorehead,Stonehaven,Aberdeenshire,AB39 2JY,Aberdeenshire,Pass,2022-03-24,FHIS,False,56.95977,-2.204244,"5 Shorehead, Stonehaven, Aberdeenshire, AB39 2JY"
2026-04-16,1934198,Fowler Pubs Ltd,Pub/bar/nightclub,,,,,,St Helens,AwaitingInspection,,FHRS,False,,,
2026-04-16,1934197,The Sefton,Pub/bar/nightclub,,1-7 Baldwin Street,St Helens,,WA10 2RS,St Helens,AwaitingInspection,,FHRS,False,53.4539308,-2.7386903,"1-7 Baldwin Street, St Helens, WA10 2RS"
2026-04-16,1934165,Carpenter Arms Irchester BBQ House,Pub/bar/nightclub,Public House,88 High Street,Irchester,Wellingborough,NN29 7AB,North Northamptonshire,AwaitingInspection,,FHRS,False,,,"Public House, 88 High Street, Irchester, Wellingborough, NN29 7AB"
2026-04-16,1934108,The Fox Inn,Pub/bar/nightclub,21 London Road,Oadby,Leicestershire,,LE2 5DL,Oadby and Wigston,AwaitingInspection,,FHRS,False,,,"21 London Road, Oadby, Leicestershire, LE2 5DL"
2026-04-16,1934302,Flamingos,Pub/bar/nightclub,,2 Scarborough Street,Hartlepool,,TS24 7DA,Hartlepool,5,2026-04-07,FHRS,False,,,"2 Scarborough Street, Hartlepool, TS24 7DA"
2026-04-16,1159583,Judges,Pub/bar/nightclub,Judge's Hill,Northaw,Hertfordshire,,EN6 4NL,Welwyn Hatfield,4,2026-03-11,FHRS,False,,,"Judge's Hill, Northaw, Hertfordshire, EN6 4NL"
2026-04-16,1934382,One75,Pub/bar/nightclub,,175 West End Lane,,,NW6 2LH,Camden,AwaitingInspection,,FHRS,False,,,"175 West End Lane, NW6 2LH"
2026-04-16,1934435,Quills Brunch Bar based,Pub/bar/nightclub,,149 King's Cross Road,,London,WC1X 9BN,Camden,AwaitingInspection,,FHRS,False,,,"149 King's Cross Road, London, WC1X 9BN"
2026-04-16,1934446,Community Kitchen,Pub/bar/nightclub,113 Culvers Avenue,Carshalton,,,SM5 2FJ,Sutton,AwaitingInspection,,FHRS,False,,,"113 Culvers Avenue, Carshalton, SM5 2FJ"
2026-04-16,1934205,Bulls Head,Pub/bar/nightclub,The Bulls Head 2 Oak Lane,Kerridge,,Cheshire East,SK10 5BD,Cheshire East,AwaitingInspection,,FHRS,True,53.2904486,-2.0977049,"The Bulls Head 2 Oak Lane, Kerridge, Cheshire East, SK10 5BD"
2026-04-16,1934222,Pitch & Plate Catering,Pub/bar/nightclub,Flat St Georges Sport And Social Club Church Street,St Georges,Telford,Shropshire,TF2 9LU,Telford and Wrekin Council,AwaitingInspection,,FHRS,False,,,"Flat St Georges Sport And Social Club Church Street, St Georges, Telford, Shropshire, TF2 9LU"
2026-04-16,1931071,Grove Club,Pub/bar/nightclub,Sacketts Grove Residential Park,Clacton On Sea,Essex,,CO16 7BD,Tendring,AwaitingInspection,,FHRS,True,,,"Sacketts Grove Residential Park, Clacton On Sea, Essex, CO16 7BD"
2026-04-16,1934083,"The George, Graveley",Pub/bar/nightclub,The George And Dragon 19 High Street,,Graveley,Hertfordshire,SG4 7LE,North Hertfordshire,AwaitingInspection,,FHRS,False,,,"The George And Dragon 19 High Street, Graveley, Hertfordshire, SG4 7LE"
2026-04-16,1934459,The White Horse,Pub/bar/nightclub,White Horse Inn Windsor Terrace,Twynyrodyn,Merthyr Tydfil,,CF47 0DN,Merthyr Tydfil,5,2026-03-13,FHRS,False,51.743822,-3.373081,"White Horse Inn Windsor Terrace, Twynyrodyn, Merthyr Tydfil, CF47 0DN"
2026-04-17,1934689,Caister Bowls Club,Pub/bar/nightclub,,Allendale Road,Caister-On-Sea,Norfolk,NR30 5HT,Great Yarmouth,AwaitingInspection,,FHRS,True,,,"Allendale Road, Caister-On-Sea, Norfolk, NR30 5HT"
2026-04-17,1934679,The White Clover,Pub/bar/nightclub,,Warren Road,Hopton-On-Sea,Norfolk,NR31 9BW,Great Yarmouth,AwaitingInspection,,FHRS,False,52.541285,1.731863,"Warren Road, Hopton-On-Sea, Norfolk, NR31 9BW"
2026-04-17,1934984,Acorn Basket Food,Pub/bar/nightclub,416 Leeds And Bradford Road,Bramley,Leeds,,LS13 1NS,Leeds,AwaitingInspection,,FHRS,False,53.81971,-1.634242,"416 Leeds And Bradford Road, Bramley, Leeds, LS13 1NS"
2026-04-17,1934966,Madre Salon Leeds,Pub/bar/nightclub,West Village,114 Wellington Street,Leeds,,LS1 1BA,Leeds,AwaitingInspection,,FHRS,False,53.7970653,-1.5564099,"West Village, 114 Wellington Street, Leeds, LS1 1BA"
2026-04-17,1934961,The Crooked Clock,Pub/bar/nightclub,2 Sussex Avenue,Hunslet,Leeds,,LS10 2LF,Leeds,AwaitingInspection,,FHRS,False,53.775533,-1.517348,"2 Sussex Avenue, Hunslet, Leeds, LS10 2LF"
2026-04-17,1934964,The Hope Inn,Pub/bar/nightclub,York Road,Leeds,,,LS9 8ES,Leeds,AwaitingInspection,,FHRS,False,,,"York Road, Leeds, LS9 8ES"
2026-04-17,1934599,Trubshaws,Pub/bar/nightclub,,65-67 Lodge Road,,Brereton,WS15 1HR,Cannock Chase,AwaitingInspection,,FHRS,False,52.7455259,-1.9190594,"65-67 Lodge Road, Brereton, WS15 1HR"
2026-04-17,1934590,The New Inn,Pub/bar/nightclub,The New Inn PH The New Inn P H,90 High Street,Roydon,Harlow,CM19 5EE,Epping Forest,5,2024-07-05,FHRS,False,51.7721207,0.0403018,"The New Inn PH The New Inn P H, 90 High Street, Roydon, Harlow, CM19 5EE"
2026-04-17,554492,The Red School,Pub/bar/nightclub,Queens Hall Community Centre,School Green Lane,North Weald Bassett,Epping,CM16 6EY,Epping Forest,5,2025-09-08,FHRS,False,51.722308,0.173078,"Queens Hall Community Centre, School Green Lane, North Weald Bassett, Epping, CM16 6EY"
2026-04-17,1934829,The Crown,Pub/bar/nightclub,84 High Street,Shoreham,Kent,,TN14 7TJ,Sevenoaks,AwaitingInspection,,FHRS,False,51.3375204,0.1783875,"84 High Street, Shoreham, Kent, TN14 7TJ"
2026-04-17,1051537,The Bugle Tap,Pub/bar/nightclub,,118 Lord Street,Southport,,PR8 1AA,Sefton,AwaitingInspection,,FHRS,False,53.6481345,-3.004437,"118 Lord Street, Southport, PR8 1AA"
2026-04-17,1934943,Loop,Pub/bar/nightclub,13 Castle Foregate,,Shrewsbury,Shropshire,SY1 2DJ,Shropshire,AwaitingInspection,,FHRS,False,52.7121633,-2.7504221,"13 Castle Foregate, Shrewsbury, Shropshire, SY1 2DJ"
2026-04-17,1934656,Poosie Nansies,Pub/bar/nightclub,Poosie Nansies,21 Loudoun Street,Mauchline,East Ayrshire,KA5 5BA,East Ayrshire,Awaiting Inspection,2026-03-24,FHIS,False,55.515529,-4.379407,"Poosie Nansies, 21 Loudoun Street, Mauchline, East Ayrshire, KA5 5BA"
2026-04-17,1934627,Sir Walter Rayleigh Pub,Pub/bar/nightclub,Sir Walter Raleigh Inn,22 High Street,East Budleigh,Budleigh Salterton,EX9 7ED,East Devon,AwaitingInspection,,FHRS,False,50.6556613,-3.3222738,"Sir Walter Raleigh Inn, 22 High Street, East Budleigh, Budleigh Salterton, EX9 7ED"
2026-04-17,1934517,On-East Food,Pub/bar/nightclub,The Old Smithy,45 Fore Street,Ivybridge,,PL21 9AE,South Hams,AwaitingInspection,,FHRS,True,50.3892789,-3.9215367,"The Old Smithy, 45 Fore Street, Ivybridge, PL21 9AE"
2026-04-17,1527789,The Spinning Wheel,Pub/bar/nightclub,Amalfi Kitchen,Hauley Road,Dartmouth,,TQ6 9AA,South Hams,5,2026-03-06,FHRS,False,50.35038468,-3.57789553,"Amalfi Kitchen, Hauley Road, Dartmouth, TQ6 9AA"
2026-04-18,1934999,Shipwrights Arms,Pub/bar/nightclub,Shipwrights Arms Verbena Terrace Ringmore Road Shaldon,,,,TQ14 0AQ,Teignbridge,AwaitingInspection,,FHRS,False,,,"Shipwrights Arms Verbena Terrace Ringmore Road Shaldon, TQ14 0AQ"
2026-04-18,1934997,The Red Lion,Pub/bar/nightclub,Red Lion Inn Tedburn St Mary,,,,EX6 6EQ,Teignbridge,AwaitingInspection,,FHRS,False,,,"Red Lion Inn Tedburn St Mary, EX6 6EQ"
2026-04-18,1935181,Volunteer Arms,Pub/bar/nightclub,Volunteer Arms,25 Whitecross Street,Barton Upon Humber,North Lincolnshire,DN18 5DF,North Lincolnshire,AwaitingInspection,,FHRS,False,53.6820852,-0.4378038,"Volunteer Arms, 25 Whitecross Street, Barton Upon Humber, North Lincolnshire, DN18 5DF"
2026-04-18,1935168,The Mill Inn,Pub/bar/nightclub,,Mill Inn,Thornhill Road,Falkirk,FK2 7AB,Falkirk,Awaiting Inspection,,FHIS,False,56.0030250549316,-3.77247905731201,"Mill Inn, Thornhill Road, Falkirk, FK2 7AB"
2026-04-18,1935209,The Underground Bar,Pub/bar/nightclub,The Lock In 2B Ann Street,,Worthing,West Sussex,BN11 1NX,Worthing,5,2026-04-15,FHRS,False,50.8119661,-0.3694881,"The Lock In 2B Ann Street, Worthing, West Sussex, BN11 1NX"
2026-04-18,648808,The Peppermill,Pub/bar/nightclub,Westerburg Square,Daventry,West Northamptonshire,,NN11 4TQ,West Northamptonshire,5,2022-09-06,FHRS,False,52.2500038146973,-1.16414201259613,"Westerburg Square, Daventry, West Northamptonshire, NN11 4TQ"
2026-04-18,771,The Bulls Head,Pub/bar/nightclub,17 Denby Common Denby Ripley Derbyshire,,,,DE5 8PW,Amber Valley,AwaitingInspection,,FHRS,False,53.020153,-1.391424,"17 Denby Common Denby Ripley Derbyshire, DE5 8PW"
2026-04-18,1935555,The Green Man,Pub/bar/nightclub,The Green Man Inn Church Lane,,Middleton,Warwickshire,B78 2AN,North Warwickshire,AwaitingInspection,,FHRS,False,52.582013,-1.7425068,"The Green Man Inn Church Lane, Middleton, Warwickshire, B78 2AN"
2026-04-18,1935573,The Hoops Inn,Pub/bar/nightclub,Road From Bourne Lane Through Perry Green To Stanstead Hill,Perry Green,Hertfordshire,,SG10 6EF,East Hertfordshire,AwaitingInspection,,FHRS,False,,,"Road From Bourne Lane Through Perry Green To Stanstead Hill, Perry Green, Hertfordshire, SG10 6EF"
2026-04-18,1935491,Pandora Inn,Pub/bar/nightclub,Restronguet,Mylor Bridge,Falmouth,Cornwall,TR11 5ST,Cornwall,5,2026-01-07,FHRS,False,50.194951,-5.066039,"Restronguet, Mylor Bridge, Falmouth, Cornwall, TR11 5ST"
2026-04-18,1913757,The Red Lion,Pub/bar/nightclub,Red Lion Hotel,North Quay Hill,Newquay,Cornwall,TR7 1HE,Cornwall,5,2026-04-13,FHRS,False,50.41824,-5.088173,"Red Lion Hotel, North Quay Hill, Newquay, Cornwall, TR7 1HE"
2026-04-18,1935350,The Crispin Inn,Pub/bar/nightclub,Church Street,Ashover,Chesterfield,,S45 0AB,North East Derbyshire,AwaitingInspection,,FHRS,False,53.163695,-1.479528,"Church Street, Ashover, Chesterfield, S45 0AB"
2026-04-18,1935353,The Miners Arms,Pub/bar/nightclub,115 Carr Lane,Dronfield Woodhouse,Dronfield,,S18 8XF,North East Derbyshire,AwaitingInspection,,FHRS,True,53.302572,-1.502226,"115 Carr Lane, Dronfield Woodhouse, Dronfield, S18 8XF"
2026-04-18,1935355,The Old English Inn T/A Eme's Kitchen,Pub/bar/nightclub,26 Market Street,Clay Cross,Chesterfield,,S45 9JE,North East Derbyshire,AwaitingInspection,,FHRS,False,53.166603,-1.414544,"26 Market Street, Clay Cross, Chesterfield, S45 9JE"
2026-04-18,1935579,Builders Arms,Pub/bar/nightclub,18 Hopetown Lane,Darlington,,,DL3 6RQ,Darlington,5,2026-04-14,FHRS,False,54.535787,-1.557186,"18 Hopetown Lane, Darlington, DL3 6RQ"
2026-04-18,1935095,Penny Theatre,Pub/bar/nightclub,30 - 31 Northgate,Canterbury,Kent,,CT1 1BL,Canterbury City,AwaitingInspection,,FHRS,False,51.2837682,1.0859275,"30 - 31 Northgate, Canterbury, Kent, CT1 1BL"
2026-04-18,909109,The Fox,Pub/bar/nightclub,The Fox Tavern,83 North Street,Gosport,,PO12 1BD,Gosport,AwaitingInspection,,FHRS,False,50.796088,-1.123234,"The Fox Tavern, 83 North Street, Gosport, PO12 1BD"
2026-04-19,1935789,Hope Lodge,Pub/bar/nightclub,Hope Lodge Hope,,Lairg,,IV27 4UJ,Highland,Awaiting Inspection,,FHIS,False,,,"Hope Lodge Hope, Lairg, IV27 4UJ"
2026-04-19,1935787,Hope Shepherds Clachan,Pub/bar/nightclub,Hope Shepherds Clachan,,New House,Shepherds Cottage Hope,IV27 4UJ,Highland,Awaiting Inspection,,FHIS,False,,,"Hope Shepherds Clachan, New House, Shepherds Cottage Hope, IV27 4UJ"
2026-04-19,1935784,Keepers & Ferrymans - Hope,Pub/bar/nightclub,Keepers Cottage Hope,,Strathmore,Lairg,IV27 4UJ,Highland,Awaiting Inspection,,FHIS,False,58.5163782,-4.6127506,"Keepers Cottage Hope, Strathmore, Lairg, IV27 4UJ"
2026-04-20,1914667,Eutophia Whs,Pub/bar/nightclub,Units 2,42 River Road,,Barking,IG11 0DW,Barking and Dagenham,AwaitingInspection,,FHRS,False,,,"Units 2, 42 River Road, Barking, IG11 0DW"
2026-04-21,1497586,Fever,Pub/bar/nightclub,83 - 85 Eastgate Street,Gloucester,,,GL1 1PN,Gloucester City,5,2025-12-02,FHRS,False,51.8634623,-2.2418567,"83 - 85 Eastgate Street, Gloucester, GL1 1PN"
2026-04-21,1935973,Mytchett Masala Limited,Pub/bar/nightclub,The Miners Arms Ph,2 Mytchett Road,Mytchett,Camberley,GU16 6EZ,Surrey Heath,AwaitingInspection,,FHRS,False,51.2958285,-0.7273861,"The Miners Arms Ph, 2 Mytchett Road, Mytchett, Camberley, GU16 6EZ"
2026-04-21,1936021,Marsham Arms,Pub/bar/nightclub,40 Holt Road,Hevingham,Norfolk,,NR10 5NP,Broadland,5,2026-04-16,FHRS,False,,,"40 Holt Road, Hevingham, Norfolk, NR10 5NP"
2026-04-21,1936018,Ram Inn,Pub/bar/nightclub,108 The Street,Brundall,Norfolk,,NR13 5LP,Broadland,AwaitingInspection,,FHRS,False,52.6252684,1.42812,"108 The Street, Brundall, Norfolk, NR13 5LP"
2026-04-21,1935868,Filthy McNasty,Pub/bar/nightclub,93 - 94 St Mary Street,Cathays,Cardiff,,CF10 1DX,Caerdydd,AwaitingInspection,,FHRS,False,51.478554,-3.1784711,"93 - 94 St Mary Street, Cathays, Cardiff, CF10 1DX"
2026-04-21,1936023,The Strand Social,Pub/bar/nightclub,7 The Strand,Barnstaple,Devon,,EX31 1EU,North Devon,AwaitingInspection,,FHRS,False,51.078965,-4.060153,"7 The Strand, Barnstaple, Devon, EX31 1EU"
2026-04-21,1936082,George & Dragon,Pub/bar/nightclub,Hudswell,,,Richmond,DL11 6BL,North Yorkshire,AwaitingInspection,,FHRS,False,,,"Hudswell, Richmond, DL11 6BL"
2026-04-21,1936103,M&N RUFC Trading and  Supporters Club Ltd,Pub/bar/nightclub,Old Malton Road,,,Malton,YO17 7EY,North Yorkshire,AwaitingInspection,,FHRS,False,54.13914339,-0.78826057,"Old Malton Road, Malton, YO17 7EY"
2026-04-21,1936098,The Crown Hotel,Pub/bar/nightclub,.,Middlesmoor,,Harrogate,HG3 5ST,North Yorkshire,AwaitingInspection,,FHRS,False,,,"., Middlesmoor, Harrogate, HG3 5ST"
2026-04-21,1936097,The Farmers Arms,Pub/bar/nightclub,Muker,Muker,,Richmond,DL11 6QG,North Yorkshire,AwaitingInspection,,FHRS,False,,,"Muker, Muker, Richmond, DL11 6QG"
2026-04-21,1922529,The Knaresborough Club,Pub/bar/nightclub,2 Park Row,,,Knaresborough,HG5 0BJ,North Yorkshire,5,2026-04-13,FHRS,False,54.0075007,-1.4641574,"2 Park Row, Knaresborough, HG5 0BJ"
2026-04-21,1936120,The Yorkshireman,Pub/bar/nightclub,9 Court Lane,,,Skipton,BD23 1DD,North Yorkshire,AwaitingInspection,,FHRS,False,53.9608615,-2.0151193,"9 Court Lane, Skipton, BD23 1DD"
2026-04-21,1935939,Chalk & Cheese,Pub/bar/nightclub,53 Dorchester Road,,Maiden Newton,Dorset,DT2 0BD,Dorset,AwaitingInspection,,FHRS,False,50.7770767211914,-2.57197189331055,"53 Dorchester Road, Maiden Newton, Dorset, DT2 0BD"
2026-04-21,1935959,The Donkey Social,Pub/bar/nightclub,55-57 St Thomas Street,,Weymouth,,DT4 8EU,Dorset,AwaitingInspection,,FHRS,False,,,"55-57 St Thomas Street, Weymouth, DT4 8EU"
2026-04-21,1935945,The Hambro Arms,Pub/bar/nightclub,The Hambro Arms,,Milton Abbas,Dorset,DT11 0BP,Dorset,AwaitingInspection,,FHRS,False,50.8151741027832,-2.27660894393921,"The Hambro Arms, Milton Abbas, Dorset, DT11 0BP"
2026-04-21,1936185,Old Station Quarter,Pub/bar/nightclub,Unex House,Viersen Platz,Peterborough,,PE1 1SE,Peterborough City,AwaitingInspection,,FHRS,False,52.5700963,-0.2458415,"Unex House, Viersen Platz, Peterborough, PE1 1SE"
2026-04-21,1936220,The Hafod Inn,Pub/bar/nightclub,,1380 Neath Road,,Hafod,SA1 2HL,Abertawe,AwaitingInspection,,FHRS,True,51.632927,-3.938451,"1380 Neath Road, Hafod, SA1 2HL"
2026-04-21,1936144,Perfit Fitness Limited,Pub/bar/nightclub,16 - 18 Concorde Road,Norwich,,,NR6 6BN,Norwich City,AwaitingInspection,,FHRS,False,52.6595406,1.2870525,"16 - 18 Concorde Road, Norwich, NR6 6BN"
2026-04-21,1935830,BRANSTON ARMS,Pub/bar/nightclub,Branston Arms,115-116 Branston Road,Burton upon Trent,,DE14 3DD,East Staffordshire,AwaitingInspection,,FHRS,False,52.7915411,-1.6434465,"Branston Arms, 115-116 Branston Road, Burton upon Trent, DE14 3DD"
2026-04-21,1935834,The Coppersmiths Inn,Pub/bar/nightclub,Unit 5-6,Midland Grain Warehouse,Derby Street,Burton upon Trent,DE14 2JJ,East Staffordshire,AwaitingInspection,,FHRS,False,,,"Unit 5-6, Midland Grain Warehouse, Derby Street, Burton upon Trent, DE14 2JJ"
2026-04-21,130561,THE RAILWAY INN,Pub/bar/nightclub,,,Llanpumsaint,Carmarthen,SA33 6BU,Carmarthenshire,AwaitingInspection,,FHRS,False,51.9443130493164,-4.30861616134644,"Llanpumsaint, Carmarthen, SA33 6BU"
2026-04-21,1936059,BIG JOHNS,Pub/bar/nightclub,Sion Mills,,Strabane,,BT82 9PY,Derry City and Strabane,AwaitingInspection,,FHRS,False,,,"Sion Mills, Strabane, BT82 9PY"
2026-04-21,1927494,Calley Arms,Pub/bar/nightclub,The Calley Arms,Hodson Lane,Hodson,Swindon,SN4 0QG,Swindon,AwaitingInspection,,FHRS,False,51.5229110717773,-1.75150799751282,"The Calley Arms, Hodson Lane, Hodson, Swindon, SN4 0QG"
2026-04-21,1935888,The Deers Leap,Pub/bar/nightclub,141 Penhill Drive,Penhill,Swindon,,SN2 5DX,Swindon,5,2026-03-24,FHRS,False,51.591578,-1.783337,"141 Penhill Drive, Penhill, Swindon, SN2 5DX"
2026-04-21,1936220,The Hafod Inn,Pub/bar/nightclub,,1380 Neath Road,,Hafod,SA1 2HL,Swansea,AwaitingInspection,,FHRS,True,51.632927,-3.938451,"1380 Neath Road, Hafod, SA1 2HL"
2026-04-21,1807723,BGRWNG,Pub/bar/nightclub,The William Hardwicke 12 High Street,,Bognor Regis,West Sussex,PO21 1SR,Arun,4,2025-07-15,FHRS,False,50.784113,-0.6724666,"The William Hardwicke 12 High Street, Bognor Regis, West Sussex, PO21 1SR"
2026-04-21,1936240,Showbar,Pub/bar/nightclub,Church Farm Holiday Village Church Lane,,Pagham,West Sussex,PO21 4NR,Arun,AwaitingInspection,,FHRS,False,50.7702378,-0.7449456,"Church Farm Holiday Village Church Lane, Pagham, West Sussex, PO21 4NR"
2026-04-21,1906104,The Eagle,Pub/bar/nightclub,Eagle Inn 41 Tarrant Street,,Arundel,West Sussex,BN18 9DJ,Arun,5,2026-04-09,FHRS,False,50.8537519,-0.556194,"Eagle Inn 41 Tarrant Street, Arundel, West Sussex, BN18 9DJ"
2026-04-21,1936010,Billingford Horseshoes,Pub/bar/nightclub,The Horseshoes,Lower Street,Billingford,Norfolk,IP21 4HL,South Norfolk,AwaitingInspection,,FHRS,False,52.363176,1.181457,"The Horseshoes, Lower Street, Billingford, Norfolk, IP21 4HL"
2026-04-21,1936007,The Old Ram Freehouse,Pub/bar/nightclub,The Old Ram,Ipswich Road,Tivetshall St Mary,Norfolk,NR15 2DE,South Norfolk,AwaitingInspection,,FHRS,False,52.425464,1.203171,"The Old Ram, Ipswich Road, Tivetshall St Mary, Norfolk, NR15 2DE"
2026-04-21,1935868,Filthy McNasty,Pub/bar/nightclub,93 - 94 St Mary Street,Cathays,Cardiff,,CF10 1DX,Cardiff,AwaitingInspection,,FHRS,False,51.478554,-3.1784711,"93 - 94 St Mary Street, Cathays, Cardiff, CF10 1DX"
2026-04-21,1936034,Nelsons Head,Pub/bar/nightclub,Public House Nelsons Head 7 Merryland,,St Ives,Cambridgeshire,PE27 5ED,Huntingdonshire,AwaitingInspection,,FHRS,False,52.3240352,-0.0750298,"Public House Nelsons Head 7 Merryland, St Ives, Cambridgeshire, PE27 5ED"
2026-04-21,1936040,The Shipwreck,Pub/bar/nightclub,Shipwreck Bar and Restaurant. Shipwreck Bar,Shotley Marina,Shotley,IPSWICH,,Babergh,5,2026-04-01,FHRS,False,51.956762,1.2752566,"Shipwreck Bar and Restaurant. Shipwreck Bar, Shotley Marina, Shotley, IPSWICH"
2026-04-21,1927927,The Crab & Apple,Pub/bar/nightclub,Appledore Social Club,Appledore Hall,New Quay Street,Appledore,,Torridge,AwaitingInspection,,FHRS,False,51.0513885,-4.1931584,"Appledore Social Club, Appledore Hall, New Quay Street, Appledore"
2026-04-21,130561,Railway Inn,Pub/bar/nightclub,Tafarn y Railway Inn,Llanpumsaint,Caerfyrddin,Sir Gaerfyrddin,SA33 6BU,Sir Gaerfyrddin,AwaitingInspection,,FHRS,False,51.9443130493164,-4.30861616134644,"Tafarn y Railway Inn, Llanpumsaint, Caerfyrddin, Sir Gaerfyrddin, SA33 6BU"
2026-04-22,1778075,Thames Ditton Cricket Club,Pub/bar/nightclub,Giggs Hill Road,Thames Ditton,Surrey,,KT7 0BT,Elmbridge,5,2026-04-19,FHRS,False,51.386934,-0.331281,"Giggs Hill Road, Thames Ditton, Surrey, KT7 0BT"
2026-04-22,1936355,Hind and Hart Limited,Pub/bar/nightclub,Hartleys Wine Bar,7-11 Mount Street,Preston,,PR1 8BS,Preston,AwaitingInspection,,FHRS,False,53.756011,-2.703776,"Hartleys Wine Bar, 7-11 Mount Street, Preston, PR1 8BS"
2026-04-22,1936544,The Bowers Tap,Pub/bar/nightclub,157 - 158 Briggate,Leeds,,,LS1 6LY,Leeds,AwaitingInspection,,FHRS,False,53.795342,-1.54223,"157 - 158 Briggate, Leeds, LS1 6LY"
2026-04-22,1936509,The Drunken Duck,Pub/bar/nightclub,Unit 5,Forester Close,Hartlepool,,TS25 1EZ,Hartlepool,AwaitingInspection,,FHRS,False,54.6617698669434,-1.19378995895386,"Unit 5, Forester Close, Hartlepool, TS25 1EZ"
2026-04-22,1936415,Castell Y Bwch Inn,Pub/bar/nightclub,,Henllys Lanes R303,Henllys,Cwmbran,NP44 7AZ,Torfaen,AwaitingInspection,,FHRS,False,51.6252784729004,-3.04643297195435,"Henllys Lanes R303, Henllys, Cwmbran, NP44 7AZ"
2026-04-22,1936422,Garn Workman's,Pub/bar/nightclub,,Herberts Road,Garndiffaith,Pontypool,NP4 7QJ,Torfaen,AwaitingInspection,,FHRS,False,51.737409,-3.069758,"Herberts Road, Garndiffaith, Pontypool, NP4 7QJ"
2026-04-22,1936417,The Cellar Bar,Pub/bar/nightclub,,39 Broad Street,Blaenavon,,NP4 9NF,Torfaen,AwaitingInspection,,FHRS,False,51.7741373,-3.0839241,"39 Broad Street, Blaenavon, NP4 9NF"
2026-04-22,1936415,Castell Y Bwch Inn,Pub/bar/nightclub,,Henllys Lanes R303,Henllys,Cwmbran,NP44 7AZ,Torfaen,AwaitingInspection,,FHRS,False,51.6252784729004,-3.04643297195435,"Henllys Lanes R303, Henllys, Cwmbran, NP44 7AZ"
2026-04-22,1936422,Garn Workman's,Pub/bar/nightclub,,Herberts Road,Garndiffaith,Pontypool,NP4 7QJ,Torfaen,AwaitingInspection,,FHRS,False,51.737409,-3.069758,"Herberts Road, Garndiffaith, Pontypool, NP4 7QJ"
2026-04-22,1936417,The Cellar Bar,Pub/bar/nightclub,,39 Broad Street,Blaenavon,,NP4 9NF,Torfaen,AwaitingInspection,,FHRS,False,51.7741373,-3.0839241,"39 Broad Street, Blaenavon, NP4 9NF"
2026-04-22,1936506,The  Cotton Tree Inn,Pub/bar/nightclub,Cotton Tree Inn,Rosley Street,Winewall,Lancashire,BB8 8DE,Pendle,AwaitingInspection,,FHRS,True,53.856852,-2.1401851,"Cotton Tree Inn, Rosley Street, Winewall, Lancashire, BB8 8DE"
2026-04-22,1936345,Blue Bell,Pub/bar/nightclub,Blue Bell Inn,Coach Road,Usworth,Washington,NE37 1NP,Sunderland,5,2025-10-29,FHRS,False,54.9199798,-1.5345188,"Blue Bell Inn, Coach Road, Usworth, Washington, NE37 1NP"
2026-04-22,1936500,The Bookcellar,Pub/bar/nightclub,,100 Stokes Croft,St Pauls,Bristol,BS1 3RJ,Bristol,AwaitingInspection,,FHRS,False,51.4635333,-2.5894944,"100 Stokes Croft, St Pauls, Bristol, BS1 3RJ"
2026-04-22,1936463,Home and Botanic,Pub/bar/nightclub,FIRST FLOOR OFFICE BRIDGE HOUSE NORTH ROAD,,DURHAM,,DH1 4PW,Durham,AwaitingInspection,,FHRS,False,54.7760352,-1.5786099,"FIRST FLOOR OFFICE BRIDGE HOUSE NORTH ROAD, DURHAM, DH1 4PW"
2026-04-22,1936369,The Rickards Arms,Pub/bar/nightclub,,61 Park Street,Treforest,Pontypridd,CF37 1SN,Rhondda Cynon Taf,AwaitingInspection,,FHRS,False,51.593224,-3.324965,"61 Park Street, Treforest, Pontypridd, CF37 1SN"
2026-04-22,1936369,The Rickards Arms,Pub/bar/nightclub,,61 Park Street,Treforest,Pontypridd,CF37 1SN,Rhondda Cynon Taf,AwaitingInspection,,FHRS,False,51.593224,-3.324965,"61 Park Street, Treforest, Pontypridd, CF37 1SN"
2026-04-23,68408,The Northern Lights,Pub/bar/nightclub,,Highland Cottages Road,Hatton Of Fintray,Aberdeen,AB21 0YG,Aberdeenshire,Exempt,2014-10-16,FHIS,False,,,"Highland Cottages Road, Hatton Of Fintray, Aberdeen, AB21 0YG"
2026-04-23,1936809,The Kings Head,Pub/bar/nightclub,The Kings Head Inn,Front Street,Orford,Woodbridge,IP12 2LW,East Suffolk,AwaitingInspection,,FHRS,False,52.0950158,1.5341539,"The Kings Head Inn, Front Street, Orford, Woodbridge, IP12 2LW"
2026-04-23,1936807,White Horse,Pub/bar/nightclub,White Horse Inn,Low Street,Badingham,Woodbridge,IP13 8JR,East Suffolk,AwaitingInspection,,FHRS,False,52.257705,1.3800839,"White Horse Inn, Low Street, Badingham, Woodbridge, IP13 8JR"
2026-04-23,1929025,The Compton Inn,Pub/bar/nightclub,Compton Inn,Court Hill,Compton Dando,Bristol,BS39 4JZ,Bath and North East Somerset,AwaitingInspection,,FHRS,True,51.378003,-2.511243,"Compton Inn, Court Hill, Compton Dando, Bristol, BS39 4JZ"
2026-04-23,1937004,Blagdon Cricket Club,Pub/bar/nightclub,The Bartons,Bath Road,Blagdon,North Somerset,BS40 7RG,North Somerset,AwaitingInspection,,FHRS,False,,,"The Bartons, Bath Road, Blagdon, North Somerset, BS40 7RG"
2026-04-23,1937007,Livro Lounge,Pub/bar/nightclub,Livro Lounge,Somerset Square,Nailsea,Bristol,BS48 1RQ,North Somerset,5,2024-08-21,FHRS,False,51.4331505,-2.7597813,"Livro Lounge, Somerset Square, Nailsea, Bristol, BS48 1RQ"
2026-04-23,1937005,Princes Motto,Pub/bar/nightclub,,Barrow Street,Barrow Gurney,Bristol,BS48 3RY,North Somerset,AwaitingInspection,,FHRS,False,,,"Barrow Street, Barrow Gurney, Bristol, BS48 3RY"
2026-04-23,1937006,The Old Inn,Pub/bar/nightclub,,Pauls Causeway,Congresbury,Bristol,BS49 5DH,North Somerset,AwaitingInspection,,FHRS,True,,,"Pauls Causeway, Congresbury, Bristol, BS49 5DH"
2026-04-23,1936839,The Post Box Sports Bar,Pub/bar/nightclub,Walkabout 42 Cheap Street,,Newbury,West Berkshire,RG14 5BX,West Berkshire,AwaitingInspection,,FHRS,False,51.3998309,-1.3226375,"Walkabout 42 Cheap Street, Newbury, West Berkshire, RG14 5BX"
2026-04-23,1936883,The Comet Pub,Pub/bar/nightclub,The Comet,Harley Shute Road,St Leonards-on-sea,East Sussex,TN38 8BU,Hastings,AwaitingInspection,,FHRS,False,50.85534,0.529556,"The Comet, Harley Shute Road, St Leonards-on-sea, East Sussex, TN38 8BU"
2026-04-23,1937026,Welcome Club,Pub/bar/nightclub,657-659 Foleshill Road,,,Coventry,CV6 5JQ,Coventry,AwaitingInspection,,FHRS,False,52.4322076,-1.4969862,"657-659 Foleshill Road, Coventry, CV6 5JQ"
2026-04-23,1936957,Duke Of York,Pub/bar/nightclub,Flagg,Derbyshire,,,SK17 9QG,Derbyshire Dales,5,2023-02-22,FHRS,False,53.2049903869629,-1.82476460933685,"Flagg, Derbyshire, SK17 9QG"
2026-04-23,1936958,Little John Hotel,Pub/bar/nightclub,Station Road,Hathersage,Derbyshire,,S32 1DD,Derbyshire Dales,AwaitingInspection,,FHRS,False,53.328864,-1.655027,"Station Road, Hathersage, Derbyshire, S32 1DD"
2026-04-23,1936667,Casablanca,Pub/bar/nightclub,Public House,290 Chase Road,LONDON,,N14 6HA,Enfield,3,2026-03-03,FHRS,False,51.634074,-0.127091,"Public House, 290 Chase Road, LONDON, N14 6HA"
2026-04-23,316629,Enfield Highway Comm Centre,Pub/bar/nightclub,Community Centre,117 Hertford Road,ENFIELD,,EN3 5JF,Enfield,AwaitingInspection,,FHRS,False,51.656575,-0.047182,"Community Centre, 117 Hertford Road, ENFIELD, EN3 5JF"
2026-04-23,316771,Kempe Hall Community Association,Pub/bar/nightclub,Bullsmoor Community Centre And Clinic,Kempe Road,ENFIELD,,EN1 4QS,Enfield,AwaitingInspection,,FHRS,False,51.676764,-0.048845,"Bullsmoor Community Centre And Clinic, Kempe Road, ENFIELD, EN1 4QS"
2026-04-23,1936719,Moon Lounge,Pub/bar/nightclub,Unit C7b,Angel Road Works,Advent Way,LONDON,N18 3AD,Enfield,AwaitingInspection,,FHRS,False,51.6122196,-0.0452065,"Unit C7b, Angel Road Works, Advent Way, LONDON, N18 3AD"
2026-04-23,316391,Nuffield Health,Pub/bar/nightclub,Enfield Fitness And Wellbeing Gym Tower Point,52 Sydney Road,ENFIELD,,EN2 6TZ,Enfield,5,2023-09-20,FHRS,False,51.648555,-0.082204,"Enfield Fitness And Wellbeing Gym Tower Point, 52 Sydney Road, ENFIELD, EN2 6TZ"
2026-04-23,316274,Ponders End Smallholders Assoc,Pub/bar/nightclub,82A Church Road,ENFIELD,,,EN3 4NU,Enfield,AwaitingInspection,,FHRS,False,51.641967,-0.043113,"82A Church Road, ENFIELD, EN3 4NU"
2026-04-23,317170,Pymmes Park Bowling Club,Pub/bar/nightclub,Pymmes Park,Victoria Road,LONDON,,N18 2UG,Enfield,AwaitingInspection,,FHRS,False,51.617152,-0.0667,"Pymmes Park, Victoria Road, LONDON, N18 2UG"
2026-04-23,317245,Southgate Old Scholars Association,Pub/bar/nightclub,Cockfosters Sports Ground,Chalk Lane,BARNET,,EN4 9JG,Enfield,AwaitingInspection,,FHRS,False,51.652696,-0.152519,"Cockfosters Sports Ground, Chalk Lane, BARNET, EN4 9JG"
2026-04-23,316371,St Helier Hall,Pub/bar/nightclub,Eastfield Road,ENFIELD,,,EN3 5XF,Enfield,AwaitingInspection,,FHRS,False,51.667316,-0.040907,"Eastfield Road, ENFIELD, EN3 5XF"
2026-04-23,316133,Trent Park Golf Club,Pub/bar/nightclub,Bramley Road,LONDON,,,N14 4UW,Enfield,AwaitingInspection,,FHRS,False,51.649264,-0.131149,"Bramley Road, LONDON, N14 4UW"
2026-04-23,1368787,VBO Lounge & Bar Restaurant,Pub/bar/nightclub,1-3 Northampton Road,ENFIELD,,,EN3 7UL,Enfield,4,2025-03-22,FHRS,False,51.646513,-0.030515,"1-3 Northampton Road, ENFIELD, EN3 7UL"
2026-04-23,1794203,Forfar Golf Club,Pub/bar/nightclub,Clubhouse Golf Course Cunninghill Forfar,,,,DD8 2RL,Angus,Pass,2024-10-15,FHIS,False,,,"Clubhouse Golf Course Cunninghill Forfar, DD8 2RL"
2026-04-23,746361,The Mission to Seafarers,Pub/bar/nightclub,Kinkerdale House,Tees Dock,TS6 6UD,,,River Tees,5,2025-04-24,FHRS,False,54.6021014,-1.140322,"Kinkerdale House, Tees Dock, TS6 6UD"
2026-04-23,1936946,Llywelyns Bar,Pub/bar/nightclub,Llywelyns 1 Denbigh Street,,Llanrwst,Conwy,LL26 0LL,Conwy,AwaitingInspection,,FHRS,False,53.1387386,-3.7980032,"Llywelyns 1 Denbigh Street, Llanrwst, Conwy, LL26 0LL"
2026-04-23,1936950,The Old Ship,Pub/bar/nightclub,The Old Ship,,Trefriw,Conwy,LL27 0JH,Conwy,AwaitingInspection,,FHRS,False,,,"The Old Ship, Trefriw, Conwy, LL27 0JH"
2026-04-23,1936864,The Miners Lamp,Pub/bar/nightclub,2 Batley Road,Wakefield,,,WF2 0EE,Wakefield,AwaitingInspection,,FHRS,False,53.685746,-1.520464,"2 Batley Road, Wakefield, WF2 0EE"
2026-04-23,1937040,Glascote Social Club,Pub/bar/nightclub,378 Glascote Road,Glascote,,Tamworth,B77 2BS,Tamworth,AwaitingInspection,,FHRS,False,52.626155,-1.6705128,"378 Glascote Road, Glascote, Tamworth, B77 2BS"
2026-04-23,829577,Howden Social Club,Pub/bar/nightclub,36 Bridgegate,Howden,Goole,,DN14 7AB,East Riding of Yorkshire,AwaitingInspection,,FHRS,False,53.746837,-0.864859,"36 Bridgegate, Howden, Goole, DN14 7AB"
2026-04-23,1936946,Llywelyns Bar,Pub/bar/nightclub,Llywelyns 1 Denbigh Street,,Llanrwst,Conwy,LL26 0LL,Conwy,AwaitingInspection,,FHRS,False,53.1387386,-3.7980032,"Llywelyns 1 Denbigh Street, Llanrwst, Conwy, LL26 0LL"
2026-04-23,1936950,The Old Ship,Pub/bar/nightclub,The Old Ship,,Trefriw,Conwy,LL27 0JH,Conwy,AwaitingInspection,,FHRS,False,,,"The Old Ship, Trefriw, Conwy, LL27 0JH"
2026-04-23,1936911,Wilson Casino,Pub/bar/nightclub,82 - 84 Montague Street,,Worthing,West Sussex,BN11 3HF,Worthing,Exempt,,FHRS,False,50.8101721,-0.3748832,"82 - 84 Montague Street, Worthing, West Sussex, BN11 3HF"
2026-04-23,1936619,The Oak Tree Inn,Pub/bar/nightclub,Oak Tree Inn,Yarm Road,Middleton St George,,DL2 1HN,Darlington,AwaitingInspection,,FHRS,False,54.5156822,-1.4430895,"Oak Tree Inn, Yarm Road, Middleton St George, DL2 1HN"
2026-04-24,1937211,Castle Of Comfort,Pub/bar/nightclub,Castle Of Comfort Castle Street Medstead Alton GU34 5LU,,,,GU34 5LU,East Hampshire,AwaitingInspection,,FHRS,False,51.130851,-1.066093,"Castle Of Comfort Castle Street Medstead Alton GU34 5LU, GU34 5LU"
2026-04-24,1937203,The Crown Hotel,Pub/bar/nightclub,Crown Hotel High Street Alton GU34 1BN,,,,GU34 1BN,East Hampshire,4,2026-03-17,FHRS,False,51.1501843,-0.974115,"Crown Hotel High Street Alton GU34 1BN, GU34 1BN"
2026-04-24,1937205,The George,Pub/bar/nightclub,The George Butts Road Alton GU34 1LH,,,,GU34 1LH,East Hampshire,AwaitingInspection,,FHRS,False,51.145655,-0.97916,"The George Butts Road Alton GU34 1LH, GU34 1LH"
2026-04-24,1671381,The George Inn,Pub/bar/nightclub,George Inn Finchdean Road Rowlands Castle PO8 0AU,,,,PO8 0AU,East Hampshire,5,2025-03-24,FHRS,False,50.909135,-0.951954,"George Inn Finchdean Road Rowlands Castle PO8 0AU, PO8 0AU"
2026-04-24,1937144,Kings Arms Didmarton,Pub/bar/nightclub,Kings Arms,The Street,Didmarton,Badminton,GL9 1DT,Cotswold,AwaitingInspection,,FHRS,False,51.585172,-2.262141,"Kings Arms, The Street, Didmarton, Badminton, GL9 1DT"
2026-04-24,1937137,The Plough Inn,Pub/bar/nightclub,Plough Inn,Cold Aston,Cheltenham,Gloucestershire,GL54 3BN,Cotswold,AwaitingInspection,,FHRS,False,51.876496,-1.814684,"Plough Inn, Cold Aston, Cheltenham, Gloucestershire, GL54 3BN"
2026-04-24,1937338,Legends Global Services Limited,Pub/bar/nightclub,Wetherby Race Course,York Road,Wetherby,,LS22 5EJ,Leeds,AwaitingInspection,,FHRS,False,,,"Wetherby Race Course, York Road, Wetherby, LS22 5EJ"
2026-04-24,1937415,Norton Grange,Pub/bar/nightclub,Evesham Road,Norton,Evesham,Worcestershire,WR11 4TL,Wychavon,AwaitingInspection,,FHRS,False,52.128473,-1.938862,"Evesham Road, Norton, Evesham, Worcestershire, WR11 4TL"
2026-04-24,1937083,The Mount,Pub/bar/nightclub,30 - 32 Old Church Road,,Chingford,London,E4 8DD,Waltham Forest,5,2026-04-20,FHRS,False,51.6181446,-0.0178077,"30 - 32 Old Church Road, Chingford, London, E4 8DD"
2026-04-24,1867014,The Old Crown,Pub/bar/nightclub,692 High Road Leytonstone,,Leytonstone,London,E11 3AA,Waltham Forest,4,2025-08-29,FHRS,False,51.5691546,0.0122548,"692 High Road Leytonstone, Leytonstone, London, E11 3AA"
2026-04-24,1937126,The Shakespeare,Pub/bar/nightclub,,16 Fountain Street,Manchester,,M2 2AA,Manchester,5,2023-09-29,FHRS,False,53.481772,-2.240065,"16 Fountain Street, Manchester, M2 2AA"
2026-04-24,1937290,The Yew Tree Inn,Pub/bar/nightclub,Yew Tree Inn,Yew Street,Wolverhampton,West Midlands,WV3 0DB,Wolverhampton,5,2026-04-16,FHRS,False,52.582999,-2.142539,"Yew Tree Inn, Yew Street, Wolverhampton, West Midlands, WV3 0DB"
2026-04-24,1937459,Crown Inn,Pub/bar/nightclub,1 Debdale Hill,Old Dalby,Melton Mowbray,,LE14 3LF,Melton,AwaitingInspection,,FHRS,False,52.809001,-1.0051471,"1 Debdale Hill, Old Dalby, Melton Mowbray, LE14 3LF"
2026-04-24,1937061,All About The Beer,Pub/bar/nightclub,All about the Beer Ltd,Gaytonway,Gayton Road,Milton Malsor,NN7 3AA,West Northamptonshire,5,2025-12-08,FHRS,False,,,"All about the Beer Ltd, Gaytonway, Gayton Road, Milton Malsor, NN7 3AA"
2026-04-24,1540995,Bugbrooke RUFC,Pub/bar/nightclub,Bugbrooke Community Centre,Camp Close,Bugbrooke,,NN7 3RW,West Northamptonshire,5,2022-04-07,FHRS,False,52.2059364318848,-1.00483095645905,"Bugbrooke Community Centre, Camp Close, Bugbrooke, NN7 3RW"
2026-04-24,1541463,Butchers Arms,Pub/bar/nightclub,10 High Street,Greens Norton,,,NN12 8BA,West Northamptonshire,4,2026-01-07,FHRS,False,52.1427144,-1.0258354,"10 High Street, Greens Norton, NN12 8BA"
2026-04-24,1541425,Dolphin Inn,Pub/bar/nightclub,134 Main Road,Middleton Cheney,,,OX17 2PW,West Northamptonshire,5,2024-11-21,FHRS,False,52.0719183,-1.27399,"134 Main Road, Middleton Cheney, OX17 2PW"
2026-04-24,1541445,George Inn,Pub/bar/nightclub,21 High Street North,Tiffield,,,NN12 8AD,West Northamptonshire,5,2023-08-03,FHRS,False,52.161572,-0.9804848,"21 High Street North, Tiffield, NN12 8AD"
2026-04-24,1541484,Greatworth Sports & Social Club,Pub/bar/nightclub,Greatworth Sports And Social Club,Helmdon Road,Greatworth,,OX17 2DR,West Northamptonshire,AwaitingInspection,,FHRS,False,52.0785140991211,-1.19621098041534,"Greatworth Sports And Social Club, Helmdon Road, Greatworth, OX17 2DR"
2026-04-24,1937464,Debs Kitchen,Pub/bar/nightclub,Temple Chambers,Douro Terrace,Sunderland,,SR2 7DX,Sunderland,AwaitingInspection,,FHRS,False,,,"Temple Chambers, Douro Terrace, Sunderland, SR2 7DX"
2026-04-24,1937185,Burton Pavilion,Pub/bar/nightclub,Burton Pavilion Milford Heath Road,Milford,Godalming,Surrey,GU8 5BX,Waverley,AwaitingInspection,,FHRS,False,51.1654434,-0.6507819,"Burton Pavilion Milford Heath Road, Milford, Godalming, Surrey, GU8 5BX"
2026-04-24,1937166,The Albion tavern,Pub/bar/nightclub,2 Hale Road,,Farnham,,GU9 9QH,Waverley,AwaitingInspection,,FHRS,False,51.2190537,-0.7884426,"2 Hale Road, Farnham, GU9 9QH"
2026-04-24,1937169,The bear,Pub/bar/nightclub,Wrecclesham,,Farnham,,GU10 4QR,Waverley,AwaitingInspection,,FHRS,False,,,"Wrecclesham, Farnham, GU10 4QR"
2026-04-24,1937165,The fox,Pub/bar/nightclub,Lower Bourne,,Farnham,,GU10 3PH,Waverley,AwaitingInspection,,FHRS,False,,,"Lower Bourne, Farnham, GU10 3PH"
2026-04-24,1937168,The running stream,Pub/bar/nightclub,66 Weybourne Road,,Farnham,,GU9 9HE,Waverley,AwaitingInspection,,FHRS,False,51.2353565,-0.7754378,"66 Weybourne Road, Farnham, GU9 9HE"
2026-04-24,1937167,The Wheatsheaf,Pub/bar/nightclub,19 West Street,,Farnham,,GU9 7DR,Waverley,AwaitingInspection,,FHRS,False,51.2139662,-0.8017625,"19 West Street, Farnham, GU9 7DR"
2026-04-24,1937170,The Wheatsheaf,Pub/bar/nightclub,Bramley,,Guildford,,GU5 0HB,Waverley,AwaitingInspection,,FHRS,False,,,"Bramley, Guildford, GU5 0HB"
2026-04-24,1937158,The Lamb Inn Mitcheldean Limited,Pub/bar/nightclub,Lamb Inn,New Road,Mitcheldean,Gloucestershire,GL17 0BX,Forest of Dean,AwaitingInspection,,FHRS,False,51.8619895,-2.4877463,"Lamb Inn, New Road, Mitcheldean, Gloucestershire, GL17 0BX"
2026-04-24,1937554,Nags Head,Pub/bar/nightclub,The Nags Head Public House,London Road,Little Kingshill,Buckinghamshire,HP16 0DG,Buckinghamshire,AwaitingInspection,,FHRS,False,51.6928511,-0.697139,"The Nags Head Public House, London Road, Little Kingshill, Buckinghamshire, HP16 0DG"
2026-04-24,1937553,The Broad Leys,Pub/bar/nightclub,8 Wendover Road,Aylesbury,Buckinghamshire,,HP21 9LB,Buckinghamshire,AwaitingInspection,,FHRS,False,51.809015,-0.802545,"8 Wendover Road, Aylesbury, Buckinghamshire, HP21 9LB"
2026-04-24,1937264,The Butcher’s Bar Hale,Pub/bar/nightclub,,181 Ashley Road,Hale,Altrincham,WA15 9SD,Trafford,AwaitingInspection,,FHRS,False,53.3773344,-2.3459312,"181 Ashley Road, Hale, Altrincham, WA15 9SD"
2026-04-24,1937373,Plough,Pub/bar/nightclub,100 St John's Road,Whitstable,Kent,,CT5 2RN,Canterbury City,5,2026-03-19,FHRS,False,51.3642834,1.0727524,"100 St John's Road, Whitstable, Kent, CT5 2RN"
2026-04-25,1937613,Abbie’s kitchen & Lounge Ltd,Pub/bar/nightclub,72 - 76 Prescot Road,,Liverpool,,L7 0JA,Liverpool,AwaitingInspection,,FHRS,False,53.412998,-2.9395348,"72 - 76 Prescot Road, Liverpool, L7 0JA"
2026-04-25,1937603,Black Cat Parr Street,Pub/bar/nightclub,Black Cat Parr Street 25 Parr Street,,Liverpool,,L1 4JN,Liverpool,AwaitingInspection,,FHRS,False,,,"Black Cat Parr Street 25 Parr Street, Liverpool, L1 4JN"
2026-04-25,1937601,Coyote Ugly Saloon Liverpool,Pub/bar/nightclub,52 Bold Street,,Liverpool,,L1 4EA,Liverpool,2,2026-03-18,FHRS,False,53.4034894,-2.979443,"52 Bold Street, Liverpool, L1 4EA"
2026-04-25,1937640,Rooney’s Lounge,Pub/bar/nightclub,1A Chapel Avenue,,Liverpool,,L9 2BY,Liverpool,AwaitingInspection,,FHRS,False,53.4618251,-2.960752,"1A Chapel Avenue, Liverpool, L9 2BY"
2026-04-25,1937747,Foodbank St James (Lunch Hub St James),Pub/bar/nightclub,St Baptist Church Hall,23 - 27 St James Road,Watford,,WD18 0DZ,Watford,AwaitingInspection,,FHRS,False,51.6515882,-0.3989248,"St Baptist Church Hall, 23 - 27 St James Road, Watford, WD18 0DZ"
2026-04-25,1938181,The Hanging Bat,Pub/bar/nightclub,133-135 Lothian Road,Edinburgh,,,EH3 9AD,Edinburgh (City of),Awaiting Inspection,2026-04-22,FHIS,False,55.945632,-3.20506,"133-135 Lothian Road, Edinburgh, EH3 9AD"
2026-04-25,1937873,Coach & Horses,Pub/bar/nightclub,Coach And Horses,Mansfield Road,Derby,,DE1 3RF,Derby City,AwaitingInspection,,FHRS,False,,,"Coach And Horses, Mansfield Road, Derby, DE1 3RF"
2026-04-25,1937891,The Babington Arms,Pub/bar/nightclub,The Babington Arms,11-13 Babington Lane,Derby,,DE1 1TA,Derby City,AwaitingInspection,,FHRS,False,52.9191596,-1.4762428,"The Babington Arms, 11-13 Babington Lane, Derby, DE1 1TA"
2026-04-25,1726876,The Black Rhino,Pub/bar/nightclub,,6-7 Midland Road,Derby,,DE1 2SN,Derby City,3,2024-07-03,FHRS,False,52.915302,-1.466433,"6-7 Midland Road, Derby, DE1 2SN"
2026-04-25,1937887,The Coronation,Pub/bar/nightclub,The Coronation,Baker Street,Derby,,DE24 8SL,Derby City,AwaitingInspection,,FHRS,False,52.8994985,-1.4439237,"The Coronation, Baker Street, Derby, DE24 8SL"
2026-04-25,1937875,The Tannery,Pub/bar/nightclub,,34-35 Sadler Gate,Derby,,DE1 3NR,Derby City,AwaitingInspection,,FHRS,False,52.923045,-1.479516,"34-35 Sadler Gate, Derby, DE1 3NR"
2026-04-25,817158,Victory Club,Pub/bar/nightclub,The Victory Club,85 Chellaston Road,Derby,,DE24 9AF,Derby City,4,2026-03-20,FHRS,False,52.8862061,-1.4495011,"The Victory Club, 85 Chellaston Road, Derby, DE24 9AF"
2026-04-25,1937801,Thames Ditton Cricket Club,Pub/bar/nightclub,Giggs Hill Road,Thames Ditton,Surrey,,KT7 0BT,Elmbridge,5,2026-04-19,FHRS,False,51.386934,-0.331281,"Giggs Hill Road, Thames Ditton, Surrey, KT7 0BT"
2026-04-25,1937771,Chorleywood Lawn Tennis Club,Pub/bar/nightclub,Street Record,Lady Ela Drive,Chorleywood,Hertfordshire,,Three Rivers,AwaitingInspection,,FHRS,False,,,"Street Record, Lady Ela Drive, Chorleywood, Hertfordshire"
2026-04-25,1937689,The Larry's Mobile Bar Group,Pub/bar/nightclub,Unit 2,South House,Gillingham Gate Road,Chatham Docks,ME4 4RS,Medway,AwaitingInspection,,FHRS,False,51.398558,0.5500001,"Unit 2, South House, Gillingham Gate Road, Chatham Docks, ME4 4RS"
2026-04-25,1937763,The White Hart,Pub/bar/nightclub,White Hart Inn 8 East Street Newton Abbot,,,,TQ12 1AG,Teignbridge,AwaitingInspection,,FHRS,False,50.5289112,-3.6118158,"White Hart Inn 8 East Street Newton Abbot, TQ12 1AG"
2026-04-25,1937600,Plough Inn,Pub/bar/nightclub,Main Street,Cropwell Butler,Nottinghamshire,,NG12 3AB,Rushcliffe,AwaitingInspection,,FHRS,False,52.926262,-0.983025,"Main Street, Cropwell Butler, Nottinghamshire, NG12 3AB"
2026-04-25,1850474,Jorvine Spice Bank,Pub/bar/nightclub,,119 Nunnery Lane,York,,YO23 1AH,York,AwaitingInspection,,FHRS,False,53.9522577,-1.0847304,"119 Nunnery Lane, York, YO23 1AH"
2026-04-25,245792,Mila,Pub/bar/nightclub,,36 Fishergate,York,,YO10 4AB,York,AwaitingInspection,,FHRS,False,53.953526,-1.076928,"36 Fishergate, York, YO10 4AB"
2026-04-25,1938072,Comyns Hospitality,Pub/bar/nightclub,Vine Inn,10 Delph Road,Brierley Hill,,DY5 2TN,Dudley,AwaitingInspection,,FHRS,False,52.4744633,-2.1154607,"Vine Inn, 10 Delph Road, Brierley Hill, DY5 2TN"
2026-04-25,1938085,Gigmill,Pub/bar/nightclub,South Road,Norton,Stourbridge,,DY8 3UL,Dudley,AwaitingInspection,,FHRS,False,52.452341,-2.161715,"South Road, Norton, Stourbridge, DY8 3UL"
2026-04-25,1938069,The Ashwood,Pub/bar/nightclub,2 Sandringham Place,Wordsley,,,DY8 5HP,Dudley,5,2025-04-30,FHRS,False,52.4751129150391,-2.16857194900513,"2 Sandringham Place, Wordsley, DY8 5HP"
2026-04-25,1938078,The bell inn,Pub/bar/nightclub,The Bell Inn,614 High Street,Kingswinford,,DY6 8AJ,Dudley,AwaitingInspection,,FHRS,False,52.4979314,-2.1648686,"The Bell Inn, 614 High Street, Kingswinford, DY6 8AJ"
2026-04-25,1938058,The Dog & Partridge,Pub/bar/nightclub,136 High Street,Brierley Hill,,,DY5 3BP,Dudley,AwaitingInspection,,FHRS,False,52.483235,-2.120878,"136 High Street, Brierley Hill, DY5 3BP"
2026-04-25,1937991,Welwyn Sports and Social Club,Pub/bar/nightclub,Ottway Walk,Welwyn,Hertfordshire,,,Welwyn Hatfield,5,2023-03-16,FHRS,False,51.82723797,-0.21626461,"Ottway Walk, Welwyn, Hertfordshire"
2026-04-25,250607,Steel River Chef Co.,Pub/bar/nightclub,The Swan,101 Wolviston Road,,Billingham,TS23 2SF,Stockton On Tees,AwaitingInspection,,FHRS,False,54.610855,-1.2995066,"The Swan, 101 Wolviston Road, Billingham, TS23 2SF"
2026-04-25,1937853,The Talbot,Pub/bar/nightclub,,109 Mortimer Road London,Hackney,London,N1 4JY,Hackney,AwaitingInspection,,FHRS,False,51.5427757,-0.0792753,"109 Mortimer Road London, Hackney, London, N1 4JY"
2026-04-25,1042228,147 Snooker Ltd,Pub/bar/nightclub,Unit 3,A Shop Station Industrial Estate,Access Road Great Western Business Centre,Swindon,SN1 5DE,Swindon,5,2023-12-13,FHRS,False,51.5627563,-1.7904318,"Unit 3, A Shop Station Industrial Estate, Access Road Great Western Business Centre, Swindon, SN1 5DE"
2026-04-25,938720,Deers Leap,Pub/bar/nightclub,141 Penhill Drive,Penhill,Swindon,,SN2 5DX,Swindon,5,2022-12-29,FHRS,False,51.591578,-1.783337,"141 Penhill Drive, Penhill, Swindon, SN2 5DX"
2026-04-25,951642,The Carpenters Arms,Pub/bar/nightclub,Old Vicarage Lane,South Marston,Swindon,,SN3 4ST,Swindon,5,2024-04-16,FHRS,False,51.586307,-1.71512,"Old Vicarage Lane, South Marston, Swindon, SN3 4ST"
2026-04-25,1900662,The Patriot's Arms,Pub/bar/nightclub,6 New Road,Chiseldon,Swindon,,SN4 0LU,Swindon,AwaitingInspection,,FHRS,False,51.514202,-1.732848,"6 New Road, Chiseldon, Swindon, SN4 0LU"
2026-04-25,1682401,Keel Tavern,Pub/bar/nightclub,Unit 2 Holiday Inn,Keel Square,Sunderland,,SR1 3DS,Sunderland,5,2025-08-20,FHRS,False,54.9073258,-1.3862961,"Unit 2 Holiday Inn, Keel Square, Sunderland, SR1 3DS"
2026-04-25,1635179,Mick's Kitchen (Grandpa Dickies Shed),Pub/bar/nightclub,Pier Point,12 Marine Walk,Sunderland,,SR6 0PP,Sunderland,5,2025-12-12,FHRS,False,,,"Pier Point, 12 Marine Walk, Sunderland, SR6 0PP"
2026-04-25,1936347,The Clarendon,Pub/bar/nightclub,The Butchers Arms,143 High Street East,Sunderland,,SR1 2BL,Sunderland,AwaitingInspection,,FHRS,False,54.9103592,-1.3697474,"The Butchers Arms, 143 High Street East, Sunderland, SR1 2BL"
2026-04-25,1679345,The Wavendon,Pub/bar/nightclub,Wavendon Crescent,Sunderland,,,SR4 8LW,Sunderland,5,2025-09-06,FHRS,False,54.89518066,-1.42400409,"Wavendon Crescent, Sunderland, SR4 8LW"
2026-04-25,1937714,Red Lion,Pub/bar/nightclub,47 High Street,Stretham,Ely,Cambridgeshire,CB6 3LD,East Cambridgeshire,AwaitingInspection,,FHRS,False,52.348404,0.218825,"47 High Street, Stretham, Ely, Cambridgeshire, CB6 3LD"
2026-04-25,1937868,The Windmill,Pub/bar/nightclub,Windmill Sports And Social Club Mancetter Road,,Hartshill,Warwickshire,CV10 0HW,North Warwickshire,AwaitingInspection,,FHRS,False,,,"Windmill Sports And Social Club Mancetter Road, Hartshill, Warwickshire, CV10 0HW"
2026-04-25,1938034,Plume Of Feathers,Pub/bar/nightclub,Mitchell,Newquay,Cornwall,,TR8 5AX,Cornwall,5,2026-04-22,FHRS,False,50.351376,-5.011101,"Mitchell, Newquay, Cornwall, TR8 5AX"
2026-04-25,667744,Balmore Golf Club,Pub/bar/nightclub,Golf Course Road,Balmore,,East Dunbartonshire,G64 4AW,East Dunbartonshire,Pass,2022-11-14,FHIS,False,,,"Golf Course Road, Balmore, East Dunbartonshire, G64 4AW"
2026-04-25,1387315,Lux Nightclub,Pub/bar/nightclub,High Street,Kirkintilloch,,East Dunbartonshire,G66 1PN,East Dunbartonshire,Pass,2022-11-14,FHIS,False,,,"High Street, Kirkintilloch, East Dunbartonshire, G66 1PN"
2026-04-25,635158,Milngavie & Bearsden Sports Club,Pub/bar/nightclub,Auchenhowie Road,Milngavie,,East Dunbartonshire,G62 6EJ,East Dunbartonshire,Pass,2018-03-20,FHIS,False,,,"Auchenhowie Road, Milngavie, East Dunbartonshire, G62 6EJ"
2026-04-25,667747,Twechar Miners Welfare Bowling Club,Pub/bar/nightclub,35 Main Street,Twechar,,East Dunbartonshire,G65 9QQ,East Dunbartonshire,Pass,2014-03-06,FHIS,False,,,"35 Main Street, Twechar, East Dunbartonshire, G65 9QQ"
2026-04-25,1938135,The Railway Inn,Pub/bar/nightclub,The Railway Inn,40 STATION ROAD,Billingshurst,,RH14 9SE,Horsham,AwaitingInspection,,FHRS,False,51.0150979,-0.4509072,"The Railway Inn, 40 STATION ROAD, Billingshurst, RH14 9SE"
2026-04-25,1938244,Blythe Hill Tavern,Pub/bar/nightclub,The Blythe Hill Tavern,319 Stanstead Road,London,,SE23 1JB,Lewisham,5,2025-12-04,FHRS,False,51.4424096,-0.0338595,"The Blythe Hill Tavern, 319 Stanstead Road, London, SE23 1JB"
2026-04-25,1599865,Lewisham Tavern,Pub/bar/nightclub,The White Horse,1 Lee High Road,London,,SE13 5LD,Lewisham,5,2026-02-25,FHRS,False,51.462341,-0.008453,"The White Horse, 1 Lee High Road, London, SE13 5LD"
2026-04-25,1937977,Wellington Hotel,Pub/bar/nightclub,The Wellington 33 Steyne Road,,Seaford,,BN25 1HT,Lewes,5,2026-04-16,FHRS,False,50.7704616,0.1017003,"The Wellington 33 Steyne Road, Seaford, BN25 1HT"
2026-04-25,1938195,The Fox & Hounds,Pub/bar/nightclub,Fox And Hounds Inn,Burton Road,Acton Turville,South Gloucestershire,GL9 1HW,South Gloucestershire,AwaitingInspection,,FHRS,False,51.525262,-2.277811,"Fox And Hounds Inn, Burton Road, Acton Turville, South Gloucestershire, GL9 1HW"
2026-04-25,1938269,Bullshead,Pub/bar/nightclub,446 Watling Street,TWO GATES,,Tamworth,B77 1HW,Tamworth,AwaitingInspection,,FHRS,False,52.6119944,-1.6829179,"446 Watling Street, TWO GATES, Tamworth, B77 1HW"
2026-04-25,1938258,Crossbar,Pub/bar/nightclub,22 - 23 Upper North Street,Brighton,,,BN1 3FG,Brighton and Hove,AwaitingInspection,,FHRS,False,50.825066,-0.147028,"22 - 23 Upper North Street, Brighton, BN1 3FG"
2026-04-25,1047992,Bury Masonic Association Ltd,Pub/bar/nightclub,Masonic Hall,25 Parsons Lane,Bury,,BL9 0LY,Bury,5,2016-11-01,FHRS,False,53.5953645,-2.2946872,"Masonic Hall, 25 Parsons Lane, Bury, BL9 0LY"
2026-04-25,62179,Sedgley Park Rugby Union Club,Pub/bar/nightclub,,Park Lane,Whitefield,Bury,M25 7PA,Bury,5,2018-03-24,FHRS,False,53.4990840003413,-2.31134700051941,"Park Lane, Whitefield, Bury, M25 7PA"
2026-04-25,187568,Stand Golf Club,Pub/bar/nightclub,,Ashbourne Grove,Radcliffe,Bury,M45 7NL,Bury,1,2024-12-04,FHRS,False,53.552005,-2.304385,"Ashbourne Grove, Radcliffe, Bury, M45 7NL"
2026-04-27,1938294,Cockle and Hen,Pub/bar/nightclub,24 High Street,Margate,Kent,,CT9 1DS,Thanet,AwaitingInspection,,FHRS,False,51.3890997,1.3799624,"24 High Street, Margate, Kent, CT9 1DS"
2026-04-27,1938275,Margate Beach Club,Pub/bar/nightclub,1 Albert Terrace,Margate,Kent,,CT9 1UJ,Thanet,AwaitingInspection,,FHRS,False,51.387867,1.380077,"1 Albert Terrace, Margate, Kent, CT9 1UJ"
2026-04-27,1938310,Pierremont Hall,Pub/bar/nightclub,The Princess Victoria Suite,Pierremont Park,Pierremont Avenue,Broadstairs,CT10 1JX,Thanet,AwaitingInspection,,FHRS,False,51.3588668,1.4374447,"The Princess Victoria Suite, Pierremont Park, Pierremont Avenue, Broadstairs, CT10 1JX"
2026-04-28,1938882,Old Harry's Pizza,Pub/bar/nightclub,The Willow Tree,154 Vale Road,Worcester Park,Surrey,KT4 7ED,Epsom and Ewell,AwaitingInspection,,FHRS,False,,,"The Willow Tree, 154 Vale Road, Worcester Park, Surrey, KT4 7ED"
2026-04-28,1938401,The Ship,Pub/bar/nightclub,Ship Inn Gainsborough Road,Bawtry,Doncaster,,DN10 6HT,Doncaster,AwaitingInspection,,FHRS,False,,,"Ship Inn Gainsborough Road, Bawtry, Doncaster, DN10 6HT"
2026-04-28,1929047,Distant Hills Ltd,Pub/bar/nightclub,Hope Street,Glossop,Derbyshire,,SK13 7SS,High Peak,5,2026-04-16,FHRS,False,53.4527053833008,-1.93539094924927,"Hope Street, Glossop, Derbyshire, SK13 7SS"
2026-04-28,1938323,Cave Lounge,Pub/bar/nightclub,,58 St Johns Road,,Uxbridge,UB8 2UR,Hillingdon,AwaitingInspection,,FHRS,False,51.54153,-0.48985,"58 St Johns Road, Uxbridge, UB8 2UR"
2026-04-28,1938531,ANDREW ARMS,Pub/bar/nightclub,Andrew Arms,George Street,Compstall,Stockport,SK6 5JD,Stockport,AwaitingInspection,,FHRS,False,53.4153099060059,-2.05267906188965,"Andrew Arms, George Street, Compstall, Stockport, SK6 5JD"
2026-04-28,1938563,Bosden Farm Pub And Dining,Pub/bar/nightclub,Bosden Farm Pub,23 Turnstone Road,Offerton,Stockport,SK2 5XT,Stockport,AwaitingInspection,,FHRS,False,53.3912083,-2.1066899,"Bosden Farm Pub, 23 Turnstone Road, Offerton, Stockport, SK2 5XT"
2026-04-28,1938664,Mikes Kitchen,Pub/bar/nightclub,Whitehart Hotel,170 Hyde Road,Woodley,Stockport,SK6 1NP,Stockport,AwaitingInspection,,FHRS,False,53.428116,-2.095616,"Whitehart Hotel, 170 Hyde Road, Woodley, Stockport, SK6 1NP"
2026-04-28,1938446,THE ALEXANDRA,Pub/bar/nightclub,Alexandra Hotel,195 Northgate Road,Edgeley,Stockport,SK3 9NJ,Stockport,AwaitingInspection,,FHRS,False,53.40151,-2.175255,"Alexandra Hotel, 195 Northgate Road, Edgeley, Stockport, SK3 9NJ"
2026-04-28,1938447,THE SWAN WITH TWO NECKS,Pub/bar/nightclub,Swan With Two Necks,36 Princes Street,Stockport,,SK1 1RY,Stockport,AwaitingInspection,,FHRS,False,53.412091,-2.160765,"Swan With Two Necks, 36 Princes Street, Stockport, SK1 1RY"
2026-04-28,1938456,The Voltigeur,Pub/bar/nightclub,37 Compstall Road,Romiley,Stockport,,SK6 4BT,Stockport,5,2026-03-17,FHRS,False,53.414074,-2.087175,"37 Compstall Road, Romiley, Stockport, SK6 4BT"
2026-04-28,1938939,Cricketer’s Arms,Pub/bar/nightclub,18 Market Place,,,Selby,YO8 4PB,North Yorkshire,AwaitingInspection,,FHRS,False,53.783798,-1.069583,"18 Market Place, Selby, YO8 4PB"
2026-04-28,1938978,Downtown Bedale,Pub/bar/nightclub,8 Market Place,,,Bedale,DL8 1EQ,North Yorkshire,AwaitingInspection,,FHRS,False,54.2890253,-1.5930981,"8 Market Place, Bedale, DL8 1EQ"
2026-04-28,1938977,George & Dragon,Pub/bar/nightclub,George And Dragon Hotel 17 Market Place,,,York,YO62 6AA,North Yorkshire,AwaitingInspection,,FHRS,False,54.2697583,-0.9318444,"George And Dragon Hotel 17 Market Place, York, YO62 6AA"
2026-04-28,1938949,Station Tavern,Pub/bar/nightclub,The Station Tavern Front Street,,,Whitby,YO22 5PA,North Yorkshire,AwaitingInspection,,FHRS,False,,,"The Station Tavern Front Street, Whitby, YO22 5PA"
2026-04-28,1938970,The Old Black Swan,Pub/bar/nightclub,19 Market Place,,,Bedale,DL8 1ED,North Yorkshire,AwaitingInspection,,FHRS,False,54.2890016,-1.5922294,"19 Market Place, Bedale, DL8 1ED"
2026-04-28,1938757,Travellers Well Inn,Pub/bar/nightclub,,554 Carmarthen Road,,Cwmbwrla,SA5 8LA,Abertawe,AwaitingInspection,,FHRS,False,51.6356301,-3.9632934,"554 Carmarthen Road, Cwmbwrla, SA5 8LA"
2026-04-28,1938783,Marine Hotel Bar,Pub/bar/nightclub,Gwestyr Twr Marine Crescent,,Criccieth,Gwynedd,LL52 0EA,Gwynedd,5,2026-04-16,FHRS,False,,,"Gwestyr Twr Marine Crescent, Criccieth, Gwynedd, LL52 0EA"
2026-04-28,1930357,Goffs Manor,Pub/bar/nightclub,Old Horsham Road,Southgate,Crawley,West Sussex,RH11 8PE,Crawley,AwaitingInspection,,FHRS,False,51.109759,-0.202466,"Old Horsham Road, Southgate, Crawley, West Sussex, RH11 8PE"
2026-04-28,1929887,147 Sports,Pub/bar/nightclub,Unit 3A,B Shop Great Western Business Centre,London Street,Railway Village,SN1 5DE,Swindon,4,2026-03-25,FHRS,False,,,"Unit 3A, B Shop Great Western Business Centre, London Street, Railway Village, SN1 5DE"
2026-04-28,1927494,Calley Arms,Pub/bar/nightclub,The Calley Arms,Hodson Lane,Hodson,Swindon,SN4 0QG,Swindon,AwaitingInspection,,FHRS,False,51.5229110717773,-1.75150799751282,"The Calley Arms, Hodson Lane, Hodson, Swindon, SN4 0QG"
2026-04-28,1935888,The Deers Leap,Pub/bar/nightclub,141 Penhill Drive,Penhill,Swindon,,SN2 5DX,Swindon,5,2026-03-24,FHRS,False,51.591578,-1.783337,"141 Penhill Drive, Penhill, Swindon, SN2 5DX"
2026-04-28,1938783,Marine Hotel Bar,Pub/bar/nightclub,Gwestyr Twr Marine Crescent,,Criccieth,Gwynedd,LL52 0EA,Gwynedd,5,2026-04-16,FHRS,False,,,"Gwestyr Twr Marine Crescent, Criccieth, Gwynedd, LL52 0EA"
2026-04-28,1938757,Travellers Well Inn,Pub/bar/nightclub,,554 Carmarthen Road,,Cwmbwrla,SA5 8LA,Swansea,AwaitingInspection,,FHRS,False,51.6356301,-3.9632934,"554 Carmarthen Road, Cwmbwrla, SA5 8LA"
