date_added,FHRSID,BusinessName,BusinessType,AddressLine1,AddressLine2,AddressLine3,AddressLine4,PostCode,LocalAuthorityName,RatingValue,RatingDate,SchemeType,NewRatingPending,Latitude,Longitude,AddressSingleLine
2026-04-01,608313,South Eastern Tavern,Pub/bar/nightclub,11 Margate Road,Ramsgate,Kent,,CT11 7SP,Thanet,5,2022-05-24,FHRS,False,51.339067,1.414555,"11 Margate Road, Ramsgate, Kent, CT11 7SP"
2026-04-01,242981,Spalding Golf Club,Pub/bar/nightclub,Spalding Golf Club,Spalding,Surfleet,,PE11 4EA,South Holland,Exempt,,FHRS,False,52.8397709,-0.1221131,"Spalding Golf Club, Spalding, Surfleet, PE11 4EA"
2026-04-01,1013594,Grattons Indoor Bowls Club Bar,Pub/bar/nightclub,The Grattons Indoor Bowls Club,Grattons Drive,Pound Hill,Crawley,RH10 3AG,Crawley,5,2026-03-31,FHRS,False,51.126349,-0.155005,"The Grattons Indoor Bowls Club, Grattons Drive, Pound Hill, Crawley, RH10 3AG"
2026-04-01,1930269,knockabout,Pub/bar/nightclub,26 Market Square,,Dover,,CT16 1NG,Dover,AwaitingInspection,,FHRS,False,51.1252693,1.3128398,"26 Market Square, Dover, CT16 1NG"
2026-04-01,1930270,The Plough Inn Ripple (Samanthatradingltd),Pub/bar/nightclub,Church Lane Deal,,Kent,,Ct148jh,Dover,AwaitingInspection,,FHRS,False,51.20374855,1.3634816,"Church Lane Deal, Kent, Ct148jh"
2026-04-01,1930271,The Prince Albert,Pub/bar/nightclub,Prince Albert Public House 83 Biggin Street,,Dover,Kent,CT16 1BB,Dover,5,2026-03-13,FHRS,False,51.1275163,1.3091909,"Prince Albert Public House 83 Biggin Street, Dover, Kent, CT16 1BB"
2026-04-01,1930094,Oddfellows Arms,Pub/bar/nightclub,Oddfellows Arms 1 Hartford Road,Davenham,Northwich,Cheshire,CW9 8JA,Cheshire West and Chester,AwaitingInspection,,FHRS,True,53.2355766296387,-2.51260304450989,"Oddfellows Arms 1 Hartford Road, Davenham, Northwich, Cheshire, CW9 8JA"
2026-04-01,1930082,The Deva Tap,Pub/bar/nightclub,121 Brook Street,,Chester,Cheshire,CH1 3DU,Cheshire West and Chester,AwaitingInspection,,FHRS,True,53.1966822,-2.8841447,"121 Brook Street, Chester, Cheshire, CH1 3DU"
2026-04-01,1930178,The Engine,Pub/bar/nightclub,Moor Road,Hunslet,Leeds,,LS10 2JJ,Leeds,AwaitingInspection,,FHRS,False,53.772135,-1.533015,"Moor Road, Hunslet, Leeds, LS10 2JJ"
2026-04-01,1018173,The Key Club,Pub/bar/nightclub,66 Merrion Street,Leeds,,,LS2 8LW,Leeds,AwaitingInspection,,FHRS,False,53.800948,-1.543809,"66 Merrion Street, Leeds, LS2 8LW"
2026-04-01,1930124,The Exeter,Pub/bar/nightclub,Exeter Inn,Bullen Street,Thorverton,Exeter,EX5 5NG,Mid Devon,AwaitingInspection,,FHRS,False,50.8081099,-3.5275876,"Exeter Inn, Bullen Street, Thorverton, Exeter, EX5 5NG"
2026-04-01,1929987,Vitto Kitchens,Pub/bar/nightclub,The Prince Of Wales,117 Ewell Road,Surbiton,,KT6 6AL,Kingston-Upon-Thames,AwaitingInspection,,FHRS,True,51.3896487,-0.2975555,"The Prince Of Wales, 117 Ewell Road, Surbiton, KT6 6AL"
2026-04-01,1930120,The Golden Fleece,Pub/bar/nightclub,Golden Fleece,23 Whitehall Road East,Birkenshaw,Bradford,BD11 2EQ,Kirklees,AwaitingInspection,,FHRS,False,53.7475941,-1.6909163,"Golden Fleece, 23 Whitehall Road East, Birkenshaw, Bradford, BD11 2EQ"
2026-04-01,1930118,Travellers Rest Brockholes,Pub/bar/nightclub,Travellers Rest,88 New Mill Road,Brockholes,Holmfirth,HD9 7AZ,Kirklees,AwaitingInspection,,FHRS,False,53.599843,-1.778758,"Travellers Rest, 88 New Mill Road, Brockholes, Holmfirth, HD9 7AZ"
2026-04-01,1930115,White Cross Inn,Pub/bar/nightclub,2 Bradley Road,Bradley,Huddersfield,,HD2 1XD,Kirklees,5,2026-03-17,FHRS,False,53.680751,-1.739728,"2 Bradley Road, Bradley, Huddersfield, HD2 1XD"
2026-04-01,1930201,Black  rabbit,Pub/bar/nightclub,10 ASHFIELD TERRACE,,CHESTER-LE-STREET,,DH3 3PD,Durham,AwaitingInspection,,FHRS,False,54.8516542,-1.57295,"10 ASHFIELD TERRACE, CHESTER-LE-STREET, DH3 3PD"
2026-04-01,304299,Kennedy's Bar,Pub/bar/nightclub,37-38 FORE BONDGATE,,BISHOP AUCKLAND,,DL14 7PE,Durham,AwaitingInspection,,FHRS,False,54.6652363,-1.6773982,"37-38 FORE BONDGATE, BISHOP AUCKLAND, DL14 7PE"
2026-04-01,1930207,Queens head,Pub/bar/nightclub,2 SHERBURN ROAD,,DURHAM,,DH1 2JR,Durham,5,2026-03-06,FHRS,False,54.7788749,-1.5558821,"2 SHERBURN ROAD, DURHAM, DH1 2JR"
2026-04-01,1930213,Raby Arms,Pub/bar/nightclub,17 MARKET PLACE,,BARNARD CASTLE,,DL12 8NF,Durham,AwaitingInspection,,FHRS,False,54.5427561,-1.9233557,"17 MARKET PLACE, BARNARD CASTLE, DL12 8NF"
2026-04-01,1930236,The Red Lion,Pub/bar/nightclub,The Red Lion  Plawsworth,,Durham,United Kingdom,DH2 3NL,Durham,AwaitingInspection,,FHRS,True,,,"The Red Lion  Plawsworth, Durham, United Kingdom, DH2 3NL"
2026-04-01,1930361,The Bell,Pub/bar/nightclub,4 High Street,Standon,Hertfordshire,,SG11 1LA,East Hertfordshire,AwaitingInspection,,FHRS,False,51.883627,0.0273489,"4 High Street, Standon, Hertfordshire, SG11 1LA"
2026-04-01,1929913,Sir Loin Of Beef,Pub/bar/nightclub,152 Highland Road,Southsea,,,PO4 9NH,Portsmouth,AwaitingInspection,,FHRS,True,50.7864570617676,-1.05864095687866,"152 Highland Road, Southsea, PO4 9NH"
2026-04-01,1903703,King William,Pub/bar/nightclub,King William Iv,54 Combe Road,Combe Down,Bath,BA2 5HY,Bath and North East Somerset,5,2026-03-26,FHRS,False,51.359101,-2.350265,"King William Iv, 54 Combe Road, Combe Down, Bath, BA2 5HY"
2026-04-01,372559,The Sutton Arms,Pub/bar/nightclub,14-16 Station Lane,Hornchurch,,,RM12 6NJ,Havering,5,2026-03-13,FHRS,False,51.561287,0.220507,"14-16 Station Lane, Hornchurch, RM12 6NJ"
2026-04-01,1929954,Tigermilk,Pub/bar/nightclub,,17-19 Derrys Cross,Plymouth,,PL1 2SW,Plymouth City,AwaitingInspection,,FHRS,True,50.369383,-4.14603,"17-19 Derrys Cross, Plymouth, PL1 2SW"
2026-04-01,1930365,Cherry Tree,Pub/bar/nightclub,Cherry Tree Inn,Church Street,Horbury,Wakefield,WF4 6LT,Wakefield,AwaitingInspection,,FHRS,False,53.6607704162598,-1.55429601669312,"Cherry Tree Inn, Church Street, Horbury, Wakefield, WF4 6LT"
2026-04-01,553607,The Horn & Horseshoes,Pub/bar/nightclub,Horns And Horseshoes Foster Street,Harlow,North Weald Bassett,Essex,CM17 9HX,Epping Forest,5,2025-10-14,FHRS,False,,,"Horns And Horseshoes Foster Street, Harlow, North Weald Bassett, Essex, CM17 9HX"
2026-04-01,554346,The Nags Head,Pub/bar/nightclub,The Dog and Pickle Church Road,Moreton,Ongar,Essex,CM5 0HZ,Epping Forest,5,2024-09-19,FHRS,False,,,"The Dog and Pickle Church Road, Moreton, Ongar, Essex, CM5 0HZ"
2026-04-01,554494,Waltham Holy Cross Conservative Club Ltd,Pub/bar/nightclub,Waltham Holy Cross Conservative Club,35 Honey Lane,Waltham Abbey,Essex,EN9 3AS,Epping Forest,5,2025-03-07,FHRS,False,51.6861159,0.0120982,"Waltham Holy Cross Conservative Club, 35 Honey Lane, Waltham Abbey, Essex, EN9 3AS"
2026-04-01,554350,West Essex Golf Club Ltd,Pub/bar/nightclub,West Essex Golf Club Bury Road,London,Waltham Abbey,Essex,E4 7QL,Epping Forest,5,2024-01-23,FHRS,False,,,"West Essex Golf Club Bury Road, London, Waltham Abbey, Essex, E4 7QL"
2026-04-01,554446,Woodbine,Pub/bar/nightclub,The Woodbine PH,Honey Lane,Waltham Abbey,Essex,EN9 3QT,Epping Forest,2,2025-09-11,FHRS,False,51.6786155700684,0.0424159988760948,"The Woodbine PH, Honey Lane, Waltham Abbey, Essex, EN9 3QT"
2026-04-02,65183,Royal British Legion Social Club,Pub/bar/nightclub,,2 High Street,Turriff,Aberdeenshire,AB53 4DS,Aberdeenshire,Pass,2019-01-30,FHIS,False,57.537274,-2.46153,"2 High Street, Turriff, Aberdeenshire, AB53 4DS"
2026-04-02,236698,Gosforth Golf Club,Pub/bar/nightclub,Gosforth Golf Club Broadway East,Gosforth,Newcastle Upon Tyne,,NE3 5EU,Newcastle Upon Tyne,5,2024-10-31,FHRS,False,55.0176438,-1.6147925,"Gosforth Golf Club Broadway East, Gosforth, Newcastle Upon Tyne, NE3 5EU"
2026-04-02,235918,High Gosforth Park Golf Club,Pub/bar/nightclub,Parklands Golf Club High Gosforth Park,Gosforth,Newcastle Upon Tyne,,NE3 5HT,Newcastle Upon Tyne,5,2024-09-25,FHRS,False,55.0372537,-1.6097379,"Parklands Golf Club High Gosforth Park, Gosforth, Newcastle Upon Tyne, NE3 5HT"
2026-04-02,670274,NCJ Juve Lounge,Pub/bar/nightclub,Training Ground Offices Newcastle Football Centre Gibside Gardens,,Newcastle Upon Tyne,,NE15 7PP,Newcastle Upon Tyne,5,2024-10-29,FHRS,False,54.9764783,-1.6800996,"Training Ground Offices Newcastle Football Centre Gibside Gardens, Newcastle Upon Tyne, NE15 7PP"
2026-04-02,1104676,Newcastle Blue Star,Pub/bar/nightclub,Scotswood Sports And Social Centre 378 Denton Road,,Newcastle Upon Tyne,,NE15 7HB,Newcastle Upon Tyne,5,2025-12-13,FHRS,False,,,"Scotswood Sports And Social Centre 378 Denton Road, Newcastle Upon Tyne, NE15 7HB"
2026-04-02,1384687,Newcastle Theatre Royal Trust LTD,Pub/bar/nightclub,Theatre Royal 100 Grey Street,,Newcastle Upon Tyne,,NE1 6BR,Newcastle Upon Tyne,5,2026-03-12,FHRS,False,54.9727128,-1.6120342,"Theatre Royal 100 Grey Street, Newcastle Upon Tyne, NE1 6BR"
2026-04-02,1157993,Newcastle United Golf Club,Pub/bar/nightclub,Newcastle United Golf Club Ponteland Road,,Newcastle Upon Tyne,,NE5 3JW,Newcastle Upon Tyne,5,2025-12-13,FHRS,False,,,"Newcastle United Golf Club Ponteland Road, Newcastle Upon Tyne, NE5 3JW"
2026-04-02,236773,Northern Football Club,Pub/bar/nightclub,Northern Football Club Mccracken Park Great North Road,Gosforth,Newcastle Upon Tyne,,NE3 2DT,Newcastle Upon Tyne,5,2025-01-15,FHRS,False,55.0238545,-1.6209268,"Northern Football Club Mccracken Park Great North Road, Gosforth, Newcastle Upon Tyne, NE3 2DT"
2026-04-02,1930740,PILGRIM,Pub/bar/nightclub,54 - 56 Pilgrim Street,,Newcastle Upon Tyne,,NE1 6SF,Newcastle Upon Tyne,AwaitingInspection,,FHRS,False,54.9724758,-1.6109742,"54 - 56 Pilgrim Street, Newcastle Upon Tyne, NE1 6SF"
2026-04-02,1930729,Revolution,Pub/bar/nightclub,38 Collingwood Street,,Newcastle Upon Tyne,,NE1 1JF,Newcastle Upon Tyne,AwaitingInspection,,FHRS,False,54.9699052,-1.613623,"38 Collingwood Street, Newcastle Upon Tyne, NE1 1JF"
2026-04-02,237184,The Newcastle Greyhound Stadium,Pub/bar/nightclub,Brough Park Greyhound Stadium Fossway,,Newcastle Upon Tyne,,NE6 2XJ,Newcastle Upon Tyne,5,2024-12-04,FHRS,False,,,"Brough Park Greyhound Stadium Fossway, Newcastle Upon Tyne, NE6 2XJ"
2026-04-02,1111181,Westerhope Golf Club,Pub/bar/nightclub,Westerhope Golf Club Stamfordham Road,Westerhope,Newcastle Upon Tyne,,NE5 1PP,Newcastle Upon Tyne,5,2024-11-06,FHRS,False,55.005416,-1.7021502,"Westerhope Golf Club Stamfordham Road, Westerhope, Newcastle Upon Tyne, NE5 1PP"
2026-04-02,1930830,The Last Drop Inn,Pub/bar/nightclub,279 Eltham High Street,,Eltham,Greenwich,SE9 1TY,Greenwich,AwaitingInspection,,FHRS,False,51.4510552,0.063793,"279 Eltham High Street, Eltham, Greenwich, SE9 1TY"
2026-04-02,1930824,The Vanbrugh,Pub/bar/nightclub,The Vanbrugh Tavern 91 Colomb Street,,Greenwich,,SE10 9EZ,Greenwich,AwaitingInspection,,FHRS,False,51.4834106,0.0079148,"The Vanbrugh Tavern 91 Colomb Street, Greenwich, SE10 9EZ"
2026-04-02,1930404,The Red Lion,Pub/bar/nightclub,Red Lion 16 Chapel Road,,Breachwood Green,Hertfordshire,SG4 8NU,North Hertfordshire,AwaitingInspection,,FHRS,False,51.885464,-0.329897,"Red Lion 16 Chapel Road, Breachwood Green, Hertfordshire, SG4 8NU"
2026-04-02,1930416,WeBrew Kingston,Pub/bar/nightclub,5 Ram Passage,Kingston Upon Thames,,,KT1 1HH,Kingston-Upon-Thames,AwaitingInspection,,FHRS,False,51.4084384,-0.3083639,"5 Ram Passage, Kingston Upon Thames, KT1 1HH"
2026-04-02,1930563,PAM'S BAR AND NIGHTCLUB,Pub/bar/nightclub,38-40 High Street,Congleton,,Cheshire East,CW12 1BD,Cheshire East,AwaitingInspection,,FHRS,False,53.1627093,-2.21191,"38-40 High Street, Congleton, Cheshire East, CW12 1BD"
2026-04-02,328638,Thirteen,Pub/bar/nightclub,,13 Market Place,,Kendal,LA9 4TP,Westmorland and Furness,AwaitingInspection,,FHRS,False,54.328348,-2.746577,"13 Market Place, Kendal, LA9 4TP"
2026-04-02,1930661,The Hare & Hounds,Pub/bar/nightclub,Hare And Hounds Hotel Bath Road,Speen,Newbury,West Berkshire,RG14 1QY,West Berkshire,AwaitingInspection,,FHRS,False,,,"Hare And Hounds Hotel Bath Road, Speen, Newbury, West Berkshire, RG14 1QY"
2026-04-02,1930663,The Old Boot Inn,Pub/bar/nightclub,The Old Boot Inn,Stanford Dingley,Reading,West Berkshire,RG7 6LT,West Berkshire,AwaitingInspection,,FHRS,False,,,"The Old Boot Inn, Stanford Dingley, Reading, West Berkshire, RG7 6LT"
2026-04-02,1930658,The Wheelwrights Arms,Pub/bar/nightclub,The Wheelwright Arms 4 The Broadway,Lambourn,Hungerford,West Berkshire,RG17 8XY,West Berkshire,AwaitingInspection,,FHRS,False,51.509041,-1.5297836,"The Wheelwright Arms 4 The Broadway, Lambourn, Hungerford, West Berkshire, RG17 8XY"
2026-04-02,1930583,Greenman,Pub/bar/nightclub,Green Man Main Street,,Mollington,Oxfordshire,OX17 1BB,Cherwell,AwaitingInspection,,FHRS,False,52.1234921,-1.3546588,"Green Man Main Street, Mollington, Oxfordshire, OX17 1BB"
2026-04-02,1930606,Sportsters,Pub/bar/nightclub,,7 Gilmour Street,Paisley,Renfrewshire,PA1 1DD,Renfrewshire,Awaiting Inspection,2026-03-31,FHIS,False,55.846178,-4.424085,"7 Gilmour Street, Paisley, Renfrewshire, PA1 1DD"
2026-04-02,1930450,Horse & Jockey,Pub/bar/nightclub,18 Birchfield Road,Widnes,Halton,,WA8 7SU,Halton,AwaitingInspection,,FHRS,False,53.3729529,-2.7325849,"18 Birchfield Road, Widnes, Halton, WA8 7SU"
2026-04-02,1930448,The Prospect Inn,Pub/bar/nightclub,70 Weston Road,Runcorn,Halton,,WA7 4LD,Halton,AwaitingInspection,,FHRS,False,53.3240128,-2.7448376,"70 Weston Road, Runcorn, Halton, WA7 4LD"
2026-04-02,1930648,K&N Hospitality Ltd,Pub/bar/nightclub,White Hart,Stratford Road,Newbold-on-Stour,Stratford-upon-Avon,CV37 8TS,Stratford-on-Avon,AwaitingInspection,,FHRS,False,52.115735,-1.641225,"White Hart, Stratford Road, Newbold-on-Stour, Stratford-upon-Avon, CV37 8TS"
2026-04-02,1723126,Bell Inn Middleton,Pub/bar/nightclub,Bell Inn,The Street,Middleton,Saxmundham,IP17 3NN,East Suffolk,5,2024-05-23,FHRS,False,52.2550824,1.5576927,"Bell Inn, The Street, Middleton, Saxmundham, IP17 3NN"
2026-04-02,1930488,The Castle Inn,Pub/bar/nightclub,Castle Inn,Castle Street,Framlingham,Woodbridge,IP13 9BP,East Suffolk,AwaitingInspection,,FHRS,True,52.2232322,1.3459592,"Castle Inn, Castle Street, Framlingham, Woodbridge, IP13 9BP"
2026-04-03,1931322,The Music Room,Pub/bar/nightclub,,3-5 Church Street,Larkhall,South Lanarkshire,ML9 1EZ,South Lanarkshire,Awaiting Inspection,,FHIS,False,55.7370208,-3.9714379,"3-5 Church Street, Larkhall, South Lanarkshire, ML9 1EZ"
2026-04-03,1931392,Rose and Crown,Pub/bar/nightclub,Rose and Crown Ph,Vicarage Lane,Ivinghoe,Buckinghamshire,LU7 9EQ,Buckinghamshire,5,2026-03-31,FHRS,False,51.837545,-0.6296514,"Rose and Crown Ph, Vicarage Lane, Ivinghoe, Buckinghamshire, LU7 9EQ"
2026-04-03,1931395,The Eagle,Pub/bar/nightclub,The Eagle Public House,145 High Street,Amersham,Buckinghamshire,HP7 0DY,Buckinghamshire,5,2026-03-17,FHRS,False,51.6675834655762,-0.620334029197693,"The Eagle Public House, 145 High Street, Amersham, Buckinghamshire, HP7 0DY"
2026-04-03,1931521,Abbey Gates Bar & Grill,Pub/bar/nightclub,Abbey Gate,88 Main Street,Kilwinning,North Ayrshire,KA13 6AG,North Ayrshire,Pass,2026-03-10,FHIS,False,55.6539591,-4.6986523,"Abbey Gate, 88 Main Street, Kilwinning, North Ayrshire, KA13 6AG"
2026-04-03,1931520,Black Bull Inn,Pub/bar/nightclub,,2 Vennel Street,Dalry,North Ayrshire,KA24 4AF,North Ayrshire,Awaiting Inspection,,FHIS,False,55.7080626,-4.7218059,"2 Vennel Street, Dalry, North Ayrshire, KA24 4AF"
2026-04-03,1931518,Millport Golf Club,Pub/bar/nightclub,Millport Golf Club,Golf Road,Millport,North Ayrshire,KA28 0HB,North Ayrshire,Awaiting Inspection,,FHIS,False,55.7588091,-4.9395626,"Millport Golf Club, Golf Road, Millport, North Ayrshire, KA28 0HB"
2026-04-03,1928892,The Morgan Pub,Pub/bar/nightclub,52 Clarence Road,Malvern,Worcestershire,,WR14 3EQ,Malvern Hills,AwaitingInspection,,FHRS,False,52.1072944,-2.3175516,"52 Clarence Road, Malvern, Worcestershire, WR14 3EQ"
2026-04-03,1931032,Church Inn,Pub/bar/nightclub,Church Road,Darley Dale,Derbyshire,,DE4 2GG,Derbyshire Dales,1,2024-10-25,FHRS,False,53.166558,-1.602001,"Church Road, Darley Dale, Derbyshire, DE4 2GG"
2026-04-03,1930979,CENTRAL BAR,Pub/bar/nightclub,Central Bar,415 Great Northern Road,Aberdeen,Aberdeen City,AB24 2EU,Aberdeen City,Awaiting Inspection,1999-04-01,FHIS,False,57.170451,-2.1250232,"Central Bar, 415 Great Northern Road, Aberdeen, Aberdeen City, AB24 2EU"
2026-04-03,1930977,SLAINS,Pub/bar/nightclub,,10-12 Belmont Street,,,AB21 0UR,Aberdeen City,Awaiting Inspection,1999-04-01,FHIS,False,,,"10-12 Belmont Street, AB21 0UR"
2026-04-03,1848250,Mid Kent Golf Club,Pub/bar/nightclub,Singlewell Road,Gravesend,Kent,,DA11 7RB,Gravesham,AwaitingInspection,,FHRS,False,51.426094,0.368058,"Singlewell Road, Gravesend, Kent, DA11 7RB"
2026-04-03,1931238,The Pig Pub,Pub/bar/nightclub,Public House and Premises,36 White Rock,Hastings,East Sussex,TN34 1JL,Hastings,AwaitingInspection,,FHRS,False,50.8543761,0.5754263,"Public House and Premises, 36 White Rock, Hastings, East Sussex, TN34 1JL"
2026-04-03,250668,Stockton Cricket & Rugby Club,Pub/bar/nightclub,,52a Oxbridge Avenue,,Stockton-On-Tees,TS18 4JF,Stockton On Tees,5,2024-07-18,FHRS,False,54.565039,-1.338263,"52a Oxbridge Avenue, Stockton-On-Tees, TS18 4JF"
2026-04-03,1931366,Forde Hall Catering,Pub/bar/nightclub,Forde Hall Social Club Brunel Road Newton Abbot,,,,TQ12 4AG,Teignbridge,AwaitingInspection,,FHRS,False,,,"Forde Hall Social Club Brunel Road Newton Abbot, TQ12 4AG"
2026-04-03,1931374,Top Hat & Tails,Pub/bar/nightclub,40 Northumberland Place Teignmouth,,,,TQ14 8BU,Teignbridge,AwaitingInspection,,FHRS,False,50.5449189,-3.4981059,"40 Northumberland Place Teignmouth, TQ14 8BU"
2026-04-03,1930973,Duke of Cambridge,Pub/bar/nightclub,Tilford Road,,Farnham,,GU102DD,Waverley,AwaitingInspection,,FHRS,False,51.17748804,-0.74904214,"Tilford Road, Farnham, GU102DD"
2026-04-03,1930951,Ales And Blooms Ltd,Pub/bar/nightclub,136 Tankerton Road,East Of Tankerton Circus,Whitstable,Kent,CT5 2AN,Canterbury City,AwaitingInspection,,FHRS,False,51.3635999,1.0439429,"136 Tankerton Road, East Of Tankerton Circus, Whitstable, Kent, CT5 2AN"
2026-04-03,1210093,Earth Venue,Pub/bar/nightclub,,11-17 STOKE NEWINGTON ROAD,Hackney,London,N16 8BH,Hackney,Exempt,,FHRS,False,51.5509667,-0.0753677,"11-17 STOKE NEWINGTON ROAD, Hackney, London, N16 8BH"
2026-04-03,1931343,The Blustery Barrel,Pub/bar/nightclub,8 Windy Bank,Colne,Lancashire,,BB8 9HZ,Pendle,AwaitingInspection,,FHRS,False,53.8573837,-2.1684382,"8 Windy Bank, Colne, Lancashire, BB8 9HZ"
2026-04-03,1913505,The Cub,Pub/bar/nightclub,14 - 15 Milsom Place,City Centre,Bath,Bath And North East Somerset,BA1 1BZ,Bath and North East Somerset,AwaitingInspection,,FHRS,True,51.3839017,-2.3605711,"14 - 15 Milsom Place, City Centre, Bath, Bath And North East Somerset, BA1 1BZ"
2026-04-03,1931253,The Country House Inn,Pub/bar/nightclub,Country House Inn,174 - 176 Withycombe Village Road,Exmouth,,EX8 3BA,East Devon,AwaitingInspection,,FHRS,False,50.6294142,-3.3982374,"Country House Inn, 174 - 176 Withycombe Village Road, Exmouth, EX8 3BA"
2026-04-03,1931296,The Hart,Pub/bar/nightclub,573 Harlestone Road,Duston,Northampton,NN5 6NU,NN5 6NU,West Northamptonshire,AwaitingInspection,,FHRS,False,52.260355,-0.953488,"573 Harlestone Road, Duston, Northampton, NN5 6NU, NN5 6NU"
2026-04-03,1930943,Railway Hotel,Pub/bar/nightclub,Preston Street,Faversham,Kent,,ME13 8PE,Swale,AwaitingInspection,,FHRS,False,51.3135924,0.89087265,"Preston Street, Faversham, Kent, ME13 8PE"
2026-04-03,1930936,The Bank,Pub/bar/nightclub,44 - 45 Court Street,Faversham,Kent,,ME13 7AP,Swale,AwaitingInspection,,FHRS,False,51.3161615,0.8916711,"44 - 45 Court Street, Faversham, Kent, ME13 7AP"
2026-04-03,1930942,The Park Tavern,Pub/bar/nightclub,Park Road,Sittingbourne,Kent,,ME10 1DZ,Swale,AwaitingInspection,,FHRS,False,51.337678,0.729993,"Park Road, Sittingbourne, Kent, ME10 1DZ"
2026-04-03,1931350,The Railway Pub,Pub/bar/nightclub,The Railway,Station Road,Hinckley,Leicestershire,LE10 1AP,Hinckley and Bosworth,5,2026-03-18,FHRS,False,52.537408,-1.372315,"The Railway, Station Road, Hinckley, Leicestershire, LE10 1AP"
2026-04-03,1911973,The Red Lion,Pub/bar/nightclub,Red Lion Inn,36 Fore Street,Newlyn,Penzance,TR18 5JP,Cornwall,AwaitingInspection,,FHRS,True,50.1021496,-5.5479114,"Red Lion Inn, 36 Fore Street, Newlyn, Penzance, TR18 5JP"
2026-04-08,1932008,Sunny Bank Club,Pub/bar/nightclub,Sunnybank Club,Sunnybank Park Homes,Wenlock Bank,Lapley,ST19 9QH,South Staffordshire,5,2026-03-31,FHRS,False,52.7187119,-2.2050685,"Sunnybank Club, Sunnybank Park Homes, Wenlock Bank, Lapley, ST19 9QH"
2026-04-08,1932009,The Crown,Pub/bar/nightclub,15 High Street,Pattingham,WOLVERHAMPTON,,WV6 7BQ,South Staffordshire,5,2026-03-25,FHRS,False,52.5888432,-2.2654213,"15 High Street, Pattingham, WOLVERHAMPTON, WV6 7BQ"
2026-04-08,1931773,The Old Chestnut,Pub/bar/nightclub,The Old Chestnut Public House,12 Station Approach West,Redhill,Surrey,RH1 6HP,Reigate and Banstead,AwaitingInspection,,FHRS,False,51.2276151,-0.1715303,"The Old Chestnut Public House, 12 Station Approach West, Redhill, Surrey, RH1 6HP"
2026-04-08,1931769,Cow & Telescope Pub T/A Wide Mouth Frog Ltd,Pub/bar/nightclub,Cow & Telescope,79 Southchurch Road,Southend-on-sea,Essex,SS1 2NL,Southend-On-Sea,5,2026-03-17,FHRS,False,51.5402768,0.7148892,"Cow & Telescope, 79 Southchurch Road, Southend-on-sea, Essex, SS1 2NL"
2026-04-08,1153526,The White Horse,Pub/bar/nightclub,The Jackson Stops,Rookery Lane,Stretton,Oakham,LE15 7RA,Rutland,AwaitingInspection,,FHRS,False,,,"The Jackson Stops, Rookery Lane, Stretton, Oakham, LE15 7RA"
2026-04-08,1869432,Dacre Banks Cricket Club,Pub/bar/nightclub,Max Pullan Sports Club Dacre To Summerbridge,,,Dacre Banks,HG3 4ED,North Yorkshire,AwaitingInspection,,FHRS,False,54.0554673,-1.6962011,"Max Pullan Sports Club Dacre To Summerbridge, Dacre Banks, HG3 4ED"
2026-04-08,1869218,Grantham Arms,Pub/bar/nightclub,Grantham Arms Cut Bridge To Church Lane,,,Milby,YO51 9BW,North Yorkshire,AwaitingInspection,,FHRS,False,,,"Grantham Arms Cut Bridge To Church Lane, Milby, YO51 9BW"
2026-04-08,1931956,The Dawney Arms,Pub/bar/nightclub,The Dawnay Arms Main Street,,,Shipton By Beningbrough,YO30 1AB,North Yorkshire,AwaitingInspection,,FHRS,True,54.0211258,-1.1579995,"The Dawnay Arms Main Street, Shipton By Beningbrough, YO30 1AB"
2026-04-08,1931709,Pembroke Arms,Pub/bar/nightclub,29 Hitchin Street,Biggleswade,Beds,,SG18 8BE,Central Bedfordshire,AwaitingInspection,,FHRS,False,52.084708,-0.265636,"29 Hitchin Street, Biggleswade, Beds, SG18 8BE"
2026-04-08,1931683,The Gunmakers Arms,Pub/bar/nightclub,Trysull Road,Wolverhampton,West Midlands,,WV3 7JE,Wolverhampton,AwaitingInspection,,FHRS,False,52.575392,-2.157579,"Trysull Road, Wolverhampton, West Midlands, WV3 7JE"
2026-04-08,1931938,Cactus Cue Club,Pub/bar/nightclub,Unit 19 Tridax Business Park Honeywood Parkway,White Cliffs Business Park,Whitfield,Kent,CT16 3QX,Dover,AwaitingInspection,,FHRS,False,51.1527193,1.3059264,"Unit 19 Tridax Business Park Honeywood Parkway, White Cliffs Business Park, Whitfield, Kent, CT16 3QX"
2026-04-08,1931940,Fleur de lis Hotel LTD,Pub/bar/nightclub,4 Delf Street,,Sandwich,,CT13 9BZ,Dover,AwaitingInspection,,FHRS,False,51.2749783,1.3396299,"4 Delf Street, Sandwich, CT13 9BZ"
2026-04-08,1931657,The Bear Inn,Pub/bar/nightclub,Tostock Road,Beyton,BURY ST EDMUNDS,Suffolk,IP30 9AG,Mid Suffolk,AwaitingInspection,,FHRS,False,52.233129,0.837672,"Tostock Road, Beyton, BURY ST EDMUNDS, Suffolk, IP30 9AG"
2026-04-08,173675,Star Inn,Pub/bar/nightclub,Manor Road,Sulgrave,,,OX17 2SA,West Northamptonshire,4,2012-03-15,FHRS,False,52.1055068969727,-1.18610405921936,"Manor Road, Sulgrave, OX17 2SA"
2026-04-08,160452,The Olde Coach House,Pub/bar/nightclub,Main Street,Ashby St Ledgers,West Northamptonshire,,CV23 8UN,West Northamptonshire,5,2024-11-11,FHRS,False,,,"Main Street, Ashby St Ledgers, West Northamptonshire, CV23 8UN"
2026-04-08,728631,MULLANS BAR,Pub/bar/nightclub,48 Church Street,,Downpatrick,Down,BT30 6EJ,"Newry, Mourne and Down",5,2020-01-16,FHRS,False,54.331066,-5.716138,"48 Church Street, Downpatrick, Down, BT30 6EJ"
2026-04-08,728401,THE ANNE BOAL INN,Pub/bar/nightclub,86 Main Street,Killough,Killough,Down,BT30 7QD,"Newry, Mourne and Down",5,2020-03-03,FHRS,False,54.2549285888672,-5.64516592025757,"86 Main Street, Killough, Killough, Down, BT30 7QD"
2026-04-08,1911608,The Boston and County Club Limited,Pub/bar/nightclub,,Park Gate,,Boston,PE21 6RL,Boston,AwaitingInspection,,FHRS,False,52.9801831,-0.02219015,"Park Gate, Boston, PE21 6RL"
2026-04-08,1931692,The Jailhouse,Pub/bar/nightclub,Undercroft Town Hall Maltravers Street,,Arundel,West Sussex,BN18 9AP,Arun,AwaitingInspection,,FHRS,False,50.8548403,-0.5554784,"Undercroft Town Hall Maltravers Street, Arundel, West Sussex, BN18 9AP"
2026-04-08,1931978,The London Stone,Pub/bar/nightclub,13 - 15 Victoria Street,St Albans,Hertfordshire,,AL1 3JJ,St Albans City,AwaitingInspection,,FHRS,True,51.7521573,-0.3375509,"13 - 15 Victoria Street, St Albans, Hertfordshire, AL1 3JJ"
2026-04-08,1931998,Blythe Hill Tavern,Pub/bar/nightclub,The Blythe Hotel,319 Stanstead Road,London,,SE23 1JB,Lewisham,5,2017-03-31,FHRS,False,51.4424096,-0.0338595,"The Blythe Hotel, 319 Stanstead Road, London, SE23 1JB"
2026-04-08,462910,Plough Inn,Pub/bar/nightclub,41 Holborn Hill,Millom,Cumbria,LA18 5BH,,Cumberland,AwaitingInspection,,FHRS,True,54.2117726,-3.2748713,"41 Holborn Hill, Millom, Cumbria, LA18 5BH"
2026-04-08,1931797,Hux at the Holden,Pub/bar/nightclub,The Charles Holden 198 High Street Collier's Wood,,Colliers Wood,Merton,SW19 2BH,Merton,AwaitingInspection,,FHRS,False,51.4179714,-0.1787114,"The Charles Holden 198 High Street Collier's Wood, Colliers Wood, Merton, SW19 2BH"
2026-04-09,110554,Bull & Sun,Pub/bar/nightclub,11 Baylegate,Bridlington,East Riding Of Yorkshire,,YO16 7JT,East Riding of Yorkshire,AwaitingInspection,,FHRS,False,54.093183,-0.204201,"11 Baylegate, Bridlington, East Riding Of Yorkshire, YO16 7JT"
2026-04-09,1932264,The Bull Inn,Pub/bar/nightclub,The Bull Reading Road,Streatley,Reading,West Berkshire,RG8 9JJ,West Berkshire,AwaitingInspection,,FHRS,False,51.5224637,-1.1489954,"The Bull Reading Road, Streatley, Reading, West Berkshire, RG8 9JJ"
2026-04-09,1932050,The Four Chesnuts,Pub/bar/nightclub,234 Oving Road,Chichester,West Sussex,,PO19 7EJ,Chichester,5,2026-03-19,FHRS,False,50.83671,-0.763787,"234 Oving Road, Chichester, West Sussex, PO19 7EJ"
2026-04-09,1932049,Kerry O' Shea's,Pub/bar/nightclub,Unit 3,305 Whitley Road,Whitley Bay,Tyne And Wear,NE26 2HU,North Tyneside,5,2026-03-25,FHRS,False,55.0417091,-1.4469662,"Unit 3, 305 Whitley Road, Whitley Bay, Tyne And Wear, NE26 2HU"
2026-04-09,327204,Ticket Office Bar,Pub/bar/nightclub,Unit 11 Station Plaza,Station Road,Ilkley,,LS29 8HF,Bradford,AwaitingInspection,,FHRS,False,53.924682,-1.822348,"Unit 11 Station Plaza, Station Road, Ilkley, LS29 8HF"
2026-04-09,1932219,Bathams Brewery,Pub/bar/nightclub,10 Delph Road,Brierley Hill,,,DY5 2TN,Dudley,5,2026-02-25,FHRS,False,52.474627,-2.115819,"10 Delph Road, Brierley Hill, DY5 2TN"
2026-04-09,1932217,The Ivy House Club,Pub/bar/nightclub,57 Ivyhouse Lane,Coseley,Bilston,,WV14 9JH,Dudley,4,2026-01-19,FHRS,False,52.543477,-2.089238,"57 Ivyhouse Lane, Coseley, Bilston, WV14 9JH"
2026-04-09,1932211,The Starving Rascal,Pub/bar/nightclub,1 Brettell Lane,Brierley Hill,,,DY8 4BN,Dudley,AwaitingInspection,,FHRS,False,52.4726588258606,-2.14465082868672,"1 Brettell Lane, Brierley Hill, DY8 4BN"
2026-04-09,1932216,The Widders Pub,Pub/bar/nightclub,The Widders,Barrack Lane,Cradley,Halesowen,B63 2UX,Dudley,4,2015-01-06,FHRS,False,,,"The Widders, Barrack Lane, Cradley, Halesowen, B63 2UX"
2026-04-09,1929110,Bottle & Jug Dept,Pub/bar/nightclub,21 South Farm Road,,Worthing,West Sussex,BN14 7AD,Worthing,5,2026-03-24,FHRS,False,50.8188344,-0.378808,"21 South Farm Road, Worthing, West Sussex, BN14 7AD"
2026-04-09,104261,Squires,Pub/bar/nightclub,,47-49 Church Street,Lancaster,Lancashire,LA1 1LP,Lancaster City,AwaitingInspection,,FHRS,True,54.049459,-2.800202,"47-49 Church Street, Lancaster, Lancashire, LA1 1LP"
2026-04-09,1932096,Holly Bush,Pub/bar/nightclub,Holly Bush,Hollybush Inn,Llay Road Cefn-Y-Bedd,Flintshire,LL12 9UD,Flintshire,AwaitingInspection,,FHRS,False,,,"Holly Bush, Hollybush Inn, Llay Road Cefn-Y-Bedd, Flintshire, LL12 9UD"
2026-04-09,1932096,Holly Bush,Pub/bar/nightclub,Holly Bush,Hollybush Inn,Llay Road Cefn-Y-Bedd,Flintshire,LL12 9UD,Sir y Fflint,AwaitingInspection,,FHRS,False,,,"Holly Bush, Hollybush Inn, Llay Road Cefn-Y-Bedd, Flintshire, LL12 9UD"
2026-04-09,1932109,Hare and Hounds,Pub/bar/nightclub,The Hare And Hounds Holyhead Road,Oakengates,Telford,Shropshire,TF2 6DJ,Telford and Wrekin Council,AwaitingInspection,,FHRS,False,52.6907083,-2.4493215,"The Hare And Hounds Holyhead Road, Oakengates, Telford, Shropshire, TF2 6DJ"
2026-04-10,1932369,All Nations Community Centre,Pub/bar/nightclub,Chase Lane,Eastern Avenue,Gloucester,,GL4 6PH,Gloucester City,AwaitingInspection,,FHRS,False,51.8554128,-2.2249127,"Chase Lane, Eastern Avenue, Gloucester, GL4 6PH"
2026-04-10,1932605,Food In The Shoes,Pub/bar/nightclub,The Three Horse Shoes,Duton Hill,Tilty,Dunmow,CM6 2DX,Uttlesford,AwaitingInspection,,FHRS,False,51.9170007,0.3319848,"The Three Horse Shoes, Duton Hill, Tilty, Dunmow, CM6 2DX"
2026-04-10,1932608,Kings Arms Hotel,Pub/bar/nightclub,1 Station Road,Stansted,Essex,,CM24 8BE,Uttlesford,AwaitingInspection,,FHRS,False,51.9016489,0.1994231,"1 Station Road, Stansted, Essex, CM24 8BE"
2026-04-10,1932612,The Chequers,Pub/bar/nightclub,The Chequers Inn,Braintree Road,Felsted,Dunmow,CM6 3DL,Uttlesford,AwaitingInspection,,FHRS,False,51.857352,0.436342,"The Chequers Inn, Braintree Road, Felsted, Dunmow, CM6 3DL"
2026-04-10,1932388,Karmaa Kitchens Limited,Pub/bar/nightclub,Horse & Chains,High Street,Bushey,Hertfordshire,WD23 1BL,Hertsmere,AwaitingInspection,,FHRS,False,,,"Horse & Chains, High Street, Bushey, Hertfordshire, WD23 1BL"
2026-04-10,1932602,Plum Pudding,Pub/bar/nightclub,Rugeley Road,Armitage,Rugeley,Staffordshire,WS15 4AZ,Lichfield,AwaitingInspection,,FHRS,False,52.7452163696289,-1.88865995407104,"Rugeley Road, Armitage, Rugeley, Staffordshire, WS15 4AZ"
2026-04-10,1932400,Behind The Wall,Pub/bar/nightclub,,14 Melville Street,,Falkirk,FK1 1HZ,Falkirk,Pass,2026-04-01,FHIS,False,56.001149,-3.785447,"14 Melville Street, Falkirk, FK1 1HZ"
2026-04-10,1932476,The Broken Drum,Pub/bar/nightclub,308 Westwood Lane,Sidcup,Kent,,DA15 9PT,Bexley,AwaitingInspection,,FHRS,False,51.45174,0.103178,"308 Westwood Lane, Sidcup, Kent, DA15 9PT"
2026-04-10,1931278,The Red Lion,Pub/bar/nightclub,4 St Anns Road,Malvern,Worcestershire,,WR14 4RG,Malvern Hills,AwaitingInspection,,FHRS,False,52.1121942,-2.3306708,"4 St Anns Road, Malvern, Worcestershire, WR14 4RG"
2026-04-10,1927494,Calley Arms,Pub/bar/nightclub,The Calley Arms,Hodson Lane,Hodson,Swindon,SN4 0QG,Swindon,AwaitingInspection,,FHRS,False,51.5229110717773,-1.75150799751282,"The Calley Arms, Hodson Lane, Hodson, Swindon, SN4 0QG"
2026-04-10,1932508,Drunken Duck,Pub/bar/nightclub,86 Chapel Street,Gortalowry,Cookstown,Co. Tyrone,BT80 8QD,Mid Ulster,AwaitingInspection,,FHRS,False,54.641134,-6.74385,"86 Chapel Street, Gortalowry, Cookstown, Co. Tyrone, BT80 8QD"
2026-04-10,1843360,Cowie Tavern,Pub/bar/nightclub,22 Main Street,Cowie,,,FK7 7BL,Stirling,Pass,2025-12-12,FHIS,False,56.0818057,-3.8694378,"22 Main Street, Cowie, FK7 7BL"
2026-04-10,1928842,Laros – Greek Street Food (Sale),Pub/bar/nightclub,Little B,195 Marsland Road,Sale,,M33 3ND,Trafford,AwaitingInspection,,FHRS,False,53.4173416,-2.3204691,"Little B, 195 Marsland Road, Sale, M33 3ND"
2026-04-10,1932491,Park Avenue Food Court,Pub/bar/nightclub,Forecourt,21 The Avenue,Minehead,Somerset,TA24 5AY,Somerset,AwaitingInspection,,FHRS,True,51.2066412,-3.474545,"Forecourt, 21 The Avenue, Minehead, Somerset, TA24 5AY"
2026-04-10,1932593,The Activity Companions Social Club,Pub/bar/nightclub,Ile Youth and Community Centre,Frog Lane,Ilminster,Somerset,TA19 0AP,Somerset,AwaitingInspection,,FHRS,False,50.9265867,-2.9073591,"Ile Youth and Community Centre, Frog Lane, Ilminster, Somerset, TA19 0AP"
2026-04-10,1932493,The Carew Arms,Pub/bar/nightclub,Crowcombe Road,Crowcombe,Bishops Lydeard,Somerset,TA4 4AD,Somerset,AwaitingInspection,,FHRS,True,51.1248127,-3.2307184,"Crowcombe Road, Crowcombe, Bishops Lydeard, Somerset, TA4 4AD"
2026-04-10,1932492,Woods bar and Restaurant,Pub/bar/nightclub,Woods Bar & Restaurant Woods Bar & Resturant,4 Bank Square,Dulverton,Somerset,TA22 9BU,Somerset,5,2026-02-19,FHRS,False,,,"Woods Bar & Restaurant Woods Bar & Resturant, 4 Bank Square, Dulverton, Somerset, TA22 9BU"
2026-04-10,1932416,Rebel's,Pub/bar/nightclub,Station Approach,Unit 1,Station Approach,East Boldon,NE36 0AB,South Tyneside,AwaitingInspection,,FHRS,False,54.9475243,-1.4198163,"Station Approach, Unit 1, Station Approach, East Boldon, NE36 0AB"
2026-04-10,8908,The Queens Arms,Pub/bar/nightclub,Queens Arms,Bunnian Place,Basingstoke,Hampshire,RG21 7JE,Basingstoke and Deane,5,2026-03-26,FHRS,False,51.268184,-1.086132,"Queens Arms, Bunnian Place, Basingstoke, Hampshire, RG21 7JE"
2026-04-11,1933229,Boston Bar,Pub/bar/nightclub,104 Hanover Street,Edinburgh,,,EH2 1DR,Edinburgh (City of),Awaiting Inspection,,FHIS,False,55.954486,-3.198273,"104 Hanover Street, Edinburgh, EH2 1DR"
2026-04-11,1933227,O'Neills Edinburgh,Pub/bar/nightclub,9 Hunter Square,Edinburgh,,,,Edinburgh (City of),Pass,2026-03-25,FHIS,False,55.9495535,-3.1875817,"9 Hunter Square, Edinburgh"
2026-04-11,1933127,Griffin Inn,Pub/bar/nightclub,Griffin Inn,Church Lane,Eccleston,,WA10 5AD,St Helens,AwaitingInspection,,FHRS,False,53.4529016,-2.7783377,"Griffin Inn, Church Lane, Eccleston, WA10 5AD"
2026-04-11,1932926,Bayhorse Bar & Kitchen,Pub/bar/nightclub,2 Polepark Road,Dundee,,,DD1 5QS,Dundee City,Awaiting Inspection,2026-04-10,FHIS,False,56.462519,-2.990755,"2 Polepark Road, Dundee, DD1 5QS"
2026-04-11,1933216,Sportsmans Rest,Pub/bar/nightclub,Main Road,Porchfield,Isle Of Wight,,PO30 4LP,Isle of Wight,AwaitingInspection,,FHRS,False,,,"Main Road, Porchfield, Isle Of Wight, PO30 4LP"
2026-04-11,1933163,Hurstpierpoint Lawn Tennis Club,Pub/bar/nightclub,Hurstpierpoint Lawn Tennis Club,South Avenue Recreation Ground,South Avenue,Hurstpierpoint,BN6 9QA,Mid Sussex,AwaitingInspection,,FHRS,False,,,"Hurstpierpoint Lawn Tennis Club, South Avenue Recreation Ground, South Avenue, Hurstpierpoint, BN6 9QA"
2026-04-11,1550818,Falmouth House masonic Hall Ltd,Pub/bar/nightclub,Falmouth House 81 Hexham Road,,Newcastle Upon Tyne,,NE15 9DX,Newcastle Upon Tyne,5,2026-01-08,FHRS,False,54.9957675,-1.7603661,"Falmouth House 81 Hexham Road, Newcastle Upon Tyne, NE15 9DX"
2026-04-11,1581129,MERKUR Slots,Pub/bar/nightclub,44 - 48 Clayton Street,,Newcastle Upon Tyne,,NE1 5PF,Newcastle Upon Tyne,5,2024-01-09,FHRS,False,54.9717587,-1.6172139,"44 - 48 Clayton Street, Newcastle Upon Tyne, NE1 5PF"
2026-04-11,1933138,The Wobbly Duck,Pub/bar/nightclub,Basement 4 Eldon Square,,Newcastle Upon Tyne,,NE1 7JG,Newcastle Upon Tyne,AwaitingInspection,,FHRS,False,54.9744638,-1.6144546,"Basement 4 Eldon Square, Newcastle Upon Tyne, NE1 7JG"
2026-04-11,1933087,Rose & Crown,Pub/bar/nightclub,Rose And Crown 8 Church Street,,Ludlow,Shropshire,SY8 1AP,Shropshire,AwaitingInspection,,FHRS,False,52.3679075,-2.7197631,"Rose And Crown 8 Church Street, Ludlow, Shropshire, SY8 1AP"
2026-04-11,1932869,Oxygen,Pub/bar/nightclub,24a Dryden Street,Leicester,,,LE1 3QE,Leicester City,Exempt,,FHRS,False,52.6395029,-1.1285356,"24a Dryden Street, Leicester, LE1 3QE"
2026-04-11,1932746,The Railway Mirfield,Pub/bar/nightclub,The Railway,212 Huddersfield Road,Mirfield,,WF14 9PX,Kirklees,5,2026-03-30,FHRS,False,53.6757516,-1.6978754,"The Railway, 212 Huddersfield Road, Mirfield, WF14 9PX"
2026-04-11,1932743,The Rising Sun,Pub/bar/nightclub,162 Penistone Road,Shelley,Huddersfield,,HD8 8JB,Kirklees,AwaitingInspection,,FHRS,True,53.594665,-1.702621,"162 Penistone Road, Shelley, Huddersfield, HD8 8JB"
2026-04-11,1904557,The Croft,Pub/bar/nightclub,The Croft Inn,Hatt,Saltash,Cornwall,PL12 6PJ,Cornwall,AwaitingInspection,,FHRS,True,50.4326024,-4.2564179,"The Croft Inn, Hatt, Saltash, Cornwall, PL12 6PJ"
2026-04-11,1933175,The Blacksmiths Arms,Pub/bar/nightclub,The Blacksmiths Arms The Street,,Offham,,BN7 3QD,Lewes,AwaitingInspection,,FHRS,True,,,"The Blacksmiths Arms The Street, Offham, BN7 3QD"
2026-04-11,1932901,Rob Finch Catering,Pub/bar/nightclub,Dinsdale Golf Club,Neasham Road,Brass Castle,Middleton St George,DL2 1DW,Darlington,AwaitingInspection,,FHRS,False,54.5003974,-1.4841538,"Dinsdale Golf Club, Neasham Road, Brass Castle, Middleton St George, DL2 1DW"
2026-04-11,1924103,"Rocket Room, Leicester Square",Pub/bar/nightclub,20-21 LEICESTER SQUARE,,LONDON,,WC2H 7JX,Westminster,AwaitingInspection,,FHRS,False,51.5107698,-0.1292758,"20-21 LEICESTER SQUARE, LONDON, WC2H 7JX"
2026-04-13,730982,The Sugar Loaf,Pub/bar/nightclub,2 Nottingham Road,Ab Kettleby,Melton Mowbray,,LE14 3JB,Melton,1,2025-09-09,FHRS,False,52.80647,-0.92853,"2 Nottingham Road, Ab Kettleby, Melton Mowbray, LE14 3JB"
2026-04-14,1933600,Cross Keys,Pub/bar/nightclub,Cross Keys,15 Byard Lane,,Nottingham,NG1 2GJ,Nottingham City,AwaitingInspection,,FHRS,False,52.951957,-1.146717,"Cross Keys, 15 Byard Lane, Nottingham, NG1 2GJ"
2026-04-14,1933599,Hand & Heart,Pub/bar/nightclub,,65-67 Derby Road,,Nottingham,NG1 5BA,Nottingham City,AwaitingInspection,,FHRS,False,52.955406,-1.160254,"65-67 Derby Road, Nottingham, NG1 5BA"
2026-04-14,1933602,Mssng Pieces Bar,Pub/bar/nightclub,,34b Heathcoat Street,,Nottingham,NG1 3AA,Nottingham City,AwaitingInspection,,FHRS,False,52.9548978,-1.142891,"34b Heathcoat Street, Nottingham, NG1 3AA"
2026-04-14,1933637,The Chelsfield,Pub/bar/nightclub,The Chelsfield 1 Windsor Drive,,Orpington,,BR6 6EY,Bromley,AwaitingInspection,,FHRS,False,51.3568495,0.1065674,"The Chelsfield 1 Windsor Drive, Orpington, BR6 6EY"
2026-04-14,1933308,Concept,Pub/bar/nightclub,6 The Candar,Fore Street,ILFRACOMBE,Devon,EX34 9DG,North Devon,AwaitingInspection,,FHRS,False,,,"6 The Candar, Fore Street, ILFRACOMBE, Devon, EX34 9DG"
2026-04-14,1933648,The Grasshobbler,Pub/bar/nightclub,7 High Street,,,Leyburn,DL8 5AQ,North Yorkshire,AwaitingInspection,,FHRS,False,54.3103805,-1.8305687,"7 High Street, Leyburn, DL8 5AQ"
2026-04-14,1933402,Hit King,Pub/bar/nightclub,9 Stoney Lane,London,,,E1 7BH,City of London Corporation,AwaitingInspection,,FHRS,False,51.51552,-0.077752,"9 Stoney Lane, London, E1 7BH"
2026-04-14,1933420,Heartbreakers,Pub/bar/nightclub,7 Hanover Buildings,Southampton,,,SO14 1JX,Southampton,AwaitingInspection,,FHRS,False,50.9028216,-1.4016339,"7 Hanover Buildings, Southampton, SO14 1JX"
2026-04-14,1933416,The Regents Park,Pub/bar/nightclub,35 Regents Park Road,Southampton,,,SO15 8PF,Southampton,AwaitingInspection,,FHRS,False,50.9159438,-1.4429572,"35 Regents Park Road, Southampton, SO15 8PF"
2026-04-14,554502,Ongar Youth Centre,Pub/bar/nightclub,The Gables,Ongar,Essex,,CM5 0GA,Epping Forest,5,2025-04-30,FHRS,False,51.714964,0.24705,"The Gables, Ongar, Essex, CM5 0GA"
2026-04-14,1933479,The Three Jolly Wheelers,Pub/bar/nightclub,735 Chigwell Road,Woodford Green,Chigwell,Essex,IG8 8AU,Epping Forest,AwaitingInspection,,FHRS,False,51.6092049,0.0590573,"735 Chigwell Road, Woodford Green, Chigwell, Essex, IG8 8AU"
2026-04-14,1933481,The Woodman,Pub/bar/nightclub,The Woodman Public House 155 London Road,Stanford Rivers,Ongar,Essex,CM5 9QF,Epping Forest,5,2025-06-02,FHRS,False,51.6760959,0.2131202,"The Woodman Public House 155 London Road, Stanford Rivers, Ongar, Essex, CM5 9QF"
2026-04-14,1933385,Prince Albert,Pub/bar/nightclub,The Prince Albert Public House,Railway Street,City Centre,Wolverhampton,WV1 1LG,Wolverhampton,AwaitingInspection,,FHRS,False,52.586976,-2.12298,"The Prince Albert Public House, Railway Street, City Centre, Wolverhampton, WV1 1LG"
2026-04-14,1488081,The Farmhouse At Fincham,Pub/bar/nightclub,Lynn Road,Fincham,King's Lynn,Norfolk,PE33 9HE,King's Lynn and West Norfolk,3,2026-03-04,FHRS,False,52.6307754516602,0.481842994689941,"Lynn Road, Fincham, King's Lynn, Norfolk, PE33 9HE"
2026-04-14,1933697,Castleford Sports and Social Club,Pub/bar/nightclub,1 Powell Street,Castleford,,,WF10 1EL,Wakefield,3,2026-03-13,FHRS,False,53.725097,-1.354092,"1 Powell Street, Castleford, WF10 1EL"
2026-04-14,1933700,The Angel,Pub/bar/nightclub,Wakefield Road,Ackworth,Pontefract,,WF7 7AB,Wakefield,AwaitingInspection,,FHRS,True,53.641017,-1.346861,"Wakefield Road, Ackworth, Pontefract, WF7 7AB"
2026-04-14,1933397,The Egg & Monkey,Pub/bar/nightclub,1 Silver Street,Aylesbury,Buckinghamshire,,HP20 2PT,Buckinghamshire,AwaitingInspection,,FHRS,False,51.816136,-0.813193,"1 Silver Street, Aylesbury, Buckinghamshire, HP20 2PT"
2026-04-14,1933444,Butlers of Arundel,Pub/bar/nightclub,25B Tarrant Street,,Arundel,West Sussex,BN18 9DG,Arun,AwaitingInspection,,FHRS,False,50.8541444,-0.5552016,"25B Tarrant Street, Arundel, West Sussex, BN18 9DG"
2026-04-14,1933496,BAR LOKO BRYAN,Pub/bar/nightclub,Unit 5,149 New Cross Road,London,,SE14 5DJ,Lewisham,5,2026-01-16,FHRS,False,51.47607421875,-0.0475279986858368,"Unit 5, 149 New Cross Road, London, SE14 5DJ"
2026-04-14,1933683,Bexhill Conservative Club ltd,Pub/bar/nightclub,Bexhill Conservative Association 6A Amherst Road,,Bexhill,East Sussex,TN40 1QJ,Rother,AwaitingInspection,,FHRS,False,50.8422797,0.4722686,"Bexhill Conservative Association 6A Amherst Road, Bexhill, East Sussex, TN40 1QJ"
2026-04-14,1933628,The Bull,Pub/bar/nightclub,The Bull Inn Public House,5 Tonbridge Road,Barming,Kent,ME16 9HB,Maidstone,AwaitingInspection,,FHRS,False,51.263067,0.470446,"The Bull Inn Public House, 5 Tonbridge Road, Barming, Kent, ME16 9HB"
