date_added,FHRSID,BusinessName,BusinessType,AddressLine1,AddressLine2,AddressLine3,AddressLine4,PostCode,LocalAuthorityName,RatingValue,RatingDate,SchemeType,NewRatingPending,Latitude,Longitude,AddressSingleLine
2026-04-01,608313,South Eastern Tavern,Pub/bar/nightclub,11 Margate Road,Ramsgate,Kent,,CT11 7SP,Thanet,5,2022-05-24,FHRS,False,51.339067,1.414555,"11 Margate Road, Ramsgate, Kent, CT11 7SP"
2026-04-01,242981,Spalding Golf Club,Pub/bar/nightclub,Spalding Golf Club,Spalding,Surfleet,,PE11 4EA,South Holland,Exempt,,FHRS,False,52.8397709,-0.1221131,"Spalding Golf Club, Spalding, Surfleet, PE11 4EA"
2026-04-01,1013594,Grattons Indoor Bowls Club Bar,Pub/bar/nightclub,The Grattons Indoor Bowls Club,Grattons Drive,Pound Hill,Crawley,RH10 3AG,Crawley,5,2026-03-31,FHRS,False,51.126349,-0.155005,"The Grattons Indoor Bowls Club, Grattons Drive, Pound Hill, Crawley, RH10 3AG"
2026-04-01,1930269,knockabout,Pub/bar/nightclub,26 Market Square,,Dover,,CT16 1NG,Dover,AwaitingInspection,,FHRS,False,51.1252693,1.3128398,"26 Market Square, Dover, CT16 1NG"
2026-04-01,1930270,The Plough Inn Ripple (Samanthatradingltd),Pub/bar/nightclub,Church Lane Deal,,Kent,,Ct148jh,Dover,AwaitingInspection,,FHRS,False,51.20374855,1.3634816,"Church Lane Deal, Kent, Ct148jh"
2026-04-01,1930271,The Prince Albert,Pub/bar/nightclub,Prince Albert Public House 83 Biggin Street,,Dover,Kent,CT16 1BB,Dover,5,2026-03-13,FHRS,False,51.1275163,1.3091909,"Prince Albert Public House 83 Biggin Street, Dover, Kent, CT16 1BB"
2026-04-01,1930094,Oddfellows Arms,Pub/bar/nightclub,Oddfellows Arms 1 Hartford Road,Davenham,Northwich,Cheshire,CW9 8JA,Cheshire West and Chester,AwaitingInspection,,FHRS,True,53.2355766296387,-2.51260304450989,"Oddfellows Arms 1 Hartford Road, Davenham, Northwich, Cheshire, CW9 8JA"
2026-04-01,1930082,The Deva Tap,Pub/bar/nightclub,121 Brook Street,,Chester,Cheshire,CH1 3DU,Cheshire West and Chester,AwaitingInspection,,FHRS,True,53.1966822,-2.8841447,"121 Brook Street, Chester, Cheshire, CH1 3DU"
2026-04-01,1930178,The Engine,Pub/bar/nightclub,Moor Road,Hunslet,Leeds,,LS10 2JJ,Leeds,AwaitingInspection,,FHRS,False,53.772135,-1.533015,"Moor Road, Hunslet, Leeds, LS10 2JJ"
2026-04-01,1018173,The Key Club,Pub/bar/nightclub,66 Merrion Street,Leeds,,,LS2 8LW,Leeds,AwaitingInspection,,FHRS,False,53.800948,-1.543809,"66 Merrion Street, Leeds, LS2 8LW"
2026-04-01,1930124,The Exeter,Pub/bar/nightclub,Exeter Inn,Bullen Street,Thorverton,Exeter,EX5 5NG,Mid Devon,AwaitingInspection,,FHRS,False,50.8081099,-3.5275876,"Exeter Inn, Bullen Street, Thorverton, Exeter, EX5 5NG"
2026-04-01,1929987,Vitto Kitchens,Pub/bar/nightclub,The Prince Of Wales,117 Ewell Road,Surbiton,,KT6 6AL,Kingston-Upon-Thames,AwaitingInspection,,FHRS,True,51.3896487,-0.2975555,"The Prince Of Wales, 117 Ewell Road, Surbiton, KT6 6AL"
2026-04-01,1930120,The Golden Fleece,Pub/bar/nightclub,Golden Fleece,23 Whitehall Road East,Birkenshaw,Bradford,BD11 2EQ,Kirklees,AwaitingInspection,,FHRS,False,53.7475941,-1.6909163,"Golden Fleece, 23 Whitehall Road East, Birkenshaw, Bradford, BD11 2EQ"
2026-04-01,1930118,Travellers Rest Brockholes,Pub/bar/nightclub,Travellers Rest,88 New Mill Road,Brockholes,Holmfirth,HD9 7AZ,Kirklees,AwaitingInspection,,FHRS,False,53.599843,-1.778758,"Travellers Rest, 88 New Mill Road, Brockholes, Holmfirth, HD9 7AZ"
2026-04-01,1930115,White Cross Inn,Pub/bar/nightclub,2 Bradley Road,Bradley,Huddersfield,,HD2 1XD,Kirklees,5,2026-03-17,FHRS,False,53.680751,-1.739728,"2 Bradley Road, Bradley, Huddersfield, HD2 1XD"
2026-04-01,1930201,Black  rabbit,Pub/bar/nightclub,10 ASHFIELD TERRACE,,CHESTER-LE-STREET,,DH3 3PD,Durham,AwaitingInspection,,FHRS,False,54.8516542,-1.57295,"10 ASHFIELD TERRACE, CHESTER-LE-STREET, DH3 3PD"
2026-04-01,304299,Kennedy's Bar,Pub/bar/nightclub,37-38 FORE BONDGATE,,BISHOP AUCKLAND,,DL14 7PE,Durham,AwaitingInspection,,FHRS,False,54.6652363,-1.6773982,"37-38 FORE BONDGATE, BISHOP AUCKLAND, DL14 7PE"
2026-04-01,1930207,Queens head,Pub/bar/nightclub,2 SHERBURN ROAD,,DURHAM,,DH1 2JR,Durham,5,2026-03-06,FHRS,False,54.7788749,-1.5558821,"2 SHERBURN ROAD, DURHAM, DH1 2JR"
2026-04-01,1930213,Raby Arms,Pub/bar/nightclub,17 MARKET PLACE,,BARNARD CASTLE,,DL12 8NF,Durham,AwaitingInspection,,FHRS,False,54.5427561,-1.9233557,"17 MARKET PLACE, BARNARD CASTLE, DL12 8NF"
2026-04-01,1930236,The Red Lion,Pub/bar/nightclub,The Red Lion  Plawsworth,,Durham,United Kingdom,DH2 3NL,Durham,AwaitingInspection,,FHRS,True,,,"The Red Lion  Plawsworth, Durham, United Kingdom, DH2 3NL"
2026-04-01,1930361,The Bell,Pub/bar/nightclub,4 High Street,Standon,Hertfordshire,,SG11 1LA,East Hertfordshire,AwaitingInspection,,FHRS,False,51.883627,0.0273489,"4 High Street, Standon, Hertfordshire, SG11 1LA"
2026-04-01,1929913,Sir Loin Of Beef,Pub/bar/nightclub,152 Highland Road,Southsea,,,PO4 9NH,Portsmouth,AwaitingInspection,,FHRS,True,50.7864570617676,-1.05864095687866,"152 Highland Road, Southsea, PO4 9NH"
2026-04-01,1903703,King William,Pub/bar/nightclub,King William Iv,54 Combe Road,Combe Down,Bath,BA2 5HY,Bath and North East Somerset,5,2026-03-26,FHRS,False,51.359101,-2.350265,"King William Iv, 54 Combe Road, Combe Down, Bath, BA2 5HY"
2026-04-01,372559,The Sutton Arms,Pub/bar/nightclub,14-16 Station Lane,Hornchurch,,,RM12 6NJ,Havering,5,2026-03-13,FHRS,False,51.561287,0.220507,"14-16 Station Lane, Hornchurch, RM12 6NJ"
2026-04-01,1929954,Tigermilk,Pub/bar/nightclub,,17-19 Derrys Cross,Plymouth,,PL1 2SW,Plymouth City,AwaitingInspection,,FHRS,True,50.369383,-4.14603,"17-19 Derrys Cross, Plymouth, PL1 2SW"
2026-04-01,1930365,Cherry Tree,Pub/bar/nightclub,Cherry Tree Inn,Church Street,Horbury,Wakefield,WF4 6LT,Wakefield,AwaitingInspection,,FHRS,False,53.6607704162598,-1.55429601669312,"Cherry Tree Inn, Church Street, Horbury, Wakefield, WF4 6LT"
2026-04-01,553607,The Horn & Horseshoes,Pub/bar/nightclub,Horns And Horseshoes Foster Street,Harlow,North Weald Bassett,Essex,CM17 9HX,Epping Forest,5,2025-10-14,FHRS,False,,,"Horns And Horseshoes Foster Street, Harlow, North Weald Bassett, Essex, CM17 9HX"
2026-04-01,554346,The Nags Head,Pub/bar/nightclub,The Dog and Pickle Church Road,Moreton,Ongar,Essex,CM5 0HZ,Epping Forest,5,2024-09-19,FHRS,False,,,"The Dog and Pickle Church Road, Moreton, Ongar, Essex, CM5 0HZ"
2026-04-01,554494,Waltham Holy Cross Conservative Club Ltd,Pub/bar/nightclub,Waltham Holy Cross Conservative Club,35 Honey Lane,Waltham Abbey,Essex,EN9 3AS,Epping Forest,5,2025-03-07,FHRS,False,51.6861159,0.0120982,"Waltham Holy Cross Conservative Club, 35 Honey Lane, Waltham Abbey, Essex, EN9 3AS"
2026-04-01,554350,West Essex Golf Club Ltd,Pub/bar/nightclub,West Essex Golf Club Bury Road,London,Waltham Abbey,Essex,E4 7QL,Epping Forest,5,2024-01-23,FHRS,False,,,"West Essex Golf Club Bury Road, London, Waltham Abbey, Essex, E4 7QL"
2026-04-01,554446,Woodbine,Pub/bar/nightclub,The Woodbine PH,Honey Lane,Waltham Abbey,Essex,EN9 3QT,Epping Forest,2,2025-09-11,FHRS,False,51.6786155700684,0.0424159988760948,"The Woodbine PH, Honey Lane, Waltham Abbey, Essex, EN9 3QT"
2026-04-02,65183,Royal British Legion Social Club,Pub/bar/nightclub,,2 High Street,Turriff,Aberdeenshire,AB53 4DS,Aberdeenshire,Pass,2019-01-30,FHIS,False,57.537274,-2.46153,"2 High Street, Turriff, Aberdeenshire, AB53 4DS"
2026-04-02,236698,Gosforth Golf Club,Pub/bar/nightclub,Gosforth Golf Club Broadway East,Gosforth,Newcastle Upon Tyne,,NE3 5EU,Newcastle Upon Tyne,5,2024-10-31,FHRS,False,55.0176438,-1.6147925,"Gosforth Golf Club Broadway East, Gosforth, Newcastle Upon Tyne, NE3 5EU"
2026-04-02,235918,High Gosforth Park Golf Club,Pub/bar/nightclub,Parklands Golf Club High Gosforth Park,Gosforth,Newcastle Upon Tyne,,NE3 5HT,Newcastle Upon Tyne,5,2024-09-25,FHRS,False,55.0372537,-1.6097379,"Parklands Golf Club High Gosforth Park, Gosforth, Newcastle Upon Tyne, NE3 5HT"
2026-04-02,670274,NCJ Juve Lounge,Pub/bar/nightclub,Training Ground Offices Newcastle Football Centre Gibside Gardens,,Newcastle Upon Tyne,,NE15 7PP,Newcastle Upon Tyne,5,2024-10-29,FHRS,False,54.9764783,-1.6800996,"Training Ground Offices Newcastle Football Centre Gibside Gardens, Newcastle Upon Tyne, NE15 7PP"
2026-04-02,1104676,Newcastle Blue Star,Pub/bar/nightclub,Scotswood Sports And Social Centre 378 Denton Road,,Newcastle Upon Tyne,,NE15 7HB,Newcastle Upon Tyne,5,2025-12-13,FHRS,False,,,"Scotswood Sports And Social Centre 378 Denton Road, Newcastle Upon Tyne, NE15 7HB"
2026-04-02,1384687,Newcastle Theatre Royal Trust LTD,Pub/bar/nightclub,Theatre Royal 100 Grey Street,,Newcastle Upon Tyne,,NE1 6BR,Newcastle Upon Tyne,5,2026-03-12,FHRS,False,54.9727128,-1.6120342,"Theatre Royal 100 Grey Street, Newcastle Upon Tyne, NE1 6BR"
2026-04-02,1157993,Newcastle United Golf Club,Pub/bar/nightclub,Newcastle United Golf Club Ponteland Road,,Newcastle Upon Tyne,,NE5 3JW,Newcastle Upon Tyne,5,2025-12-13,FHRS,False,,,"Newcastle United Golf Club Ponteland Road, Newcastle Upon Tyne, NE5 3JW"
2026-04-02,236773,Northern Football Club,Pub/bar/nightclub,Northern Football Club Mccracken Park Great North Road,Gosforth,Newcastle Upon Tyne,,NE3 2DT,Newcastle Upon Tyne,5,2025-01-15,FHRS,False,55.0238545,-1.6209268,"Northern Football Club Mccracken Park Great North Road, Gosforth, Newcastle Upon Tyne, NE3 2DT"
2026-04-02,1930740,PILGRIM,Pub/bar/nightclub,54 - 56 Pilgrim Street,,Newcastle Upon Tyne,,NE1 6SF,Newcastle Upon Tyne,AwaitingInspection,,FHRS,False,54.9724758,-1.6109742,"54 - 56 Pilgrim Street, Newcastle Upon Tyne, NE1 6SF"
2026-04-02,1930729,Revolution,Pub/bar/nightclub,38 Collingwood Street,,Newcastle Upon Tyne,,NE1 1JF,Newcastle Upon Tyne,AwaitingInspection,,FHRS,False,54.9699052,-1.613623,"38 Collingwood Street, Newcastle Upon Tyne, NE1 1JF"
2026-04-02,237184,The Newcastle Greyhound Stadium,Pub/bar/nightclub,Brough Park Greyhound Stadium Fossway,,Newcastle Upon Tyne,,NE6 2XJ,Newcastle Upon Tyne,5,2024-12-04,FHRS,False,,,"Brough Park Greyhound Stadium Fossway, Newcastle Upon Tyne, NE6 2XJ"
2026-04-02,1111181,Westerhope Golf Club,Pub/bar/nightclub,Westerhope Golf Club Stamfordham Road,Westerhope,Newcastle Upon Tyne,,NE5 1PP,Newcastle Upon Tyne,5,2024-11-06,FHRS,False,55.005416,-1.7021502,"Westerhope Golf Club Stamfordham Road, Westerhope, Newcastle Upon Tyne, NE5 1PP"
2026-04-02,1930830,The Last Drop Inn,Pub/bar/nightclub,279 Eltham High Street,,Eltham,Greenwich,SE9 1TY,Greenwich,AwaitingInspection,,FHRS,False,51.4510552,0.063793,"279 Eltham High Street, Eltham, Greenwich, SE9 1TY"
2026-04-02,1930824,The Vanbrugh,Pub/bar/nightclub,The Vanbrugh Tavern 91 Colomb Street,,Greenwich,,SE10 9EZ,Greenwich,AwaitingInspection,,FHRS,False,51.4834106,0.0079148,"The Vanbrugh Tavern 91 Colomb Street, Greenwich, SE10 9EZ"
2026-04-02,1930404,The Red Lion,Pub/bar/nightclub,Red Lion 16 Chapel Road,,Breachwood Green,Hertfordshire,SG4 8NU,North Hertfordshire,AwaitingInspection,,FHRS,False,51.885464,-0.329897,"Red Lion 16 Chapel Road, Breachwood Green, Hertfordshire, SG4 8NU"
2026-04-02,1930416,WeBrew Kingston,Pub/bar/nightclub,5 Ram Passage,Kingston Upon Thames,,,KT1 1HH,Kingston-Upon-Thames,AwaitingInspection,,FHRS,False,51.4084384,-0.3083639,"5 Ram Passage, Kingston Upon Thames, KT1 1HH"
2026-04-02,1930563,PAM'S BAR AND NIGHTCLUB,Pub/bar/nightclub,38-40 High Street,Congleton,,Cheshire East,CW12 1BD,Cheshire East,AwaitingInspection,,FHRS,False,53.1627093,-2.21191,"38-40 High Street, Congleton, Cheshire East, CW12 1BD"
2026-04-02,328638,Thirteen,Pub/bar/nightclub,,13 Market Place,,Kendal,LA9 4TP,Westmorland and Furness,AwaitingInspection,,FHRS,False,54.328348,-2.746577,"13 Market Place, Kendal, LA9 4TP"
2026-04-02,1930661,The Hare & Hounds,Pub/bar/nightclub,Hare And Hounds Hotel Bath Road,Speen,Newbury,West Berkshire,RG14 1QY,West Berkshire,AwaitingInspection,,FHRS,False,,,"Hare And Hounds Hotel Bath Road, Speen, Newbury, West Berkshire, RG14 1QY"
2026-04-02,1930663,The Old Boot Inn,Pub/bar/nightclub,The Old Boot Inn,Stanford Dingley,Reading,West Berkshire,RG7 6LT,West Berkshire,AwaitingInspection,,FHRS,False,,,"The Old Boot Inn, Stanford Dingley, Reading, West Berkshire, RG7 6LT"
2026-04-02,1930658,The Wheelwrights Arms,Pub/bar/nightclub,The Wheelwright Arms 4 The Broadway,Lambourn,Hungerford,West Berkshire,RG17 8XY,West Berkshire,AwaitingInspection,,FHRS,False,51.509041,-1.5297836,"The Wheelwright Arms 4 The Broadway, Lambourn, Hungerford, West Berkshire, RG17 8XY"
2026-04-02,1930583,Greenman,Pub/bar/nightclub,Green Man Main Street,,Mollington,Oxfordshire,OX17 1BB,Cherwell,AwaitingInspection,,FHRS,False,52.1234921,-1.3546588,"Green Man Main Street, Mollington, Oxfordshire, OX17 1BB"
2026-04-02,1930606,Sportsters,Pub/bar/nightclub,,7 Gilmour Street,Paisley,Renfrewshire,PA1 1DD,Renfrewshire,Awaiting Inspection,2026-03-31,FHIS,False,55.846178,-4.424085,"7 Gilmour Street, Paisley, Renfrewshire, PA1 1DD"
2026-04-02,1930450,Horse & Jockey,Pub/bar/nightclub,18 Birchfield Road,Widnes,Halton,,WA8 7SU,Halton,AwaitingInspection,,FHRS,False,53.3729529,-2.7325849,"18 Birchfield Road, Widnes, Halton, WA8 7SU"
2026-04-02,1930448,The Prospect Inn,Pub/bar/nightclub,70 Weston Road,Runcorn,Halton,,WA7 4LD,Halton,AwaitingInspection,,FHRS,False,53.3240128,-2.7448376,"70 Weston Road, Runcorn, Halton, WA7 4LD"
2026-04-02,1930648,K&N Hospitality Ltd,Pub/bar/nightclub,White Hart,Stratford Road,Newbold-on-Stour,Stratford-upon-Avon,CV37 8TS,Stratford-on-Avon,AwaitingInspection,,FHRS,False,52.115735,-1.641225,"White Hart, Stratford Road, Newbold-on-Stour, Stratford-upon-Avon, CV37 8TS"
2026-04-02,1723126,Bell Inn Middleton,Pub/bar/nightclub,Bell Inn,The Street,Middleton,Saxmundham,IP17 3NN,East Suffolk,5,2024-05-23,FHRS,False,52.2550824,1.5576927,"Bell Inn, The Street, Middleton, Saxmundham, IP17 3NN"
2026-04-02,1930488,The Castle Inn,Pub/bar/nightclub,Castle Inn,Castle Street,Framlingham,Woodbridge,IP13 9BP,East Suffolk,AwaitingInspection,,FHRS,True,52.2232322,1.3459592,"Castle Inn, Castle Street, Framlingham, Woodbridge, IP13 9BP"
