date_added,FHRSID,BusinessName,BusinessType,AddressLine1,AddressLine2,AddressLine3,AddressLine4,PostCode,LocalAuthorityName,RatingValue,RatingDate,SchemeType,NewRatingPending,Latitude,Longitude,AddressSingleLine
2026-01-01,1904400,Spice Boom,Takeaway/sandwich shop,Aniseed,31A High Street,Edenbridge,Kent,TN8 5AD,Sevenoaks,AwaitingInspection,,FHRS,False,51.1975665,0.0653264,"Aniseed, 31A High Street, Edenbridge, Kent, TN8 5AD"
2026-01-01,1904409,Oh My Doh Redditch,Takeaway/sandwich shop,Unit 1,Walford Walk,Kingfisher Shopping Centre,Redditch,B97 4HJ,Redditch,AwaitingInspection,,FHRS,False,52.3050688,-1.9405936,"Unit 1, Walford Walk, Kingfisher Shopping Centre, Redditch, B97 4HJ"
2026-01-01,1904343,M1 Pizza & Grill,Takeaway/sandwich shop,20 Bedford Road,Brogborough,Bedford,,MK43 0XY,Central Bedfordshire,AwaitingInspection,,FHRS,False,52.034056,-0.598573,"20 Bedford Road, Brogborough, Bedford, MK43 0XY"
2026-01-01,1904322,Bite & Bliss,Takeaway/sandwich shop,14 Chapel Street,,Guildford,Surrey,GU1 1UL,Guildford,AwaitingInspection,,FHRS,False,,,"14 Chapel Street, Guildford, Surrey, GU1 1UL"
2026-01-01,1904363,Funky Grill,Takeaway/sandwich shop,3 Wolverhampton Road,Bloxwich,Walsall,West Midlands,WS3 2EY,Walsall,AwaitingInspection,,FHRS,False,52.618244,-2.005303,"3 Wolverhampton Road, Bloxwich, Walsall, West Midlands, WS3 2EY"
2026-01-01,1904372,Shelfield Fish Bar,Takeaway/sandwich shop,77 Lichfield Road,Shelfield,Walsall,West Midlands,WS4 1PU,Walsall,1,2025-11-22,FHRS,False,52.617155,-1.950698,"77 Lichfield Road, Shelfield, Walsall, West Midlands, WS4 1PU"
2026-01-01,1904334,Steak Pizza,Takeaway/sandwich shop,Unit 9,Clifton Parade,Bristol Avenue,Farington,PR25 4YU,South Ribble,AwaitingInspection,,FHRS,False,53.7037633,-2.6800259,"Unit 9, Clifton Parade, Bristol Avenue, Farington, PR25 4YU"
2026-01-01,1904407,Istanbul Kebab And Pizza Ltd / Chigao Pizza,Takeaway/sandwich shop,33 Worcester Road,Bromsgrove,Worcestershire,,B61 7DN,Bromsgrove,AwaitingInspection,,FHRS,False,52.332427,-2.063512,"33 Worcester Road, Bromsgrove, Worcestershire, B61 7DN"
2026-01-01,1904422,Halal Fast Food,Takeaway/sandwich shop,4 Northfield Parade,Station Road,,Hayes,UB3 4JA,Hillingdon,AwaitingInspection,,FHRS,False,51.5009968,-0.4237903,"4 Northfield Parade, Station Road, Hayes, UB3 4JA"
2026-01-01,1904399,New Jade Palace,Takeaway/sandwich shop,8 Bridge Road,Southampton,,,SO19 7GQ,Southampton,AwaitingInspection,,FHRS,False,50.901392,-1.376553,"8 Bridge Road, Southampton, SO19 7GQ"
2026-01-01,1904432,LAWIN Kitchen,Takeaway/sandwich shop,314-316 High Street,Enfield,,,EN3 4HF,Enfield,AwaitingInspection,,FHRS,False,51.6480273,-0.0467586,"314-316 High Street, Enfield, EN3 4HF"
2026-01-01,907342,Leo's Coffee Stop @platform 1,Takeaway/sandwich shop,Enfield Chase Station,Windmill Hill,ENFIELD,,EN2 7AA,Enfield,5,2019-05-30,FHRS,False,51.653259,-0.091027,"Enfield Chase Station, Windmill Hill, ENFIELD, EN2 7AA"
2026-01-01,1904441,Swahili Kob Unit B2,Takeaway/sandwich shop,Commercial Premises,Eleys Industrial Estate,Nobel Road,Edmonton,N18 3BH,Enfield,AwaitingInspection,,FHRS,False,51.6206987,-0.0435275,"Commercial Premises, Eleys Industrial Estate, Nobel Road, Edmonton, N18 3BH"
2026-01-01,1904357,Antep27 Ltd,Takeaway/sandwich shop,128 High Street,,Hungerford,West Berkshire,RG17 0DL,West Berkshire,AwaitingInspection,,FHRS,False,51.4160857,-1.5146174,"128 High Street, Hungerford, West Berkshire, RG17 0DL"
2026-01-01,1904416,Souvlaki Place,Takeaway/sandwich shop,1A Belmont Road,Wallington,,,SM6 8TE,Sutton,AwaitingInspection,,FHRS,False,51.3619824,-0.1502835,"1A Belmont Road, Wallington, SM6 8TE"
2026-01-01,1904298,Leeds Top Pizza,Takeaway/sandwich shop,244 Roundhay Road,Leeds,,,LS8 5RL,Leeds,AwaitingInspection,,FHRS,False,53.817073,-1.5164,"244 Roundhay Road, Leeds, LS8 5RL"
2026-01-01,1904310,Sweet Street Leeds,Takeaway/sandwich shop,Unit 21,Unity Business Centre,26 Roundhay Road,Leeds,LS7 1AB,Leeds,AwaitingInspection,,FHRS,False,53.8086124,-1.5320819,"Unit 21, Unity Business Centre, 26 Roundhay Road, Leeds, LS7 1AB"
2026-01-01,1904404,Punjabi Kitchen,Takeaway/sandwich shop,12 Gilbert Road,Belvedere,Kent,,DA17 5DA,Bexley,AwaitingInspection,,FHRS,False,51.491457,0.146624,"12 Gilbert Road, Belvedere, Kent, DA17 5DA"
