date_added,FHRSID,BusinessName,BusinessType,AddressLine1,AddressLine2,AddressLine3,AddressLine4,PostCode,LocalAuthorityName,RatingValue,RatingDate,SchemeType,NewRatingPending,Latitude,Longitude,AddressSingleLine
2026-01-01,1904400,Spice Boom,Takeaway/sandwich shop,Aniseed,31A High Street,Edenbridge,Kent,TN8 5AD,Sevenoaks,AwaitingInspection,,FHRS,False,51.1975665,0.0653264,"Aniseed, 31A High Street, Edenbridge, Kent, TN8 5AD"
2026-01-01,1904409,Oh My Doh Redditch,Takeaway/sandwich shop,Unit 1,Walford Walk,Kingfisher Shopping Centre,Redditch,B97 4HJ,Redditch,AwaitingInspection,,FHRS,False,52.3050688,-1.9405936,"Unit 1, Walford Walk, Kingfisher Shopping Centre, Redditch, B97 4HJ"
2026-01-01,1904343,M1 Pizza & Grill,Takeaway/sandwich shop,20 Bedford Road,Brogborough,Bedford,,MK43 0XY,Central Bedfordshire,AwaitingInspection,,FHRS,False,52.034056,-0.598573,"20 Bedford Road, Brogborough, Bedford, MK43 0XY"
2026-01-01,1904322,Bite & Bliss,Takeaway/sandwich shop,14 Chapel Street,,Guildford,Surrey,GU1 1UL,Guildford,AwaitingInspection,,FHRS,False,,,"14 Chapel Street, Guildford, Surrey, GU1 1UL"
2026-01-01,1904363,Funky Grill,Takeaway/sandwich shop,3 Wolverhampton Road,Bloxwich,Walsall,West Midlands,WS3 2EY,Walsall,AwaitingInspection,,FHRS,False,52.618244,-2.005303,"3 Wolverhampton Road, Bloxwich, Walsall, West Midlands, WS3 2EY"
2026-01-01,1904372,Shelfield Fish Bar,Takeaway/sandwich shop,77 Lichfield Road,Shelfield,Walsall,West Midlands,WS4 1PU,Walsall,1,2025-11-22,FHRS,False,52.617155,-1.950698,"77 Lichfield Road, Shelfield, Walsall, West Midlands, WS4 1PU"
2026-01-01,1904334,Steak Pizza,Takeaway/sandwich shop,Unit 9,Clifton Parade,Bristol Avenue,Farington,PR25 4YU,South Ribble,AwaitingInspection,,FHRS,False,53.7037633,-2.6800259,"Unit 9, Clifton Parade, Bristol Avenue, Farington, PR25 4YU"
2026-01-01,1904407,Istanbul Kebab And Pizza Ltd / Chigao Pizza,Takeaway/sandwich shop,33 Worcester Road,Bromsgrove,Worcestershire,,B61 7DN,Bromsgrove,AwaitingInspection,,FHRS,False,52.332427,-2.063512,"33 Worcester Road, Bromsgrove, Worcestershire, B61 7DN"
2026-01-01,1904422,Halal Fast Food,Takeaway/sandwich shop,4 Northfield Parade,Station Road,,Hayes,UB3 4JA,Hillingdon,AwaitingInspection,,FHRS,False,51.5009968,-0.4237903,"4 Northfield Parade, Station Road, Hayes, UB3 4JA"
2026-01-01,1904399,New Jade Palace,Takeaway/sandwich shop,8 Bridge Road,Southampton,,,SO19 7GQ,Southampton,AwaitingInspection,,FHRS,False,50.901392,-1.376553,"8 Bridge Road, Southampton, SO19 7GQ"
2026-01-01,1904432,LAWIN Kitchen,Takeaway/sandwich shop,314-316 High Street,Enfield,,,EN3 4HF,Enfield,AwaitingInspection,,FHRS,False,51.6480273,-0.0467586,"314-316 High Street, Enfield, EN3 4HF"
2026-01-01,907342,Leo's Coffee Stop @platform 1,Takeaway/sandwich shop,Enfield Chase Station,Windmill Hill,ENFIELD,,EN2 7AA,Enfield,5,2019-05-30,FHRS,False,51.653259,-0.091027,"Enfield Chase Station, Windmill Hill, ENFIELD, EN2 7AA"
2026-01-01,1904441,Swahili Kob Unit B2,Takeaway/sandwich shop,Commercial Premises,Eleys Industrial Estate,Nobel Road,Edmonton,N18 3BH,Enfield,AwaitingInspection,,FHRS,False,51.6206987,-0.0435275,"Commercial Premises, Eleys Industrial Estate, Nobel Road, Edmonton, N18 3BH"
2026-01-01,1904357,Antep27 Ltd,Takeaway/sandwich shop,128 High Street,,Hungerford,West Berkshire,RG17 0DL,West Berkshire,AwaitingInspection,,FHRS,False,51.4160857,-1.5146174,"128 High Street, Hungerford, West Berkshire, RG17 0DL"
2026-01-01,1904416,Souvlaki Place,Takeaway/sandwich shop,1A Belmont Road,Wallington,,,SM6 8TE,Sutton,AwaitingInspection,,FHRS,False,51.3619824,-0.1502835,"1A Belmont Road, Wallington, SM6 8TE"
2026-01-01,1904298,Leeds Top Pizza,Takeaway/sandwich shop,244 Roundhay Road,Leeds,,,LS8 5RL,Leeds,AwaitingInspection,,FHRS,False,53.817073,-1.5164,"244 Roundhay Road, Leeds, LS8 5RL"
2026-01-01,1904310,Sweet Street Leeds,Takeaway/sandwich shop,Unit 21,Unity Business Centre,26 Roundhay Road,Leeds,LS7 1AB,Leeds,AwaitingInspection,,FHRS,False,53.8086124,-1.5320819,"Unit 21, Unity Business Centre, 26 Roundhay Road, Leeds, LS7 1AB"
2026-01-01,1904404,Punjabi Kitchen,Takeaway/sandwich shop,12 Gilbert Road,Belvedere,Kent,,DA17 5DA,Bexley,AwaitingInspection,,FHRS,False,51.491457,0.146624,"12 Gilbert Road, Belvedere, Kent, DA17 5DA"
2026-01-03,1904477,Usta Pizza And Charcoal Grill,Takeaway/sandwich shop,111 High Street,Milton Regis,Sittingbourne,Kent,ME10 2AR,Swale,5,2025-12-18,FHRS,False,51.349203,0.732172,"111 High Street, Milton Regis, Sittingbourne, Kent, ME10 2AR"
2026-01-03,1904523,Grandad's Kitchen Ltd,Takeaway/sandwich shop,100 Abbey Street,Accrington,Lancashire,,BB5 1EE,Hyndburn,AwaitingInspection,,FHRS,False,53.7510411,-2.3613563,"100 Abbey Street, Accrington, Lancashire, BB5 1EE"
2026-01-03,1904520,Spice and Fire,Takeaway/sandwich shop,50 Whalley Road,Accrington,Lancashire,,BB5 1AR,Hyndburn,AwaitingInspection,,FHRS,False,53.7554251,-2.3640991,"50 Whalley Road, Accrington, Lancashire, BB5 1AR"
2026-01-03,1904543,Gupshup,Takeaway/sandwich shop,,,,,,Harrow,AwaitingInspection,,FHRS,False,,,
2026-01-03,1904542,Street Food Junction,Takeaway/sandwich shop,242A Northolt Road,Harrow,,,HA2 8DU,Harrow,AwaitingInspection,,FHRS,False,51.5646029,-0.353996,"242A Northolt Road, Harrow, HA2 8DU"
2026-01-03,1904548,Syria food,Takeaway/sandwich shop,Unit 36 South Harrow Market Northolt Road,Harrow,,,HA2 0EU,Harrow,AwaitingInspection,,FHRS,False,51.5651016,-0.3530113,"Unit 36 South Harrow Market Northolt Road, Harrow, HA2 0EU"
2026-01-03,1564135,Velo Bakery And Pizza,Takeaway/sandwich shop,London Road Garage,London Road,Thrupp,Stroud,GL5 2BN,Stroud,4,2025-11-28,FHRS,False,51.7249712,-2.1993496,"London Road Garage, London Road, Thrupp, Stroud, GL5 2BN"
2026-01-03,1904493,Papudom 4U,Takeaway/sandwich shop,39 Aldergate,,,Tamworth,B79 7DD,Tamworth,AwaitingInspection,,FHRS,False,52.634524,-1.697035,"39 Aldergate, Tamworth, B79 7DD"
2026-01-03,1401267,Andover Kebab And Pizza House,Takeaway/sandwich shop,39 London Street,Andover,Hampshire,,SP10 2NU,Test Valley,3,2024-06-28,FHRS,False,51.206365,-1.477629,"39 London Street, Andover, Hampshire, SP10 2NU"
2026-01-03,1904606,TBC,Takeaway/sandwich shop,Lansdales House,Lansdales Road,High Wycombe,Buckinghamshire,HP11 2PB,Buckinghamshire,AwaitingInspection,,FHRS,False,51.6319883,-0.7614777,"Lansdales House, Lansdales Road, High Wycombe, Buckinghamshire, HP11 2PB"
2026-01-03,1904505,My-Style,Takeaway/sandwich shop,,,,,,Reigate and Banstead,AwaitingInspection,,FHRS,False,,,
2026-01-03,1904526,D Flame & Grill,Takeaway/sandwich shop,,134 Bradshawgate,Bolton,,BL2 1AY,Bolton,AwaitingInspection,,FHRS,False,53.576344,-2.425756,"134 Bradshawgate, Bolton, BL2 1AY"
2026-01-03,1904484,Athena B Fish And Chips,Takeaway/sandwich shop,27 Station Road,Portslade,,,BN41 1GB,Brighton and Hove,AwaitingInspection,,FHRS,False,50.833752,-0.207325,"27 Station Road, Portslade, BN41 1GB"
2026-01-03,1904482,Fuel Kitchen,Takeaway/sandwich shop,2 The Parade,Valley Drive,Brighton,,BN1 5FQ,Brighton and Hove,AwaitingInspection,,FHRS,False,50.856617,-0.168782,"2 The Parade, Valley Drive, Brighton, BN1 5FQ"
2026-01-03,1904592,A1 Spice,Takeaway/sandwich shop,Unit 3 Genoa Building,20 North Street,,Barking,IG11 8AW,Barking and Dagenham,AwaitingInspection,,FHRS,False,51.5368661,0.0766505,"Unit 3 Genoa Building, 20 North Street, Barking, IG11 8AW"
2026-01-03,1904584,Punjabi Cooking Studio LTD,Takeaway/sandwich shop,,Unit 6a Barking Business Centre,,Thames Road,IG11 0JP,Barking and Dagenham,AwaitingInspection,,FHRS,False,51.5253705,0.1048944,"Unit 6a Barking Business Centre, Thames Road, IG11 0JP"
2026-01-03,1904564,Golden Sunrise,Takeaway/sandwich shop,137 Mount Road,Wallasey,Wirral,,CH45 9JS,Wirral,AwaitingInspection,,FHRS,True,53.4347047,-3.0534464,"137 Mount Road, Wallasey, Wirral, CH45 9JS"
2026-01-05,1904612,Moonhouse,Takeaway/sandwich shop,56 Woodgrange Road,Forest Gate,London,,E7 0QH,Newham,AwaitingInspection,,FHRS,False,51.548599,0.02514,"56 Woodgrange Road, Forest Gate, London, E7 0QH"
