date_added,FHRSID,BusinessName,BusinessType,AddressLine1,AddressLine2,AddressLine3,AddressLine4,PostCode,LocalAuthorityName,RatingValue,RatingDate,SchemeType,NewRatingPending,Latitude,Longitude,AddressSingleLine
2026-04-01,1929968,Coast & Curry,Takeaway/sandwich shop,,,,,,South Oxfordshire,AwaitingInspection,,FHRS,False,,,
2026-04-01,1929997,LêLê,Takeaway/sandwich shop,24 Crate Building 35 St James Street,,Walthamstow,London,E17 7FY,Waltham Forest,AwaitingInspection,,FHRS,False,51.5806007,-0.0324049,"24 Crate Building 35 St James Street, Walthamstow, London, E17 7FY"
2026-04-01,1930028,Piri Piri Grill Leyton,Takeaway/sandwich shop,Ground Floor 86 High Road Leyton,,Stratford,London,E15 2BP,Waltham Forest,AwaitingInspection,,FHRS,False,51.5532601,-0.0048475,"Ground Floor 86 High Road Leyton, Stratford, London, E15 2BP"
2026-04-01,1534976,Hatariy / Hatariy Coffee,Takeaway/sandwich shop,M3 Market Hall,Earl Street,Preston,,PR1 2LA,Preston,AwaitingInspection,,FHRS,False,53.7604912,-2.6997368,"M3 Market Hall, Earl Street, Preston, PR1 2LA"
2026-04-01,1195645,Salt and Pepper Chilli Box,Takeaway/sandwich shop,,5c Lichfield Road,Stafford,Staffordshire,ST17 4JX,Stafford,AwaitingInspection,,FHRS,True,52.8039113,-2.1148231,"5c Lichfield Road, Stafford, Staffordshire, ST17 4JX"
2026-04-01,1930063,Chaman's Rasoi,Takeaway/sandwich shop,,,,,,Ipswich,AwaitingInspection,,FHRS,False,,,
2026-04-01,1930109,Chicken World,Takeaway/sandwich shop,21 Lavender Hill,,London,Wandsworth,SW11 5QW,Wandsworth,AwaitingInspection,,FHRS,False,51.466065,-0.1517855,"21 Lavender Hill, London, Wandsworth, SW11 5QW"
2026-04-01,1930085,Chester Charcoal Hut,Takeaway/sandwich shop,62 Brook Street,,Chester,Cheshire,CH1 3DN,Cheshire West and Chester,AwaitingInspection,,FHRS,True,53.1954883,-2.8854316,"62 Brook Street, Chester, Cheshire, CH1 3DN"
2026-04-01,1930086,Mai Sushi,Takeaway/sandwich shop,22 - 28 Foregate Street,,Chester,Cheshire,CH1 1HP,Cheshire West and Chester,AwaitingInspection,,FHRS,False,53.1909791,-2.8873495,"22 - 28 Foregate Street, Chester, Cheshire, CH1 1HP"
2026-04-01,1930055,The Postling Pantry,Takeaway/sandwich shop,DOUGLAS MEWS CUCKOO LANE,,POSTLING,,CT21 4ET,Folkestone and Hythe,AwaitingInspection,,FHRS,False,51.1050598,1.0674322,"DOUGLAS MEWS CUCKOO LANE, POSTLING, CT21 4ET"
2026-04-01,1929982,The London Chip Club,Takeaway/sandwich shop,58 Villiers Road,Kingston Upon Thames,,,KT1 3BB,Kingston-Upon-Thames,AwaitingInspection,,FHRS,False,51.4029629,-0.2947203,"58 Villiers Road, Kingston Upon Thames, KT1 3BB"
2026-04-01,1930122,Xotica Badboy kebabs,Takeaway/sandwich shop,Delicious Desserts,79 Trinity Street,Huddersfield,,HD1 4DN,Kirklees,AwaitingInspection,,FHRS,False,53.6478346,-1.7908519,"Delicious Desserts, 79 Trinity Street, Huddersfield, HD1 4DN"
2026-04-01,1930037,Vesper Diner,Takeaway/sandwich shop,50 Duke Street,Chelmsford,Essex,,CM1 1JA,Chelmsford,AwaitingInspection,,FHRS,False,51.737034,0.466625,"50 Duke Street, Chelmsford, Essex, CM1 1JA"
2026-04-01,1929947,Harbour City,Takeaway/sandwich shop,42 Edinburgh Place,Cheltenham,Gloucestershire,,GL51 7SA,Cheltenham,AwaitingInspection,,FHRS,False,51.9023711,-2.1137378,"42 Edinburgh Place, Cheltenham, Gloucestershire, GL51 7SA"
2026-04-01,1929946,Syrian Kitchen,Takeaway/sandwich shop,Ripe,268 High Street,Cheltenham,Gloucestershire,GL50 3HQ,Cheltenham,AwaitingInspection,,FHRS,False,51.9025357,-2.0774589,"Ripe, 268 High Street, Cheltenham, Gloucestershire, GL50 3HQ"
2026-04-01,1929967,Mamas Kitchen,Takeaway/sandwich shop,26 Beach Road,,Littlehampton,West Sussex,BN17 5HT,Arun,AwaitingInspection,,FHRS,False,50.8084973,-0.5402306,"26 Beach Road, Littlehampton, West Sussex, BN17 5HT"
2026-04-01,1930133,Yo! To Go!,Takeaway/sandwich shop,Tesco,Fullbridge,Maldon,Essex,CM9 4LE,Maldon,5,2026-02-27,FHRS,False,51.735504,0.679316,"Tesco, Fullbridge, Maldon, Essex, CM9 4LE"
2026-04-01,129142,Chesters Chicken Oldham,Takeaway/sandwich shop,,270 Ashton Road,Oldham,,OL8 1QN,Oldham,AwaitingInspection,,FHRS,False,53.5282774,-2.1120726,"270 Ashton Road, Oldham, OL8 1QN"
2026-04-01,1929979,Stapleford Pizza Kitchen,Takeaway/sandwich shop,84 Derby Road,Stapleford,Nottinghamshire,,NG9 7AB,Broxtowe,AwaitingInspection,,FHRS,False,52.928186,-1.277901,"84 Derby Road, Stapleford, Nottinghamshire, NG9 7AB"
2026-04-01,1930281,DHILLONS GOLDEN FRY,Takeaway/sandwich shop,,5 Trafford,Allerdene,Gateshead,NE9 6NF,Gateshead,AwaitingInspection,,FHRS,False,54.921243,-1.593483,"5 Trafford, Allerdene, Gateshead, NE9 6NF"
2026-04-01,1930282,Pie & Mash Stop!,Takeaway/sandwich shop,,9 Team Valley Shopping Village,Kingsway North,Team Valley,NE11 0EN,Gateshead,AwaitingInspection,,FHRS,False,,,"9 Team Valley Shopping Village, Kingsway North, Team Valley, NE11 0EN"
2026-04-01,1930231,Flames Pizzeria and Grill,Takeaway/sandwich shop,85 PROUDFOOT DRIVE,,BISHOP AUCKLAND,,DL14 6PD,Durham,AwaitingInspection,,FHRS,False,54.645881,-1.6850043,"85 PROUDFOOT DRIVE, BISHOP AUCKLAND, DL14 6PD"
2026-04-01,304298,Indian Chef,Takeaway/sandwich shop,20 FRONT STREET,,LANCHESTER,,DH7 0ER,Durham,AwaitingInspection,,FHRS,True,54.8221822,-1.7438359,"20 FRONT STREET, LANCHESTER, DH7 0ER"
2026-04-01,1930192,Kiras place,Takeaway/sandwich shop,75 MIDDLE STREET,,BLACKHALL COLLIERY,,TS27 4ED,Durham,AwaitingInspection,,FHRS,False,54.7492076,-1.2920875,"75 MIDDLE STREET, BLACKHALL COLLIERY, TS27 4ED"
2026-04-01,1930208,Lumley Pizza,Takeaway/sandwich shop,UNIT 5A CASTLE PARADE FRONT STREET,,GREAT LUMLEY,,DH3 4JB,Durham,AwaitingInspection,,FHRS,False,54.8364921,-1.5477327,"UNIT 5A CASTLE PARADE FRONT STREET, GREAT LUMLEY, DH3 4JB"
2026-04-01,1889582,Mayflower,Takeaway/sandwich shop,,,,,,Durham,AwaitingInspection,,FHRS,False,,,
2026-04-01,1930220,Sorento Takeaway,Takeaway/sandwich shop,55 MANOR ROAD,,ST HELEN AUCKLAND,,DL14 9ER,Durham,AwaitingInspection,,FHRS,False,54.6351372,-1.7120438,"55 MANOR ROAD, ST HELEN AUCKLAND, DL14 9ER"
2026-04-01,1930189,Subway,Takeaway/sandwich shop,10 NORTH ROAD,,DURHAM,,DH1 4SH,Durham,AwaitingInspection,,FHRS,False,54.7767153,-1.5803751,"10 NORTH ROAD, DURHAM, DH1 4SH"
2026-04-01,1930156,Roasted Coffee NI,Takeaway/sandwich shop,25 Eglinton Street,Portrush,Portrush,Antrim,BT56 8DX,Causeway Coast and Glens,AwaitingInspection,,FHRS,False,55.204581,-6.652281,"25 Eglinton Street, Portrush, Portrush, Antrim, BT56 8DX"
2026-04-01,1835408,Adebola dixon,Takeaway/sandwich shop,P105 East Street Market,,East Street,,,Southwark,AwaitingInspection,,FHRS,False,,,"P105 East Street Market, East Street"
2026-04-01,1930069,Dynasty creation ltd,Takeaway/sandwich shop,Unit 20 Allard House,18,Verney Road,London,SE16 3DH,Southwark,5,2026-02-07,FHRS,False,51.4849325,-0.0600309,"Unit 20 Allard House, 18, Verney Road, London, SE16 3DH"
2026-04-01,1929915,Baked By Sweet Tooth,Takeaway/sandwich shop,Central Management Suite,Gunwharf Quays,Portsmouth,,PO1 3TZ,Portsmouth,AwaitingInspection,,FHRS,False,50.7965764,-1.1060322,"Central Management Suite, Gunwharf Quays, Portsmouth, PO1 3TZ"
2026-04-01,1929921,Buffalo,Takeaway/sandwich shop,2B Albert Road,Southsea,,,PO5 2SH,Portsmouth,AwaitingInspection,,FHRS,False,50.78759765625,-1.08203995227814,"2B Albert Road, Southsea, PO5 2SH"
2026-04-01,365169,Dbfunfoods,Takeaway/sandwich shop,,,,,,Portsmouth,5,2018-11-07,FHRS,False,,,
2026-04-01,1929908,Kens Kebabs & Speedy Pizza,Takeaway/sandwich shop,Shop,97 London Road,Portsmouth,,PO2 0BN,Portsmouth,AwaitingInspection,,FHRS,False,50.8164808,-1.0798447,"Shop, 97 London Road, Portsmouth, PO2 0BN"
2026-04-01,1929912,Kingfisher,Takeaway/sandwich shop,Shop,10 Albert Road,Southsea,,PO5 2SH,Portsmouth,AwaitingInspection,,FHRS,False,50.787512,-1.0817754,"Shop, 10 Albert Road, Southsea, PO5 2SH"
2026-04-01,1929922,Wok Express,Takeaway/sandwich shop,434 London Road,Portsmouth,,,PO2 9LD,Portsmouth,AwaitingInspection,,FHRS,False,50.8257217407227,-1.07230496406555,"434 London Road, Portsmouth, PO2 9LD"
2026-04-01,1929919,Zee's Spice Bar,Takeaway/sandwich shop,Management Suite,Cascades,Portsmouth,,PO1 4RL,Portsmouth,AwaitingInspection,,FHRS,False,50.8017231,-1.0924241,"Management Suite, Cascades, Portsmouth, PO1 4RL"
2026-04-01,1930244,Marcelo Pizza,Takeaway/sandwich shop,65 Beckett Road,Wheatley,Doncaster,,DN2 4AD,Doncaster,AwaitingInspection,,FHRS,False,53.530286,-1.122905,"65 Beckett Road, Wheatley, Doncaster, DN2 4AD"
2026-04-01,1930246,Mezza Pizza,Takeaway/sandwich shop,96A Bank Street,Mexborough,Doncaster,,S64 9LG,Doncaster,AwaitingInspection,,FHRS,False,53.493126,-1.286371,"96A Bank Street, Mexborough, Doncaster, S64 9LG"
2026-04-01,1930257,Mr Local / Sweet Panda,Takeaway/sandwich shop,15 - 17 St Davids Drive,Cusworth,Doncaster,,DN5 8NG,Doncaster,AwaitingInspection,,FHRS,True,53.5364141,-1.1703245,"15 - 17 St Davids Drive, Cusworth, Doncaster, DN5 8NG"
2026-04-01,1929944,Bonnie's Fish and Chips,Takeaway/sandwich shop,170 Borough Road,Seacombe,Wirral,Merseyside,CH44 6NJ,Wirral,4,2026-03-26,FHRS,False,53.412305,-3.024765,"170 Borough Road, Seacombe, Wirral, Merseyside, CH44 6NJ"
2026-04-01,1930392,Polish Street Food ChopChop,Takeaway/sandwich shop,,44 St Swithun's Road,Bournemouth,,BH1 3RJ,"Bournemouth, Christchurch and Poole",AwaitingInspection,,FHRS,False,50.725802,-1.861373,"44 St Swithun's Road, Bournemouth, BH1 3RJ"
2026-04-01,1930390,Zee's Spice Bar,Takeaway/sandwich shop,,600 Christchurch Road,Bournemouth,,BH1 4SX,"Bournemouth, Christchurch and Poole",AwaitingInspection,,FHRS,False,50.727274,-1.8395595,"600 Christchurch Road, Bournemouth, BH1 4SX"
2026-04-01,1929959,Pablo Master Tortilla,Takeaway/sandwich shop,,,,,,Plymouth City,AwaitingInspection,,FHRS,False,,,
2026-04-01,1930366,Balti Bazaar,Takeaway/sandwich shop,41 Bell Lane,Ackworth,Pontefract,,WF7 7JD,Wakefield,AwaitingInspection,,FHRS,False,53.642854,-1.339269,"41 Bell Lane, Ackworth, Pontefract, WF7 7JD"
2026-04-01,1930368,Castleford Chippy,Takeaway/sandwich shop,31 Beancroft Road,Castleford,,,WF10 5BW,Wakefield,AwaitingInspection,,FHRS,False,53.722563,-1.355843,"31 Beancroft Road, Castleford, WF10 5BW"
2026-04-01,1560528,Oasis Pizza Express,Takeaway/sandwich shop,16 Corn Market,Pontefract,,,WF8 1BJ,Wakefield,4,2024-10-22,FHRS,False,53.692049,-1.313876,"16 Corn Market, Pontefract, WF8 1BJ"
2026-04-01,554381,KFC Loughton,Takeaway/sandwich shop,Kentucky Fried Chicken,241 High Road,Loughton,Essex,IG10 1AD,Epping Forest,5,2025-11-07,FHRS,False,51.6477664,0.0559328,"Kentucky Fried Chicken, 241 High Road, Loughton, Essex, IG10 1AD"
2026-04-01,554371,New Ongar,Takeaway/sandwich shop,194 High Street,Ongar,Essex,,CM5 9JJ,Epping Forest,4,2025-11-19,FHRS,False,51.704636,0.245844,"194 High Street, Ongar, Essex, CM5 9JJ"
2026-04-01,1898903,Palace fish bar,Takeaway/sandwich shop,Palace Fish Bar The Palace Fish Bar,122 High Road,Loughton,Essex,IG10 4HJ,Epping Forest,5,2025-12-01,FHRS,False,51.6449719,0.0520004,"Palace Fish Bar The Palace Fish Bar, 122 High Road, Loughton, Essex, IG10 4HJ"
2026-04-02,1930761,Mak halal Coventry,Takeaway/sandwich shop,53-55 Corporation Street,,,Coventry,CV1 1GX,Coventry,AwaitingInspection,,FHRS,False,52.4094098,-1.5146058,"53-55 Corporation Street, Coventry, CV1 1GX"
2026-04-02,1909507,Cabana,Takeaway/sandwich shop,Westbourne Terrace,Westward Ho!,Devon,,EX39 1LL,Torridge,AwaitingInspection,,FHRS,False,51.042212,-4.236515,"Westbourne Terrace, Westward Ho!, Devon, EX39 1LL"
2026-04-02,1930678,MARIOS,Takeaway/sandwich shop,Marios,7 Stanhope Parade,South Shields,Tyne & Wear,NE33 4BA,South Tyneside,AwaitingInspection,,FHRS,False,54.985856,-1.4303388,"Marios, 7 Stanhope Parade, South Shields, Tyne & Wear, NE33 4BA"
2026-04-02,636803,Spice House,Takeaway/sandwich shop,9 Hollingwood Crescent,,,Chesterfield,S43 2HD,Chesterfield,AwaitingInspection,,FHRS,False,53.2646057,-1.3796654,"9 Hollingwood Crescent, Chesterfield, S43 2HD"
2026-04-02,1930746,LUV UR GRUB,Takeaway/sandwich shop,Street Record Carrfield Road,,Newcastle Upon Tyne,,,Newcastle Upon Tyne,AwaitingInspection,,FHRS,False,,,"Street Record Carrfield Road, Newcastle Upon Tyne"
2026-04-02,1930747,Selekt chicken,Takeaway/sandwich shop,7 West Road,,Newcastle Upon Tyne,,NE4 9PT,Newcastle Upon Tyne,5,2026-03-30,FHRS,False,54.9754157,-1.653096,"7 West Road, Newcastle Upon Tyne, NE4 9PT"
2026-04-02,1930424,Davies & Halpin Building Services Ltd,Takeaway/sandwich shop,City Plumbing Supplies,Trostre Road,Llanelli,Carmarthenshire,SA14 9RA,Sir Gaerfyrddin,AwaitingInspection,,FHRS,False,51.673776,-4.1419542,"City Plumbing Supplies, Trostre Road, Llanelli, Carmarthenshire, SA14 9RA"
2026-04-02,1930435,Oh My Cod,Takeaway/sandwich shop,,14d Heol Beili Glas,Llanelli,Carmarthenshire,SA14 8DS,Sir Gaerfyrddin,AwaitingInspection,,FHRS,False,51.705869,-4.1377,"14d Heol Beili Glas, Llanelli, Carmarthenshire, SA14 8DS"
2026-04-02,1930433,The Pink Whisk Bakery,Takeaway/sandwich shop,,38 Maes Y Glo,Llanelli,Carmarthenshire,SA14 9PZ,Sir Gaerfyrddin,AwaitingInspection,,FHRS,False,51.6800146,-4.1041999,"38 Maes Y Glo, Llanelli, Carmarthenshire, SA14 9PZ"
2026-04-02,1930614,Jenito’s fried chicken,Takeaway/sandwich shop,143 Montague Street,,Worthing,West Sussex,BN11 3BX,Worthing,AwaitingInspection,,FHRS,False,50.8098701,-0.3765447,"143 Montague Street, Worthing, West Sussex, BN11 3BX"
2026-04-02,1930610,MR INDIA,Takeaway/sandwich shop,Shop 109 South Farm Road,,Worthing,West Sussex,BN14 7AX,Worthing,AwaitingInspection,,FHRS,False,50.8241537,-0.3799248,"Shop 109 South Farm Road, Worthing, West Sussex, BN14 7AX"
2026-04-02,1930784,Tikka Tacos @Indigo Xpress,Takeaway/sandwich shop,,,,,,Solihull,AwaitingInspection,,FHRS,False,,,
2026-04-02,1901483,"Colchester Takeaway, Mighty Chicken, Metro",Takeaway/sandwich shop,Colchester Takeaway,31 St Botolphs Street,Colchester,Essex,CO2 7EA,Colchester,4,2026-02-03,FHRS,False,51.8869719,0.9035753,"Colchester Takeaway, 31 St Botolphs Street, Colchester, Essex, CO2 7EA"
2026-04-02,1930654,Yard house,Takeaway/sandwich shop,,,,,,Colchester,AwaitingInspection,,FHRS,False,,,
2026-04-02,1840130,Baltic Cafe,Takeaway/sandwich shop,Anderton Street,Ince,,,WN2 2BG,Wigan,4,2025-09-12,FHRS,False,53.5428034,-2.6085127,"Anderton Street, Ince, WN2 2BG"
2026-04-02,1930456,Hampton Charcoal Grill,Takeaway/sandwich shop,6 Hampton Court Parade,East Molesey,Surrey,,KT8 9HB,Elmbridge,AwaitingInspection,,FHRS,True,51.4017913,-0.3435158,"6 Hampton Court Parade, East Molesey, Surrey, KT8 9HB"
2026-04-02,1930758,Beech Tree Fish Bar,Takeaway/sandwich shop,Shop Unit,39 Bedwlwyn Road,Ystrad Mynach,Hengoed,CF82 7AA,Caerphilly,AwaitingInspection,,FHRS,False,,,"Shop Unit, 39 Bedwlwyn Road, Ystrad Mynach, Hengoed, CF82 7AA"
2026-04-02,1930799,64 Golden Aroma,Takeaway/sandwich shop,,18 Milbank Terrace,Redcar,,TS10 1ED,Redcar and Cleveland,AwaitingInspection,,FHRS,False,54.618074,-1.069356,"18 Milbank Terrace, Redcar, TS10 1ED"
2026-04-02,1930797,Cluck & Crunch's,Takeaway/sandwich shop,,24 Westgate,Guisborough,,TS14 6BA,Redcar and Cleveland,AwaitingInspection,,FHRS,False,54.5355651,-1.0531359,"24 Westgate, Guisborough, TS14 6BA"
2026-04-02,1930807,FedUp Community CIC,Takeaway/sandwich shop,Unit D,New Lodge Industrial Estate,South Boundary Road,Knowsley Industrial Park,L33 7SF,Knowsley,AwaitingInspection,,FHRS,False,53.4745972,-2.8593857,"Unit D, New Lodge Industrial Estate, South Boundary Road, Knowsley Industrial Park, L33 7SF"
2026-04-02,1930674,The Dax Deli,Takeaway/sandwich shop,194 Dukes Ride,,Crowthorne,Bracknell Forest,RG45 6DS,Bracknell Forest,AwaitingInspection,,FHRS,False,51.3675342,-0.8173682,"194 Dukes Ride, Crowthorne, Bracknell Forest, RG45 6DS"
2026-04-02,1930697,Pizza Point,Takeaway/sandwich shop,Warrenpoint,,Newry,,BT34 3HN,"Newry, Mourne and Down",AwaitingInspection,,FHRS,False,54.1003341674805,-6.25283813476563,"Warrenpoint, Newry, BT34 3HN"
2026-04-02,1930686,Route Coffee,Takeaway/sandwich shop,,,,,,"Newry, Mourne and Down",AwaitingInspection,,FHRS,False,,,
2026-04-02,1930816,DO BROS PIZZERIA,Takeaway/sandwich shop,129 Vanbrugh Hill,,Blackheath,Greenwich,SE10 9HN,Greenwich,AwaitingInspection,,FHRS,False,51.4853371,0.0077979,"129 Vanbrugh Hill, Blackheath, Greenwich, SE10 9HN"
2026-04-02,1930834,IThai Noodle Bar Kiosk,Takeaway/sandwich shop,Underground Station North Greenwich Transport Interchange 5 Millennium Way,,Greenwich,,SE10 0PH,Greenwich,AwaitingInspection,,FHRS,False,51.5002365,0.0035616,"Underground Station North Greenwich Transport Interchange 5 Millennium Way, Greenwich, SE10 0PH"
2026-04-02,1917072,New Sage,Takeaway/sandwich shop,,Unit 2 Wapping,Ormesby,Great Yarmouth Norfolk,NR29 3JX,Great Yarmouth,AwaitingInspection,,FHRS,False,52.6741689,1.6884026,"Unit 2 Wapping, Ormesby, Great Yarmouth Norfolk, NR29 3JX"
2026-04-02,1833269,Happy House,Takeaway/sandwich shop,27 Queens Road,King Cross,Halifax,Calderdale,HX1 3NS,Calderdale,AwaitingInspection,,FHRS,False,53.7166001,-1.8809114,"27 Queens Road, King Cross, Halifax, Calderdale, HX1 3NS"
2026-04-02,1930566,Tigerbite Crewe,Takeaway/sandwich shop,9-11 Nantwich Road,Crewe,,Cheshire East,CW2 6AF,Cheshire East,AwaitingInspection,,FHRS,False,53.0893094,-2.4369224,"9-11 Nantwich Road, Crewe, Cheshire East, CW2 6AF"
2026-04-02,1930565,Tigerbite Middlewich,Takeaway/sandwich shop,18 Hightown,Middlewich,,Cheshire East,CW10 9AN,Cheshire East,AwaitingInspection,,FHRS,False,53.1924558,-2.4452045,"18 Hightown, Middlewich, Cheshire East, CW10 9AN"
2026-04-02,1930547,PitaStop,Takeaway/sandwich shop,,,,,,Westmorland and Furness,AwaitingInspection,,FHRS,False,,,
2026-04-02,1930537,The Stack Shack,Takeaway/sandwich shop,,,,,,Westmorland and Furness,AwaitingInspection,,FHRS,False,,,
2026-04-02,1930517,Jays Coffee,Takeaway/sandwich shop,Unit 71,Boxpark Croydon,99 George Street,Croydon,CR0 1LD,Croydon,AwaitingInspection,,FHRS,False,51.3746376037598,-0.0951249971985817,"Unit 71, Boxpark Croydon, 99 George Street, Croydon, CR0 1LD"
2026-04-02,1930513,Jollof Junction,Takeaway/sandwich shop,Unit 17,Boxpark Croydon,99 George Street,Croydon,CR0 1LD,Croydon,AwaitingInspection,,FHRS,False,51.3746376037598,-0.0951249971985817,"Unit 17, Boxpark Croydon, 99 George Street, Croydon, CR0 1LD"
2026-04-02,1930845,Dons Grill,Takeaway/sandwich shop,25 Church Street,Staines-upon-Thames,,,TW18 4EN,Spelthorne,AwaitingInspection,,FHRS,False,51.4341031,-0.5140536,"25 Church Street, Staines-upon-Thames, TW18 4EN"
2026-04-02,1930849,Golden Grill Kebab,Takeaway/sandwich shop,1 Stainash Parade,Kingston Road,Staines-upon-Thames,,TW18 1BB,Spelthorne,AwaitingInspection,,FHRS,False,51.4292335510254,-0.495252013206482,"1 Stainash Parade, Kingston Road, Staines-upon-Thames, TW18 1BB"
2026-04-02,1930758,Beech Tree Fish Bar,Takeaway/sandwich shop,Shop Unit,39 Bedwlwyn Road,Ystrad Mynach,Hengoed,CF82 7AA,Caerffili,AwaitingInspection,,FHRS,False,,,"Shop Unit, 39 Bedwlwyn Road, Ystrad Mynach, Hengoed, CF82 7AA"
2026-04-02,1930497,Eatopia,Takeaway/sandwich shop,5 Market Street,Rugby,,Warwickshire,CV21 3HG,Rugby,AwaitingInspection,,FHRS,False,52.3756138,-1.255091,"5 Market Street, Rugby, Warwickshire, CV21 3HG"
2026-04-02,1930421,Royal Tandoori Also Trading As Mr Walayats,Takeaway/sandwich shop,101 Main Street,Sauchie,Clackmannanshire,,FK10 3JT,Clackmannanshire,Awaiting Inspection,,FHIS,False,56.1291276,-3.7778478,"101 Main Street, Sauchie, Clackmannanshire, FK10 3JT"
2026-04-02,673605,Hong Kong Kitchen,Takeaway/sandwich shop,Unit B 112,Tennyson Way,Kidderminster,Worcestershire,DY10 3YT,Wyre Forest,4,2024-06-12,FHRS,False,52.389368,-2.221524,"Unit B 112, Tennyson Way, Kidderminster, Worcestershire, DY10 3YT"
2026-04-02,1930577,Pizza Lounge,Takeaway/sandwich shop,5 Dudley Street,Kidderminster,Worcestershire,,DY10 2JJ,Wyre Forest,AwaitingInspection,,FHRS,False,52.391799,-2.246855,"5 Dudley Street, Kidderminster, Worcestershire, DY10 2JJ"
2026-04-02,1911458,Roadhouse,Takeaway/sandwich shop,50 - 51 Oxford Street,Kidderminster,Worcestershire,,DY10 1AR,Wyre Forest,AwaitingInspection,,FHRS,True,52.3858262,-2.2467163,"50 - 51 Oxford Street, Kidderminster, Worcestershire, DY10 1AR"
2026-04-02,1930721,Ailidh@the Shed,Takeaway/sandwich shop,Ailidh The Sheds Isle Of Iona Argyll And Bute PA76 6SJ,,,,PA76 6SJ,Argyll and Bute,Awaiting Inspection,2026-03-30,FHIS,False,,,"Ailidh The Sheds Isle Of Iona Argyll And Bute PA76 6SJ, PA76 6SJ"
2026-04-02,1930715,Spud Stop,Takeaway/sandwich shop,24 Argyll Square Oban Argyll And Bute PA34 4AT,,,,PA34 4AT,Argyll and Bute,Awaiting Inspection,2026-03-19,FHIS,False,56.4118522,-5.4725716,"24 Argyll Square Oban Argyll And Bute PA34 4AT, PA34 4AT"
2026-04-02,1875336,Mirpur,Takeaway/sandwich shop,39 Parsons Street,,Banbury,Oxfordshire,OX16 5NA,Cherwell,AwaitingInspection,,FHRS,True,52.0621655,-1.3385775,"39 Parsons Street, Banbury, Oxfordshire, OX16 5NA"
2026-04-02,1930589,Papa Johns,Takeaway/sandwich shop,21 Market Square,,Bicester,Oxfordshire,OX26 6AD,Cherwell,AwaitingInspection,,FHRS,False,51.8969062,-1.1514471,"21 Market Square, Bicester, Oxfordshire, OX26 6AD"
2026-04-02,1911865,Pepe's Piri Piri,Takeaway/sandwich shop,22 High Street,,Banbury,Oxfordshire,OX16 5EG,Cherwell,AwaitingInspection,,FHRS,False,52.0607812,-1.3370226,"22 High Street, Banbury, Oxfordshire, OX16 5EG"
2026-04-02,1924040,Bev's Lite Bites,Takeaway/sandwich shop,69 St Anselm Road,North Shields,Tyne And Wear,,NE29 8BD,North Tyneside,AwaitingInspection,,FHRS,True,55.019651,-1.477801,"69 St Anselm Road, North Shields, Tyne And Wear, NE29 8BD"
2026-04-02,1930579,Smash & Crust,Takeaway/sandwich shop,Unit 5 10 Oxford Street,Oakengates,Telford,Shropshire,TF2 6AA,Telford and Wrekin Council,AwaitingInspection,,FHRS,False,52.6946614,-2.4499538,"Unit 5 10 Oxford Street, Oakengates, Telford, Shropshire, TF2 6AA"
2026-04-02,1930581,The Hut,Takeaway/sandwich shop,103 Holly Road,Little Dawley,Telford,Shropshire,TF4 3HZ,Telford and Wrekin Council,AwaitingInspection,,FHRS,False,52.651655,-2.469099,"103 Holly Road, Little Dawley, Telford, Shropshire, TF4 3HZ"
2026-04-02,1857555,Yummy Pizza,Takeaway/sandwich shop,3A The Green,Croxley Green,Rickmansworth,Hertfordshire,WD3 3AJ,Three Rivers,5,2025-09-17,FHRS,False,51.646541595459,-0.456187009811401,"3A The Green, Croxley Green, Rickmansworth, Hertfordshire, WD3 3AJ"
2026-04-02,1930492,Francs Pizza,Takeaway/sandwich shop,Shed 1,111 Bridge Road,Lowestoft,Suffolk,NR33 9JU,East Suffolk,AwaitingInspection,,FHRS,False,52.4737223,1.7093165,"Shed 1, 111 Bridge Road, Lowestoft, Suffolk, NR33 9JU"
2026-04-02,1930487,Slices Pizza 2 Go,Takeaway/sandwich shop,Unit 14,Beach Street Felixstowe,Micklegate Road,Felixstowe,IP11 2GN,East Suffolk,AwaitingInspection,,FHRS,False,51.9525047,1.3381251,"Unit 14, Beach Street Felixstowe, Micklegate Road, Felixstowe, IP11 2GN"
2026-04-02,1930486,Slices To Go Ltd,Takeaway/sandwich shop,Unit 14,Beach Street Felixstowe,Micklegate Road,Felixstowe,IP11 2GN,East Suffolk,AwaitingInspection,,FHRS,False,51.9525047,1.3381251,"Unit 14, Beach Street Felixstowe, Micklegate Road, Felixstowe, IP11 2GN"
2026-04-02,1930491,The Little Waffle Women,Takeaway/sandwich shop,,,,,,East Suffolk,AwaitingInspection,,FHRS,False,,,
2026-04-02,1930493,The Long Haul Kitchen,Takeaway/sandwich shop,,,,,,East Suffolk,AwaitingInspection,,FHRS,False,,,
2026-04-02,1930424,Davies & Halpin Building Services Ltd,Takeaway/sandwich shop,City Plumbing Supplies,Trostre Road,Llanelli,Carmarthenshire,SA14 9RA,Carmarthenshire,AwaitingInspection,,FHRS,False,51.673776,-4.1419542,"City Plumbing Supplies, Trostre Road, Llanelli, Carmarthenshire, SA14 9RA"
2026-04-02,1930435,Oh My Cod,Takeaway/sandwich shop,,14d Heol Beili Glas,Llanelli,Carmarthenshire,SA14 8DS,Carmarthenshire,AwaitingInspection,,FHRS,False,51.705869,-4.1377,"14d Heol Beili Glas, Llanelli, Carmarthenshire, SA14 8DS"
2026-04-02,1930433,The Pink Whisk Bakery,Takeaway/sandwich shop,,38 Maes Y Glo,Llanelli,Carmarthenshire,SA14 9PZ,Carmarthenshire,AwaitingInspection,,FHRS,False,51.6800146,-4.1041999,"38 Maes Y Glo, Llanelli, Carmarthenshire, SA14 9PZ"
2026-04-03,1931324,Bombay Tandoori,Takeaway/sandwich shop,,255 Glasgow Road,Hamilton,South Lanarkshire,ML3 0QG,South Lanarkshire,Awaiting Inspection,,FHIS,False,55.7834713,-4.0736983,"255 Glasgow Road, Hamilton, South Lanarkshire, ML3 0QG"
2026-04-03,1931320,Country Park Catering,Takeaway/sandwich shop,K-Park Training Academy Calderglen Country Park,Strathaven Road,East Kilbride,Glasgow,G75 0QZ,South Lanarkshire,Awaiting Inspection,,FHIS,False,55.7485352,-4.1445028,"K-Park Training Academy Calderglen Country Park, Strathaven Road, East Kilbride, Glasgow, G75 0QZ"
2026-04-03,1931398,Malar Spice,Takeaway/sandwich shop,60B Wedgewood Street,Coldharbour,Fairford Leys,Buckinghamshire,HP19 7HL,Buckinghamshire,AwaitingInspection,,FHRS,False,51.8176816,-0.8394491,"60B Wedgewood Street, Coldharbour, Fairford Leys, Buckinghamshire, HP19 7HL"
2026-04-03,1931397,Smash N Fry,Takeaway/sandwich shop,133 Broad Street,Chesham,Buckinghamshire,,HP5 3EF,Buckinghamshire,AwaitingInspection,,FHRS,False,51.710531,-0.60907,"133 Broad Street, Chesham, Buckinghamshire, HP5 3EF"
2026-04-03,1931384,South Indian Cafe,Takeaway/sandwich shop,,,,,,Buckinghamshire,AwaitingInspection,,FHRS,False,,,
2026-04-03,1930896,Bath Superstore Ltd,Takeaway/sandwich shop,Unit A Harrison House,2 Earl Haig Close,Hounslow,,TW4 7BJ,Hounslow,AwaitingInspection,,FHRS,False,51.4721902,-0.3856487,"Unit A Harrison House, 2 Earl Haig Close, Hounslow, TW4 7BJ"
2026-04-03,1930918,Coach & Horses,Takeaway/sandwich shop,The Coach And Horses,684 London Road,Hounslow,,TW3 1PG,Hounslow,AwaitingInspection,,FHRS,False,51.4716028,-0.3517889,"The Coach And Horses, 684 London Road, Hounslow, TW3 1PG"
2026-04-03,1930897,Desi Meals Ltd,Takeaway/sandwich shop,,59 Salisbury Road,Hounslow,,TW4 7NW,Hounslow,AwaitingInspection,,FHRS,False,51.4692893,-0.3969304,"59 Salisbury Road, Hounslow, TW4 7NW"
2026-04-03,1930899,Fusion Treats,Takeaway/sandwich shop,Food Trailer,The Blenheim Centre,Prince Regent Road,,TW3 1NL,Hounslow,AwaitingInspection,,FHRS,False,51.4708553,-0.3616602,"Food Trailer, The Blenheim Centre, Prince Regent Road, TW3 1NL"
2026-04-03,1930876,G.O.A.T's BBQ (Within Royal British Legion Club),Takeaway/sandwich shop,,5-6 North Street,Isleworth,,TW7 6BT,Hounslow,AwaitingInspection,,FHRS,False,51.4691263,-0.3251308,"5-6 North Street, Isleworth, TW7 6BT"
2026-04-03,1930895,Rehan Chaat Corner,Takeaway/sandwich shop,,255a High Street,Hounslow,,TW3 1EA,Hounslow,AwaitingInspection,,FHRS,False,51.468151,-0.3643721,"255a High Street, Hounslow, TW3 1EA"
2026-04-03,1375541,The Bubble Zoo,Takeaway/sandwich shop,,123b Kingsley Road,Hounslow,,TW3 4AJ,Hounslow,AwaitingInspection,,FHRS,False,51.4750024,-0.3586114,"123b Kingsley Road, Hounslow, TW3 4AJ"
2026-04-03,1928284,New Chens,Takeaway/sandwich shop,88 Frogmore Road,Blackwater,Camberley,,GU17 0DF,Hart,AwaitingInspection,,FHRS,True,51.3365519,-0.7966178,"88 Frogmore Road, Blackwater, Camberley, GU17 0DF"
2026-04-03,1800894,Franco's (Kiosk),Takeaway/sandwich shop,Kiosk 1 Water Lane,The Mall Chequers Centre,King Street,Maidstone,ME15 6AR,Maidstone,3,2025-02-12,FHRS,False,51.272654,0.525258,"Kiosk 1 Water Lane, The Mall Chequers Centre, King Street, Maidstone, ME15 6AR"
2026-04-03,1931077,Yummy Yummy Pizza,Takeaway/sandwich shop,,Unit 11 Space Business Centre,,Plato Close,CV34 6YA,Warwick,AwaitingInspection,,FHRS,False,52.273946,-1.5475612,"Unit 11 Space Business Centre, Plato Close, CV34 6YA"
2026-04-03,1931265,Shah's Halal Food,Takeaway/sandwich shop,Unit F2 Lower ConcoursePeacocks CentreVictoria WayWokingSurrey,,,,GU21 6GB,Woking,5,2026-03-31,FHRS,False,,,"Unit F2 Lower ConcoursePeacocks CentreVictoria WayWokingSurrey, GU21 6GB"
2026-04-03,1931517,Bee Place,Takeaway/sandwich shop,,1 Dickson Way,Irvine,North Ayrshire,KA12 9JD,North Ayrshire,Awaiting Inspection,,FHIS,False,55.6279949,-4.666013,"1 Dickson Way, Irvine, North Ayrshire, KA12 9JD"
2026-04-03,1931522,Yolo's,Takeaway/sandwich shop,,84 Main Street,West Kilbride,North Ayrshire,KA23 9AP,North Ayrshire,Awaiting Inspection,,FHIS,False,55.6950936,-4.8565797,"84 Main Street, West Kilbride, North Ayrshire, KA23 9AP"
2026-04-03,1931210,Kerala Arabic House,Takeaway/sandwich shop,360 St Saviours Road,Leicester,,,LE5 4HJ,Leicester City,AwaitingInspection,,FHRS,False,52.6318615,-1.0949018,"360 St Saviours Road, Leicester, LE5 4HJ"
2026-04-03,1931220,Mama Mia,Takeaway/sandwich shop,Euro House Unit 2,1 St John Street,Leicester,,LE1 3WL,Leicester City,AwaitingInspection,,FHRS,False,52.641029,-1.1331311,"Euro House Unit 2, 1 St John Street, Leicester, LE1 3WL"
2026-04-03,1931213,QUICKFOODZ LTD,Takeaway/sandwich shop,16-18 Atkinson Street,Leicester,,,LE5 3QA,Leicester City,AwaitingInspection,,FHRS,False,52.6371011,-1.104215,"16-18 Atkinson Street, Leicester, LE5 3QA"
2026-04-03,1931219,Shelbys Burgers,Takeaway/sandwich shop,319 Aylestone Road,Leicester,,,LE2 7QL,Leicester City,AwaitingInspection,,FHRS,False,52.613383,-1.14287,"319 Aylestone Road, Leicester, LE2 7QL"
2026-04-03,1931221,Vindu Bhojanam,Takeaway/sandwich shop,479 Welford Road,Leicester,,,LE2 6BL,Leicester City,AwaitingInspection,,FHRS,False,52.610986,-1.123541,"479 Welford Road, Leicester, LE2 6BL"
2026-04-03,1931271,Tenbury Fish Bar,Takeaway/sandwich shop,17 Teme Street,Tenbury Wells,Worcestershire,,WR15 8BB,Malvern Hills,AwaitingInspection,,FHRS,True,52.311584,-2.594002,"17 Teme Street, Tenbury Wells, Worcestershire, WR15 8BB"
2026-04-03,1931260,Flappy's Chicken And Peri Peri Chicken,Takeaway/sandwich shop,Southern Cafe And Chicken,4A Station Road,Longfield,Kent,DA3 7QD,Dartford,AwaitingInspection,,FHRS,False,,,"Southern Cafe And Chicken, 4A Station Road, Longfield, Kent, DA3 7QD"
2026-04-03,1931285,Flame Street,Takeaway/sandwich shop,166A Tolladine Road,Worcester,,,WR4 9QH,Worcester City,AwaitingInspection,,FHRS,False,52.1976915,-2.2009169,"166A Tolladine Road, Worcester, WR4 9QH"
2026-04-03,1639693,Bridgford Fish Bar,Takeaway/sandwich shop,39 Radcliffe Road,West Bridgford,Nottinghamshire,,NG2 5FF,Rushcliffe,4,2025-09-25,FHRS,False,52.938102,-1.13275,"39 Radcliffe Road, West Bridgford, Nottinghamshire, NG2 5FF"
2026-04-03,1517185,Roxy The Pink Tuk Box,Takeaway/sandwich shop,,,,,,Rushcliffe,5,2026-04-01,FHRS,False,,,
2026-04-03,1931153,Cantonese Kitchen,Takeaway/sandwich shop,140 Union Road,Oswaldtwistle,Lancashire,,BB5 3DR,Hyndburn,5,2026-03-13,FHRS,False,53.745863,-2.393686,"140 Union Road, Oswaldtwistle, Lancashire, BB5 3DR"
2026-04-03,1765131,Chicken Inn also trading as Jumpworks Takeaway,Takeaway/sandwich shop,55-57 Whalley Road,Accrington,Lancashire,,BB5 1AS,Hyndburn,3,2025-02-05,FHRS,False,53.755321,-2.364503,"55-57 Whalley Road, Accrington, Lancashire, BB5 1AS"
2026-04-03,1931152,Suarez tasty bites,Takeaway/sandwich shop,102 High Street,Rishton,Lancashire,,BB1 4LQ,Hyndburn,5,2026-01-20,FHRS,False,53.7682897,-2.4165303,"102 High Street, Rishton, Lancashire, BB1 4LQ"
2026-04-03,1931139,Zainus,Takeaway/sandwich shop,Reprographic House,Ledgard Way,Armley,Leeds,LS12 2ND,Leeds,AwaitingInspection,,FHRS,False,53.799533,-1.584968,"Reprographic House, Ledgard Way, Armley, Leeds, LS12 2ND"
2026-04-03,1930994,Alan Fish Bar,Takeaway/sandwich shop,21 Broad Street,Ely,Cambridgeshire,,CB7 4BD,East Cambridgeshire,AwaitingInspection,,FHRS,False,52.395342,0.266642,"21 Broad Street, Ely, Cambridgeshire, CB7 4BD"
2026-04-03,1931430,El Greco,Takeaway/sandwich shop,19 High Street,Brandon,Suffolk,,IP27 0AQ,West Suffolk,AwaitingInspection,,FHRS,False,52.4481997,0.6234235,"19 High Street, Brandon, Suffolk, IP27 0AQ"
2026-04-03,1931162,Greenhill Fryer,Takeaway/sandwich shop,31 Woodhouse Road,Coalville,Leicestershire,,LE67 4SX,North West Leicestershire,AwaitingInspection,,FHRS,False,52.720214,-1.340352,"31 Woodhouse Road, Coalville, Leicestershire, LE67 4SX"
2026-04-03,1931169,Measham Pizza Hub,Takeaway/sandwich shop,50 - 52 High Street,Measham,Swadlincote,Derby,DE12 7HZ,North West Leicestershire,AwaitingInspection,,FHRS,False,52.706718,-1.5062861,"50 - 52 High Street, Measham, Swadlincote, Derby, DE12 7HZ"
2026-04-03,1648500,Go Mezze (Unit 26),Takeaway/sandwich shop,Unit 26,Knightsbridge House,Kingsbury Road,London,NW9 8XG,Brent,AwaitingInspection,,FHRS,False,51.5820977,-0.2595141,"Unit 26, Knightsbridge House, Kingsbury Road, London, NW9 8XG"
2026-04-03,1564156,Waves & Wings (Unit 40),Takeaway/sandwich shop,Unit 40,Knightsbridge House,Kingsbury Road,London,NW9 8XG,Brent,AwaitingInspection,,FHRS,False,51.5820977,-0.2595141,"Unit 40, Knightsbridge House, Kingsbury Road, London, NW9 8XG"
2026-04-03,1931230,Domino's Pizza,Takeaway/sandwich shop,,25 Flixton Road,Urmston,Manchester,M41 5AW,Trafford,AwaitingInspection,,FHRS,False,53.448263,-2.355408,"25 Flixton Road, Urmston, Manchester, M41 5AW"
2026-04-03,1931226,The Boundry Coffee Shop,Takeaway/sandwich shop,,Little Ees Ln,Sale,,M33 5GT,Trafford,AwaitingInspection,,FHRS,False,,,"Little Ees Ln, Sale, M33 5GT"
2026-04-03,1651915,City Star,Takeaway/sandwich shop,,181 Linacre Road,Litherland,Merseyside,L21 8JS,Sefton,AwaitingInspection,,FHRS,False,53.4619067,-2.9958036,"181 Linacre Road, Litherland, Merseyside, L21 8JS"
2026-04-03,1576709,Dallas Chicken Mirchi Grill & Pizza,Takeaway/sandwich shop,,252 St Helens Road,Bolton,,BL3 3PZ,Bolton,AwaitingInspection,,FHRS,True,,,"252 St Helens Road, Bolton, BL3 3PZ"
2026-04-03,1931020,Food Court,Takeaway/sandwich shop,,,,,,Bolton,5,2026-03-24,FHRS,False,,,
2026-04-03,1931023,Krave 2.0 Ltd,Takeaway/sandwich shop,,53 Bradshawgate,Bolton,,BL1 1DR,Bolton,AwaitingInspection,,FHRS,False,53.5782546,-2.4262867,"53 Bradshawgate, Bolton, BL1 1DR"
2026-04-03,1931060,Beaches and Creams,Takeaway/sandwich shop,Central Kiosk LTD,Princes Esplanade,Walton On The Naze,Essex,CO14 8QD,Tendring,AwaitingInspection,,FHRS,False,,,"Central Kiosk LTD, Princes Esplanade, Walton On The Naze, Essex, CO14 8QD"
2026-04-03,1931055,Central Kiosk,Takeaway/sandwich shop,Princes Esplanade,Walton On The Naze,Essex,,CO14 8QD,Tendring,AwaitingInspection,,FHRS,False,51.850934,1.274842,"Princes Esplanade, Walton On The Naze, Essex, CO14 8QD"
2026-04-03,1931050,Jay'Z Fried Chicken,Takeaway/sandwich shop,12 Old Pier Street,Walton On The Naze,Essex,,CO14 8AH,Tendring,AwaitingInspection,,FHRS,False,51.848696,1.270903,"12 Old Pier Street, Walton On The Naze, Essex, CO14 8AH"
2026-04-03,1931052,Munchiex,Takeaway/sandwich shop,124 Old Road,Clacton On Sea,Essex,,CO15 3AH,Tendring,AwaitingInspection,,FHRS,False,51.7938213,1.1484974,"124 Old Road, Clacton On Sea, Essex, CO15 3AH"
2026-04-03,1931057,Oakmead Social Club,Takeaway/sandwich shop,Oakmead Road,St Osyth,Clacton On Sea,Essex,CO16 8NW,Tendring,AwaitingInspection,,FHRS,False,51.79499265,1.0375007,"Oakmead Road, St Osyth, Clacton On Sea, Essex, CO16 8NW"
2026-04-03,1931543,Blob – French Toast Cafe,Takeaway/sandwich shop,Mm Ilford,3 Chadwick Road,,Ilford,IG1 1EQ,Redbridge,AwaitingInspection,,FHRS,False,51.5580715,0.0738987,"Mm Ilford, 3 Chadwick Road, Ilford, IG1 1EQ"
2026-04-03,1931536,Burgerwala,Takeaway/sandwich shop,,851 High Road,,Goodmayes,IG3 8TG,Redbridge,AwaitingInspection,,FHRS,False,51.5668149,0.1100685,"851 High Road, Goodmayes, IG3 8TG"
2026-04-03,1931539,Casa bravir,Takeaway/sandwich shop,,14 Roding Lane South,,Ilford,IG4 5NX,Redbridge,AwaitingInspection,,FHRS,False,51.57725,0.045363,"14 Roding Lane South, Ilford, IG4 5NX"
2026-04-03,1931529,Hungerito,Takeaway/sandwich shop,,20 Cranbrook Road,,Ilford,IG1 4DL,Redbridge,AwaitingInspection,,FHRS,False,51.5592457,0.0705632,"20 Cranbrook Road, Ilford, IG1 4DL"
2026-04-03,1725213,Pad Thai House,Takeaway/sandwich shop,Mm Ilford,3 Chadwick Road,,Ilford,IG1 1EQ,Redbridge,5,2024-08-14,FHRS,False,51.5580715,0.0738987,"Mm Ilford, 3 Chadwick Road, Ilford, IG1 1EQ"
2026-04-03,1930976,Jewson Ltd,Takeaway/sandwich shop,Jewson 15 - 16 Farnham Trading Estate,,Farnham,Surrey,GU9 9NS,Waverley,AwaitingInspection,,FHRS,False,,,"Jewson 15 - 16 Farnham Trading Estate, Farnham, Surrey, GU9 9NS"
2026-04-03,1889446,Aroma,Takeaway/sandwich shop,4 Lansdowne Hill,London,,,SE27 0AR,Lambeth,5,2026-01-25,FHRS,False,51.434482,-0.104995,"4 Lansdowne Hill, London, SE27 0AR"
2026-04-03,1931123,BFC Chicken,Takeaway/sandwich shop,Business,20 Sunnyhill Road,London,,SW16 2UH,Lambeth,AwaitingInspection,,FHRS,False,51.4303773,-0.1283024,"Business, 20 Sunnyhill Road, London, SW16 2UH"
2026-04-03,1931124,Morley's Chickem (Oval Station),Takeaway/sandwich shop,Ground Floor,332 Kennington Park Road,London,,SE11 4PP,Lambeth,AwaitingInspection,,FHRS,False,51.4813062,-0.1133433,"Ground Floor, 332 Kennington Park Road, London, SE11 4PP"
2026-04-03,1931127,Smile Within Foodies,Takeaway/sandwich shop,19 Tannoy Square,London,,,SE27 9SG,Lambeth,AwaitingInspection,,FHRS,False,51.4283778,-0.0907808,"19 Tannoy Square, London, SE27 9SG"
2026-04-03,1931126,The Pizza's & Burger's,Takeaway/sandwich shop,161 - 163 Greyhound Lane,London,,,SW16 5NJ,Lambeth,AwaitingInspection,,FHRS,False,51.4219607,-0.1294661,"161 - 163 Greyhound Lane, London, SW16 5NJ"
2026-04-03,1287574,Wellatino Aka Migue's Restaurant And Bar,Takeaway/sandwich shop,40 - 42 Brixton Road,London,,,SW9 6BT,Lambeth,5,2025-03-15,FHRS,False,51.479503,-0.112,"40 - 42 Brixton Road, London, SW9 6BT"
2026-04-03,1930854,Food 4 International,Takeaway/sandwich shop,3 Southend Road,Grays,Essex,,RM17 5NH,Thurrock,AwaitingInspection,,FHRS,False,51.4834071,0.3362393,"3 Southend Road, Grays, Essex, RM17 5NH"
2026-04-03,1931409,IMY FRESH HALAL MEAT,Takeaway/sandwich shop,,,,,,Windsor and Maidenhead,AwaitingInspection,,FHRS,False,,,
2026-04-03,461458,Broadway Chippy,Takeaway/sandwich shop,,35 Broadway,Swinton,Rotherham,S64 8HD,Rotherham,AwaitingInspection,,FHRS,False,53.4833,-1.326485,"35 Broadway, Swinton, Rotherham, S64 8HD"
2026-04-03,191989,Crepes & Bubbles,Takeaway/sandwich shop,,33 Whitefriargate,Kingston Upon Hull,,HU1 2EX,Hull City,AwaitingInspection,,FHRS,False,53.7432678,-0.3376847,"33 Whitefriargate, Kingston Upon Hull, HU1 2EX"
2026-04-03,666753,The Big Fat Greek,Takeaway/sandwich shop,,1044 Anlaby Road,Kingston Upon Hull,,HU4 7RA,Hull City,AwaitingInspection,,FHRS,False,53.7443962097168,-0.409193992614746,"1044 Anlaby Road, Kingston Upon Hull, HU4 7RA"
2026-04-03,1931347,Wonu’s Cookhouse,Takeaway/sandwich shop,Danish Church,104 Osborne Street,Kingston Upon Hull,,HU1 2PN,Hull City,AwaitingInspection,,FHRS,False,53.7424694,-0.3452211,"Danish Church, 104 Osborne Street, Kingston Upon Hull, HU1 2PN"
2026-04-03,1931103,Forty hall farm coffee,Takeaway/sandwich shop,,Basement Flat 80 Southgate Road London,Hackney,London,N1 3JD,Hackney,AwaitingInspection,,FHRS,False,51.5408723,-0.0849509,"Basement Flat 80 Southgate Road London, Hackney, London, N1 3JD"
2026-04-03,1931091,POPTATA STREET FRIES,Takeaway/sandwich shop,,UNIT 1-28 ECHO BUILDING EAST BAY LANE London,Hackney,London,E15 2SJ,Hackney,AwaitingInspection,,FHRS,False,51.5446467,-0.0214061,"UNIT 1-28 ECHO BUILDING EAST BAY LANE London, Hackney, London, E15 2SJ"
2026-04-03,1930965,Station Road Fish Bar,Takeaway/sandwich shop,30 Station Road,North Walsham,Norfolk,,NR28 0EA,North Norfolk,5,2026-03-20,FHRS,False,52.818806,1.378294,"30 Station Road, North Walsham, Norfolk, NR28 0EA"
2026-04-03,1930875,BEEF GUYS,Takeaway/sandwich shop,,22 Ainsworth Road,Radcliffe,Manchester,M26 4EA,Bury,AwaitingInspection,,FHRS,False,53.564691,-2.333359,"22 Ainsworth Road, Radcliffe, Manchester, M26 4EA"
2026-04-03,1931491,Badboyz Diner Limited,Takeaway/sandwich shop,56 Queens Market,Upton Park,London,,E13 9BA,Newham,AwaitingInspection,,FHRS,False,51.5343944,0.0348443,"56 Queens Market, Upton Park, London, E13 9BA"
2026-04-03,1914662,Behrouz Biryani / Faasos / Dish'd / Eugreeka / Leb Nom / Bao & Bowls / Wingology,Takeaway/sandwich shop,748 - 750 Romford Road,Manor Park,London,,E12 6BU,Newham,1,2026-02-06,FHRS,False,51.5528681,0.0542908,"748 - 750 Romford Road, Manor Park, London, E12 6BU"
2026-04-03,1931473,Croffle Haus,Takeaway/sandwich shop,33 Upton Lane,Forest Gate,London,,E7 9PA,Newham,AwaitingInspection,,FHRS,False,51.5448925,0.0263419,"33 Upton Lane, Forest Gate, London, E7 9PA"
2026-04-03,1931484,Shake Point,Takeaway/sandwich shop,41 - 43 Plashet Grove,East Ham,London,,E6 1AD,Newham,AwaitingInspection,,FHRS,False,51.5372752,0.0365168,"41 - 43 Plashet Grove, East Ham, London, E6 1AD"
2026-04-03,1931450,Sushidog Limited,Takeaway/sandwich shop,114 The Gallery,Westfield Stratford City,Montfichet Road,Stratford,E20 1EP,Newham,AwaitingInspection,,FHRS,False,,,"114 The Gallery, Westfield Stratford City, Montfichet Road, Stratford, E20 1EP"
2026-04-03,1931436,The Chillies Kitchen Pvt Ltd,Takeaway/sandwich shop,274 - 276 Neville Road,Forest Gate,London,,E7 9QN,Newham,AwaitingInspection,,FHRS,False,51.538321,0.0329573,"274 - 276 Neville Road, Forest Gate, London, E7 9QN"
2026-04-03,1931469,West Ham Fish And Chips,Takeaway/sandwich shop,132 Barking Road,Canning Town,London,,E16 1EN,Newham,AwaitingInspection,,FHRS,False,51.517515,0.012417,"132 Barking Road, Canning Town, London, E16 1EN"
2026-04-03,1931493,Wonton Company,Takeaway/sandwich shop,14 Bramall Close,Stratford,London,,E15 1RR,Newham,AwaitingInspection,,FHRS,False,51.550002,0.011557,"14 Bramall Close, Stratford, London, E15 1RR"
2026-04-03,1930955,W B Catering (Fat Nancys),Takeaway/sandwich shop,112 Wallsend Road,North Shields,Tyne And Wear,,NE29 7AB,North Tyneside,5,2026-03-22,FHRS,False,55.004624,-1.470977,"112 Wallsend Road, North Shields, Tyne And Wear, NE29 7AB"
2026-04-03,204010,Mr D's Takeaway,Takeaway/sandwich shop,8 St George's Place,Kingsmead,Bath,Bath And North East Somerset,BA1 3AA,Bath and North East Somerset,5,2024-09-24,FHRS,False,51.383667,-2.370383,"8 St George's Place, Kingsmead, Bath, Bath And North East Somerset, BA1 3AA"
2026-04-03,1931255,Bella Pizza,Takeaway/sandwich shop,40 High Street,Honiton,,,EX14 1PJ,East Devon,AwaitingInspection,,FHRS,True,50.800324,-3.186341,"40 High Street, Honiton, EX14 1PJ"
2026-04-03,1931254,The Dogs Nutz,Takeaway/sandwich shop,,,,,,East Devon,AwaitingInspection,,FHRS,False,,,
2026-04-03,1931597,Abadan,Takeaway/sandwich shop,Ground Floor,1 King Street,Acton,,W3 9LA,Ealing,AwaitingInspection,,FHRS,False,51.5078913,-0.2728933,"Ground Floor, 1 King Street, Acton, W3 9LA"
2026-04-03,1931573,Abi Fast Food,Takeaway/sandwich shop,233 The Broadway,Southall,,,UB1 1ND,Ealing,0,2026-01-28,FHRS,False,51.512635,-0.387609,"233 The Broadway, Southall, UB1 1ND"
2026-04-03,1425999,DongYuan,Takeaway/sandwich shop,Unit F05 & G06,Acton Business Centre,School Road,Park Royal,NW10 6TD,Ealing,0,2026-03-12,FHRS,False,51.5257435,-0.2584215,"Unit F05 & G06, Acton Business Centre, School Road, Park Royal, NW10 6TD"
2026-04-03,1931572,Selekt Chicken Southall,Takeaway/sandwich shop,50 High Street,Southall,,,UB1 3DB,Ealing,2,2026-01-22,FHRS,False,51.5108333,-0.3736746,"50 High Street, Southall, UB1 3DB"
2026-04-03,1931582,Triangle Surf And Turf / Fire Rooster / Furious Chicken / Surf And Turf Smash Burgers / Naples Pizza Pie / Naples Pasta / Furious Crab And Seafood Boils / Papi Taco / Rebel Rito,Takeaway/sandwich shop,191 Acton Lane,Chiswick,,,W4 5DA,Ealing,3,2026-02-04,FHRS,False,51.499881,-0.264529,"191 Acton Lane, Chiswick, W4 5DA"
2026-04-03,1931362,Cobblers Sandwiches,Takeaway/sandwich shop,103 Westgate,Wakefield,,,WF1 1EL,Wakefield,5,2026-03-31,FHRS,False,53.681578,-1.503418,"103 Westgate, Wakefield, WF1 1EL"
2026-04-03,1931357,Hannis Pizzeria,Takeaway/sandwich shop,13 Carlton Street,Castleford,,,WF10 1AX,Wakefield,AwaitingInspection,,FHRS,False,53.726493,-1.349524,"13 Carlton Street, Castleford, WF10 1AX"
2026-04-03,1931358,Kam Chuan,Takeaway/sandwich shop,188 Station Road,Ossett,,,WF5 0JQ,Wakefield,AwaitingInspection,,FHRS,False,53.673713,-1.570962,"188 Station Road, Ossett, WF5 0JQ"
2026-04-03,1930929,Sophie Bakes N Cakes,Takeaway/sandwich shop,,,,,,Stroud,AwaitingInspection,,FHRS,False,,,
2026-04-03,1922024,Kitchens Kitchen,Takeaway/sandwich shop,Cornish Market World,Stadium Retail Park,Par Moor Road,St Austell,PL25 3RP,Cornwall,5,2026-03-25,FHRS,False,50.344597,-4.736336,"Cornish Market World, Stadium Retail Park, Par Moor Road, St Austell, PL25 3RP"
2026-04-03,1931107,Cove Coffee Shop,Takeaway/sandwich shop,The Boathouse,Steephill Cove,Ventnor,Isle Of Wight,PO38 1UG,Isle of Wight,AwaitingInspection,,FHRS,False,50.589111,-1.223893,"The Boathouse, Steephill Cove, Ventnor, Isle Of Wight, PO38 1UG"
2026-04-03,585292,CHIP N TAILS,Takeaway/sandwich shop,45 HOLLYBANK CRESCENT,HYTHE,SOUTHAMPTON,,SO45 5FZ,New Forest,AwaitingInspection,,FHRS,False,50.86556,-1.404782,"45 HOLLYBANK CRESCENT, HYTHE, SOUTHAMPTON, SO45 5FZ"
2026-04-04,1931603,Platito by Mangan,Takeaway/sandwich shop,,,105 Springfield Road,Belfast,BT12 7AE,Belfast City,5,2026-03-25,FHRS,False,54.5976528,-5.9580037,"105 Springfield Road, Belfast, BT12 7AE"
2026-04-04,59914,Sphinx,Takeaway/sandwich shop,,,74 Stranmillis Road,Belfast,BT9 5AD,Belfast City,4,2026-03-11,FHRS,False,54.579193,-5.934424,"74 Stranmillis Road, Belfast, BT9 5AD"
