date_added,FHRSID,BusinessName,BusinessType,AddressLine1,AddressLine2,AddressLine3,AddressLine4,PostCode,LocalAuthorityName,RatingValue,RatingDate,SchemeType,NewRatingPending,Latitude,Longitude,AddressSingleLine
2026-04-01,1929968,Coast & Curry,Takeaway/sandwich shop,,,,,,South Oxfordshire,AwaitingInspection,,FHRS,False,,,
2026-04-01,1929997,LêLê,Takeaway/sandwich shop,24 Crate Building 35 St James Street,,Walthamstow,London,E17 7FY,Waltham Forest,AwaitingInspection,,FHRS,False,51.5806007,-0.0324049,"24 Crate Building 35 St James Street, Walthamstow, London, E17 7FY"
2026-04-01,1930028,Piri Piri Grill Leyton,Takeaway/sandwich shop,Ground Floor 86 High Road Leyton,,Stratford,London,E15 2BP,Waltham Forest,AwaitingInspection,,FHRS,False,51.5532601,-0.0048475,"Ground Floor 86 High Road Leyton, Stratford, London, E15 2BP"
2026-04-01,1534976,Hatariy / Hatariy Coffee,Takeaway/sandwich shop,M3 Market Hall,Earl Street,Preston,,PR1 2LA,Preston,AwaitingInspection,,FHRS,False,53.7604912,-2.6997368,"M3 Market Hall, Earl Street, Preston, PR1 2LA"
2026-04-01,1195645,Salt and Pepper Chilli Box,Takeaway/sandwich shop,,5c Lichfield Road,Stafford,Staffordshire,ST17 4JX,Stafford,AwaitingInspection,,FHRS,True,52.8039113,-2.1148231,"5c Lichfield Road, Stafford, Staffordshire, ST17 4JX"
2026-04-01,1930063,Chaman's Rasoi,Takeaway/sandwich shop,,,,,,Ipswich,AwaitingInspection,,FHRS,False,,,
2026-04-01,1930109,Chicken World,Takeaway/sandwich shop,21 Lavender Hill,,London,Wandsworth,SW11 5QW,Wandsworth,AwaitingInspection,,FHRS,False,51.466065,-0.1517855,"21 Lavender Hill, London, Wandsworth, SW11 5QW"
2026-04-01,1930085,Chester Charcoal Hut,Takeaway/sandwich shop,62 Brook Street,,Chester,Cheshire,CH1 3DN,Cheshire West and Chester,AwaitingInspection,,FHRS,True,53.1954883,-2.8854316,"62 Brook Street, Chester, Cheshire, CH1 3DN"
2026-04-01,1930086,Mai Sushi,Takeaway/sandwich shop,22 - 28 Foregate Street,,Chester,Cheshire,CH1 1HP,Cheshire West and Chester,AwaitingInspection,,FHRS,False,53.1909791,-2.8873495,"22 - 28 Foregate Street, Chester, Cheshire, CH1 1HP"
2026-04-01,1930055,The Postling Pantry,Takeaway/sandwich shop,DOUGLAS MEWS CUCKOO LANE,,POSTLING,,CT21 4ET,Folkestone and Hythe,AwaitingInspection,,FHRS,False,51.1050598,1.0674322,"DOUGLAS MEWS CUCKOO LANE, POSTLING, CT21 4ET"
2026-04-01,1929982,The London Chip Club,Takeaway/sandwich shop,58 Villiers Road,Kingston Upon Thames,,,KT1 3BB,Kingston-Upon-Thames,AwaitingInspection,,FHRS,False,51.4029629,-0.2947203,"58 Villiers Road, Kingston Upon Thames, KT1 3BB"
2026-04-01,1930122,Xotica Badboy kebabs,Takeaway/sandwich shop,Delicious Desserts,79 Trinity Street,Huddersfield,,HD1 4DN,Kirklees,AwaitingInspection,,FHRS,False,53.6478346,-1.7908519,"Delicious Desserts, 79 Trinity Street, Huddersfield, HD1 4DN"
2026-04-01,1930037,Vesper Diner,Takeaway/sandwich shop,50 Duke Street,Chelmsford,Essex,,CM1 1JA,Chelmsford,AwaitingInspection,,FHRS,False,51.737034,0.466625,"50 Duke Street, Chelmsford, Essex, CM1 1JA"
2026-04-01,1929947,Harbour City,Takeaway/sandwich shop,42 Edinburgh Place,Cheltenham,Gloucestershire,,GL51 7SA,Cheltenham,AwaitingInspection,,FHRS,False,51.9023711,-2.1137378,"42 Edinburgh Place, Cheltenham, Gloucestershire, GL51 7SA"
2026-04-01,1929946,Syrian Kitchen,Takeaway/sandwich shop,Ripe,268 High Street,Cheltenham,Gloucestershire,GL50 3HQ,Cheltenham,AwaitingInspection,,FHRS,False,51.9025357,-2.0774589,"Ripe, 268 High Street, Cheltenham, Gloucestershire, GL50 3HQ"
2026-04-01,1929967,Mamas Kitchen,Takeaway/sandwich shop,26 Beach Road,,Littlehampton,West Sussex,BN17 5HT,Arun,AwaitingInspection,,FHRS,False,50.8084973,-0.5402306,"26 Beach Road, Littlehampton, West Sussex, BN17 5HT"
2026-04-01,1930133,Yo! To Go!,Takeaway/sandwich shop,Tesco,Fullbridge,Maldon,Essex,CM9 4LE,Maldon,5,2026-02-27,FHRS,False,51.735504,0.679316,"Tesco, Fullbridge, Maldon, Essex, CM9 4LE"
2026-04-01,129142,Chesters Chicken Oldham,Takeaway/sandwich shop,,270 Ashton Road,Oldham,,OL8 1QN,Oldham,AwaitingInspection,,FHRS,False,53.5282774,-2.1120726,"270 Ashton Road, Oldham, OL8 1QN"
2026-04-01,1929979,Stapleford Pizza Kitchen,Takeaway/sandwich shop,84 Derby Road,Stapleford,Nottinghamshire,,NG9 7AB,Broxtowe,AwaitingInspection,,FHRS,False,52.928186,-1.277901,"84 Derby Road, Stapleford, Nottinghamshire, NG9 7AB"
2026-04-01,1930281,DHILLONS GOLDEN FRY,Takeaway/sandwich shop,,5 Trafford,Allerdene,Gateshead,NE9 6NF,Gateshead,AwaitingInspection,,FHRS,False,54.921243,-1.593483,"5 Trafford, Allerdene, Gateshead, NE9 6NF"
2026-04-01,1930282,Pie & Mash Stop!,Takeaway/sandwich shop,,9 Team Valley Shopping Village,Kingsway North,Team Valley,NE11 0EN,Gateshead,AwaitingInspection,,FHRS,False,,,"9 Team Valley Shopping Village, Kingsway North, Team Valley, NE11 0EN"
2026-04-01,1930231,Flames Pizzeria and Grill,Takeaway/sandwich shop,85 PROUDFOOT DRIVE,,BISHOP AUCKLAND,,DL14 6PD,Durham,AwaitingInspection,,FHRS,False,54.645881,-1.6850043,"85 PROUDFOOT DRIVE, BISHOP AUCKLAND, DL14 6PD"
2026-04-01,304298,Indian Chef,Takeaway/sandwich shop,20 FRONT STREET,,LANCHESTER,,DH7 0ER,Durham,AwaitingInspection,,FHRS,True,54.8221822,-1.7438359,"20 FRONT STREET, LANCHESTER, DH7 0ER"
2026-04-01,1930192,Kiras place,Takeaway/sandwich shop,75 MIDDLE STREET,,BLACKHALL COLLIERY,,TS27 4ED,Durham,AwaitingInspection,,FHRS,False,54.7492076,-1.2920875,"75 MIDDLE STREET, BLACKHALL COLLIERY, TS27 4ED"
2026-04-01,1930208,Lumley Pizza,Takeaway/sandwich shop,UNIT 5A CASTLE PARADE FRONT STREET,,GREAT LUMLEY,,DH3 4JB,Durham,AwaitingInspection,,FHRS,False,54.8364921,-1.5477327,"UNIT 5A CASTLE PARADE FRONT STREET, GREAT LUMLEY, DH3 4JB"
2026-04-01,1889582,Mayflower,Takeaway/sandwich shop,,,,,,Durham,AwaitingInspection,,FHRS,False,,,
2026-04-01,1930220,Sorento Takeaway,Takeaway/sandwich shop,55 MANOR ROAD,,ST HELEN AUCKLAND,,DL14 9ER,Durham,AwaitingInspection,,FHRS,False,54.6351372,-1.7120438,"55 MANOR ROAD, ST HELEN AUCKLAND, DL14 9ER"
2026-04-01,1930189,Subway,Takeaway/sandwich shop,10 NORTH ROAD,,DURHAM,,DH1 4SH,Durham,AwaitingInspection,,FHRS,False,54.7767153,-1.5803751,"10 NORTH ROAD, DURHAM, DH1 4SH"
2026-04-01,1930156,Roasted Coffee NI,Takeaway/sandwich shop,25 Eglinton Street,Portrush,Portrush,Antrim,BT56 8DX,Causeway Coast and Glens,AwaitingInspection,,FHRS,False,55.204581,-6.652281,"25 Eglinton Street, Portrush, Portrush, Antrim, BT56 8DX"
2026-04-01,1835408,Adebola dixon,Takeaway/sandwich shop,P105 East Street Market,,East Street,,,Southwark,AwaitingInspection,,FHRS,False,,,"P105 East Street Market, East Street"
2026-04-01,1930069,Dynasty creation ltd,Takeaway/sandwich shop,Unit 20 Allard House,18,Verney Road,London,SE16 3DH,Southwark,5,2026-02-07,FHRS,False,51.4849325,-0.0600309,"Unit 20 Allard House, 18, Verney Road, London, SE16 3DH"
2026-04-01,1929915,Baked By Sweet Tooth,Takeaway/sandwich shop,Central Management Suite,Gunwharf Quays,Portsmouth,,PO1 3TZ,Portsmouth,AwaitingInspection,,FHRS,False,50.7965764,-1.1060322,"Central Management Suite, Gunwharf Quays, Portsmouth, PO1 3TZ"
2026-04-01,1929921,Buffalo,Takeaway/sandwich shop,2B Albert Road,Southsea,,,PO5 2SH,Portsmouth,AwaitingInspection,,FHRS,False,50.78759765625,-1.08203995227814,"2B Albert Road, Southsea, PO5 2SH"
2026-04-01,365169,Dbfunfoods,Takeaway/sandwich shop,,,,,,Portsmouth,5,2018-11-07,FHRS,False,,,
2026-04-01,1929908,Kens Kebabs & Speedy Pizza,Takeaway/sandwich shop,Shop,97 London Road,Portsmouth,,PO2 0BN,Portsmouth,AwaitingInspection,,FHRS,False,50.8164808,-1.0798447,"Shop, 97 London Road, Portsmouth, PO2 0BN"
2026-04-01,1929912,Kingfisher,Takeaway/sandwich shop,Shop,10 Albert Road,Southsea,,PO5 2SH,Portsmouth,AwaitingInspection,,FHRS,False,50.787512,-1.0817754,"Shop, 10 Albert Road, Southsea, PO5 2SH"
2026-04-01,1929922,Wok Express,Takeaway/sandwich shop,434 London Road,Portsmouth,,,PO2 9LD,Portsmouth,AwaitingInspection,,FHRS,False,50.8257217407227,-1.07230496406555,"434 London Road, Portsmouth, PO2 9LD"
2026-04-01,1929919,Zee's Spice Bar,Takeaway/sandwich shop,Management Suite,Cascades,Portsmouth,,PO1 4RL,Portsmouth,AwaitingInspection,,FHRS,False,50.8017231,-1.0924241,"Management Suite, Cascades, Portsmouth, PO1 4RL"
2026-04-01,1930244,Marcelo Pizza,Takeaway/sandwich shop,65 Beckett Road,Wheatley,Doncaster,,DN2 4AD,Doncaster,AwaitingInspection,,FHRS,False,53.530286,-1.122905,"65 Beckett Road, Wheatley, Doncaster, DN2 4AD"
2026-04-01,1930246,Mezza Pizza,Takeaway/sandwich shop,96A Bank Street,Mexborough,Doncaster,,S64 9LG,Doncaster,AwaitingInspection,,FHRS,False,53.493126,-1.286371,"96A Bank Street, Mexborough, Doncaster, S64 9LG"
2026-04-01,1930257,Mr Local / Sweet Panda,Takeaway/sandwich shop,15 - 17 St Davids Drive,Cusworth,Doncaster,,DN5 8NG,Doncaster,AwaitingInspection,,FHRS,True,53.5364141,-1.1703245,"15 - 17 St Davids Drive, Cusworth, Doncaster, DN5 8NG"
2026-04-01,1929944,Bonnie's Fish and Chips,Takeaway/sandwich shop,170 Borough Road,Seacombe,Wirral,Merseyside,CH44 6NJ,Wirral,4,2026-03-26,FHRS,False,53.412305,-3.024765,"170 Borough Road, Seacombe, Wirral, Merseyside, CH44 6NJ"
2026-04-01,1930392,Polish Street Food ChopChop,Takeaway/sandwich shop,,44 St Swithun's Road,Bournemouth,,BH1 3RJ,"Bournemouth, Christchurch and Poole",AwaitingInspection,,FHRS,False,50.725802,-1.861373,"44 St Swithun's Road, Bournemouth, BH1 3RJ"
2026-04-01,1930390,Zee's Spice Bar,Takeaway/sandwich shop,,600 Christchurch Road,Bournemouth,,BH1 4SX,"Bournemouth, Christchurch and Poole",AwaitingInspection,,FHRS,False,50.727274,-1.8395595,"600 Christchurch Road, Bournemouth, BH1 4SX"
2026-04-01,1929959,Pablo Master Tortilla,Takeaway/sandwich shop,,,,,,Plymouth City,AwaitingInspection,,FHRS,False,,,
2026-04-01,1930366,Balti Bazaar,Takeaway/sandwich shop,41 Bell Lane,Ackworth,Pontefract,,WF7 7JD,Wakefield,AwaitingInspection,,FHRS,False,53.642854,-1.339269,"41 Bell Lane, Ackworth, Pontefract, WF7 7JD"
2026-04-01,1930368,Castleford Chippy,Takeaway/sandwich shop,31 Beancroft Road,Castleford,,,WF10 5BW,Wakefield,AwaitingInspection,,FHRS,False,53.722563,-1.355843,"31 Beancroft Road, Castleford, WF10 5BW"
2026-04-01,1560528,Oasis Pizza Express,Takeaway/sandwich shop,16 Corn Market,Pontefract,,,WF8 1BJ,Wakefield,4,2024-10-22,FHRS,False,53.692049,-1.313876,"16 Corn Market, Pontefract, WF8 1BJ"
2026-04-01,554381,KFC Loughton,Takeaway/sandwich shop,Kentucky Fried Chicken,241 High Road,Loughton,Essex,IG10 1AD,Epping Forest,5,2025-11-07,FHRS,False,51.6477664,0.0559328,"Kentucky Fried Chicken, 241 High Road, Loughton, Essex, IG10 1AD"
2026-04-01,554371,New Ongar,Takeaway/sandwich shop,194 High Street,Ongar,Essex,,CM5 9JJ,Epping Forest,4,2025-11-19,FHRS,False,51.704636,0.245844,"194 High Street, Ongar, Essex, CM5 9JJ"
2026-04-01,1898903,Palace fish bar,Takeaway/sandwich shop,Palace Fish Bar The Palace Fish Bar,122 High Road,Loughton,Essex,IG10 4HJ,Epping Forest,5,2025-12-01,FHRS,False,51.6449719,0.0520004,"Palace Fish Bar The Palace Fish Bar, 122 High Road, Loughton, Essex, IG10 4HJ"
2026-04-02,1930761,Mak halal Coventry,Takeaway/sandwich shop,53-55 Corporation Street,,,Coventry,CV1 1GX,Coventry,AwaitingInspection,,FHRS,False,52.4094098,-1.5146058,"53-55 Corporation Street, Coventry, CV1 1GX"
2026-04-02,1909507,Cabana,Takeaway/sandwich shop,Westbourne Terrace,Westward Ho!,Devon,,EX39 1LL,Torridge,AwaitingInspection,,FHRS,False,51.042212,-4.236515,"Westbourne Terrace, Westward Ho!, Devon, EX39 1LL"
2026-04-02,1930678,MARIOS,Takeaway/sandwich shop,Marios,7 Stanhope Parade,South Shields,Tyne & Wear,NE33 4BA,South Tyneside,AwaitingInspection,,FHRS,False,54.985856,-1.4303388,"Marios, 7 Stanhope Parade, South Shields, Tyne & Wear, NE33 4BA"
2026-04-02,636803,Spice House,Takeaway/sandwich shop,9 Hollingwood Crescent,,,Chesterfield,S43 2HD,Chesterfield,AwaitingInspection,,FHRS,False,53.2646057,-1.3796654,"9 Hollingwood Crescent, Chesterfield, S43 2HD"
2026-04-02,1930746,LUV UR GRUB,Takeaway/sandwich shop,Street Record Carrfield Road,,Newcastle Upon Tyne,,,Newcastle Upon Tyne,AwaitingInspection,,FHRS,False,,,"Street Record Carrfield Road, Newcastle Upon Tyne"
2026-04-02,1930747,Selekt chicken,Takeaway/sandwich shop,7 West Road,,Newcastle Upon Tyne,,NE4 9PT,Newcastle Upon Tyne,5,2026-03-30,FHRS,False,54.9754157,-1.653096,"7 West Road, Newcastle Upon Tyne, NE4 9PT"
2026-04-02,1930424,Davies & Halpin Building Services Ltd,Takeaway/sandwich shop,City Plumbing Supplies,Trostre Road,Llanelli,Carmarthenshire,SA14 9RA,Sir Gaerfyrddin,AwaitingInspection,,FHRS,False,51.673776,-4.1419542,"City Plumbing Supplies, Trostre Road, Llanelli, Carmarthenshire, SA14 9RA"
2026-04-02,1930435,Oh My Cod,Takeaway/sandwich shop,,14d Heol Beili Glas,Llanelli,Carmarthenshire,SA14 8DS,Sir Gaerfyrddin,AwaitingInspection,,FHRS,False,51.705869,-4.1377,"14d Heol Beili Glas, Llanelli, Carmarthenshire, SA14 8DS"
2026-04-02,1930433,The Pink Whisk Bakery,Takeaway/sandwich shop,,38 Maes Y Glo,Llanelli,Carmarthenshire,SA14 9PZ,Sir Gaerfyrddin,AwaitingInspection,,FHRS,False,51.6800146,-4.1041999,"38 Maes Y Glo, Llanelli, Carmarthenshire, SA14 9PZ"
2026-04-02,1930614,Jenito’s fried chicken,Takeaway/sandwich shop,143 Montague Street,,Worthing,West Sussex,BN11 3BX,Worthing,AwaitingInspection,,FHRS,False,50.8098701,-0.3765447,"143 Montague Street, Worthing, West Sussex, BN11 3BX"
2026-04-02,1930610,MR INDIA,Takeaway/sandwich shop,Shop 109 South Farm Road,,Worthing,West Sussex,BN14 7AX,Worthing,AwaitingInspection,,FHRS,False,50.8241537,-0.3799248,"Shop 109 South Farm Road, Worthing, West Sussex, BN14 7AX"
2026-04-02,1930784,Tikka Tacos @Indigo Xpress,Takeaway/sandwich shop,,,,,,Solihull,AwaitingInspection,,FHRS,False,,,
2026-04-02,1901483,"Colchester Takeaway, Mighty Chicken, Metro",Takeaway/sandwich shop,Colchester Takeaway,31 St Botolphs Street,Colchester,Essex,CO2 7EA,Colchester,4,2026-02-03,FHRS,False,51.8869719,0.9035753,"Colchester Takeaway, 31 St Botolphs Street, Colchester, Essex, CO2 7EA"
2026-04-02,1930654,Yard house,Takeaway/sandwich shop,,,,,,Colchester,AwaitingInspection,,FHRS,False,,,
2026-04-02,1840130,Baltic Cafe,Takeaway/sandwich shop,Anderton Street,Ince,,,WN2 2BG,Wigan,4,2025-09-12,FHRS,False,53.5428034,-2.6085127,"Anderton Street, Ince, WN2 2BG"
2026-04-02,1930456,Hampton Charcoal Grill,Takeaway/sandwich shop,6 Hampton Court Parade,East Molesey,Surrey,,KT8 9HB,Elmbridge,AwaitingInspection,,FHRS,True,51.4017913,-0.3435158,"6 Hampton Court Parade, East Molesey, Surrey, KT8 9HB"
2026-04-02,1930758,Beech Tree Fish Bar,Takeaway/sandwich shop,Shop Unit,39 Bedwlwyn Road,Ystrad Mynach,Hengoed,CF82 7AA,Caerphilly,AwaitingInspection,,FHRS,False,,,"Shop Unit, 39 Bedwlwyn Road, Ystrad Mynach, Hengoed, CF82 7AA"
2026-04-02,1930799,64 Golden Aroma,Takeaway/sandwich shop,,18 Milbank Terrace,Redcar,,TS10 1ED,Redcar and Cleveland,AwaitingInspection,,FHRS,False,54.618074,-1.069356,"18 Milbank Terrace, Redcar, TS10 1ED"
2026-04-02,1930797,Cluck & Crunch's,Takeaway/sandwich shop,,24 Westgate,Guisborough,,TS14 6BA,Redcar and Cleveland,AwaitingInspection,,FHRS,False,54.5355651,-1.0531359,"24 Westgate, Guisborough, TS14 6BA"
2026-04-02,1930807,FedUp Community CIC,Takeaway/sandwich shop,Unit D,New Lodge Industrial Estate,South Boundary Road,Knowsley Industrial Park,L33 7SF,Knowsley,AwaitingInspection,,FHRS,False,53.4745972,-2.8593857,"Unit D, New Lodge Industrial Estate, South Boundary Road, Knowsley Industrial Park, L33 7SF"
2026-04-02,1930674,The Dax Deli,Takeaway/sandwich shop,194 Dukes Ride,,Crowthorne,Bracknell Forest,RG45 6DS,Bracknell Forest,AwaitingInspection,,FHRS,False,51.3675342,-0.8173682,"194 Dukes Ride, Crowthorne, Bracknell Forest, RG45 6DS"
2026-04-02,1930697,Pizza Point,Takeaway/sandwich shop,Warrenpoint,,Newry,,BT34 3HN,"Newry, Mourne and Down",AwaitingInspection,,FHRS,False,54.1003341674805,-6.25283813476563,"Warrenpoint, Newry, BT34 3HN"
2026-04-02,1930686,Route Coffee,Takeaway/sandwich shop,,,,,,"Newry, Mourne and Down",AwaitingInspection,,FHRS,False,,,
2026-04-02,1930816,DO BROS PIZZERIA,Takeaway/sandwich shop,129 Vanbrugh Hill,,Blackheath,Greenwich,SE10 9HN,Greenwich,AwaitingInspection,,FHRS,False,51.4853371,0.0077979,"129 Vanbrugh Hill, Blackheath, Greenwich, SE10 9HN"
2026-04-02,1930834,IThai Noodle Bar Kiosk,Takeaway/sandwich shop,Underground Station North Greenwich Transport Interchange 5 Millennium Way,,Greenwich,,SE10 0PH,Greenwich,AwaitingInspection,,FHRS,False,51.5002365,0.0035616,"Underground Station North Greenwich Transport Interchange 5 Millennium Way, Greenwich, SE10 0PH"
2026-04-02,1917072,New Sage,Takeaway/sandwich shop,,Unit 2 Wapping,Ormesby,Great Yarmouth Norfolk,NR29 3JX,Great Yarmouth,AwaitingInspection,,FHRS,False,52.6741689,1.6884026,"Unit 2 Wapping, Ormesby, Great Yarmouth Norfolk, NR29 3JX"
2026-04-02,1833269,Happy House,Takeaway/sandwich shop,27 Queens Road,King Cross,Halifax,Calderdale,HX1 3NS,Calderdale,AwaitingInspection,,FHRS,False,53.7166001,-1.8809114,"27 Queens Road, King Cross, Halifax, Calderdale, HX1 3NS"
2026-04-02,1930566,Tigerbite Crewe,Takeaway/sandwich shop,9-11 Nantwich Road,Crewe,,Cheshire East,CW2 6AF,Cheshire East,AwaitingInspection,,FHRS,False,53.0893094,-2.4369224,"9-11 Nantwich Road, Crewe, Cheshire East, CW2 6AF"
2026-04-02,1930565,Tigerbite Middlewich,Takeaway/sandwich shop,18 Hightown,Middlewich,,Cheshire East,CW10 9AN,Cheshire East,AwaitingInspection,,FHRS,False,53.1924558,-2.4452045,"18 Hightown, Middlewich, Cheshire East, CW10 9AN"
2026-04-02,1930547,PitaStop,Takeaway/sandwich shop,,,,,,Westmorland and Furness,AwaitingInspection,,FHRS,False,,,
2026-04-02,1930537,The Stack Shack,Takeaway/sandwich shop,,,,,,Westmorland and Furness,AwaitingInspection,,FHRS,False,,,
2026-04-02,1930517,Jays Coffee,Takeaway/sandwich shop,Unit 71,Boxpark Croydon,99 George Street,Croydon,CR0 1LD,Croydon,AwaitingInspection,,FHRS,False,51.3746376037598,-0.0951249971985817,"Unit 71, Boxpark Croydon, 99 George Street, Croydon, CR0 1LD"
2026-04-02,1930513,Jollof Junction,Takeaway/sandwich shop,Unit 17,Boxpark Croydon,99 George Street,Croydon,CR0 1LD,Croydon,AwaitingInspection,,FHRS,False,51.3746376037598,-0.0951249971985817,"Unit 17, Boxpark Croydon, 99 George Street, Croydon, CR0 1LD"
2026-04-02,1930845,Dons Grill,Takeaway/sandwich shop,25 Church Street,Staines-upon-Thames,,,TW18 4EN,Spelthorne,AwaitingInspection,,FHRS,False,51.4341031,-0.5140536,"25 Church Street, Staines-upon-Thames, TW18 4EN"
2026-04-02,1930849,Golden Grill Kebab,Takeaway/sandwich shop,1 Stainash Parade,Kingston Road,Staines-upon-Thames,,TW18 1BB,Spelthorne,AwaitingInspection,,FHRS,False,51.4292335510254,-0.495252013206482,"1 Stainash Parade, Kingston Road, Staines-upon-Thames, TW18 1BB"
2026-04-02,1930758,Beech Tree Fish Bar,Takeaway/sandwich shop,Shop Unit,39 Bedwlwyn Road,Ystrad Mynach,Hengoed,CF82 7AA,Caerffili,AwaitingInspection,,FHRS,False,,,"Shop Unit, 39 Bedwlwyn Road, Ystrad Mynach, Hengoed, CF82 7AA"
2026-04-02,1930497,Eatopia,Takeaway/sandwich shop,5 Market Street,Rugby,,Warwickshire,CV21 3HG,Rugby,AwaitingInspection,,FHRS,False,52.3756138,-1.255091,"5 Market Street, Rugby, Warwickshire, CV21 3HG"
2026-04-02,1930421,Royal Tandoori Also Trading As Mr Walayats,Takeaway/sandwich shop,101 Main Street,Sauchie,Clackmannanshire,,FK10 3JT,Clackmannanshire,Awaiting Inspection,,FHIS,False,56.1291276,-3.7778478,"101 Main Street, Sauchie, Clackmannanshire, FK10 3JT"
2026-04-02,673605,Hong Kong Kitchen,Takeaway/sandwich shop,Unit B 112,Tennyson Way,Kidderminster,Worcestershire,DY10 3YT,Wyre Forest,4,2024-06-12,FHRS,False,52.389368,-2.221524,"Unit B 112, Tennyson Way, Kidderminster, Worcestershire, DY10 3YT"
2026-04-02,1930577,Pizza Lounge,Takeaway/sandwich shop,5 Dudley Street,Kidderminster,Worcestershire,,DY10 2JJ,Wyre Forest,AwaitingInspection,,FHRS,False,52.391799,-2.246855,"5 Dudley Street, Kidderminster, Worcestershire, DY10 2JJ"
2026-04-02,1911458,Roadhouse,Takeaway/sandwich shop,50 - 51 Oxford Street,Kidderminster,Worcestershire,,DY10 1AR,Wyre Forest,AwaitingInspection,,FHRS,True,52.3858262,-2.2467163,"50 - 51 Oxford Street, Kidderminster, Worcestershire, DY10 1AR"
2026-04-02,1930721,Ailidh@the Shed,Takeaway/sandwich shop,Ailidh The Sheds Isle Of Iona Argyll And Bute PA76 6SJ,,,,PA76 6SJ,Argyll and Bute,Awaiting Inspection,2026-03-30,FHIS,False,,,"Ailidh The Sheds Isle Of Iona Argyll And Bute PA76 6SJ, PA76 6SJ"
2026-04-02,1930715,Spud Stop,Takeaway/sandwich shop,24 Argyll Square Oban Argyll And Bute PA34 4AT,,,,PA34 4AT,Argyll and Bute,Awaiting Inspection,2026-03-19,FHIS,False,56.4118522,-5.4725716,"24 Argyll Square Oban Argyll And Bute PA34 4AT, PA34 4AT"
2026-04-02,1875336,Mirpur,Takeaway/sandwich shop,39 Parsons Street,,Banbury,Oxfordshire,OX16 5NA,Cherwell,AwaitingInspection,,FHRS,True,52.0621655,-1.3385775,"39 Parsons Street, Banbury, Oxfordshire, OX16 5NA"
2026-04-02,1930589,Papa Johns,Takeaway/sandwich shop,21 Market Square,,Bicester,Oxfordshire,OX26 6AD,Cherwell,AwaitingInspection,,FHRS,False,51.8969062,-1.1514471,"21 Market Square, Bicester, Oxfordshire, OX26 6AD"
2026-04-02,1911865,Pepe's Piri Piri,Takeaway/sandwich shop,22 High Street,,Banbury,Oxfordshire,OX16 5EG,Cherwell,AwaitingInspection,,FHRS,False,52.0607812,-1.3370226,"22 High Street, Banbury, Oxfordshire, OX16 5EG"
2026-04-02,1924040,Bev's Lite Bites,Takeaway/sandwich shop,69 St Anselm Road,North Shields,Tyne And Wear,,NE29 8BD,North Tyneside,AwaitingInspection,,FHRS,True,55.019651,-1.477801,"69 St Anselm Road, North Shields, Tyne And Wear, NE29 8BD"
2026-04-02,1930579,Smash & Crust,Takeaway/sandwich shop,Unit 5 10 Oxford Street,Oakengates,Telford,Shropshire,TF2 6AA,Telford and Wrekin Council,AwaitingInspection,,FHRS,False,52.6946614,-2.4499538,"Unit 5 10 Oxford Street, Oakengates, Telford, Shropshire, TF2 6AA"
2026-04-02,1930581,The Hut,Takeaway/sandwich shop,103 Holly Road,Little Dawley,Telford,Shropshire,TF4 3HZ,Telford and Wrekin Council,AwaitingInspection,,FHRS,False,52.651655,-2.469099,"103 Holly Road, Little Dawley, Telford, Shropshire, TF4 3HZ"
2026-04-02,1857555,Yummy Pizza,Takeaway/sandwich shop,3A The Green,Croxley Green,Rickmansworth,Hertfordshire,WD3 3AJ,Three Rivers,5,2025-09-17,FHRS,False,51.646541595459,-0.456187009811401,"3A The Green, Croxley Green, Rickmansworth, Hertfordshire, WD3 3AJ"
2026-04-02,1930492,Francs Pizza,Takeaway/sandwich shop,Shed 1,111 Bridge Road,Lowestoft,Suffolk,NR33 9JU,East Suffolk,AwaitingInspection,,FHRS,False,52.4737223,1.7093165,"Shed 1, 111 Bridge Road, Lowestoft, Suffolk, NR33 9JU"
2026-04-02,1930487,Slices Pizza 2 Go,Takeaway/sandwich shop,Unit 14,Beach Street Felixstowe,Micklegate Road,Felixstowe,IP11 2GN,East Suffolk,AwaitingInspection,,FHRS,False,51.9525047,1.3381251,"Unit 14, Beach Street Felixstowe, Micklegate Road, Felixstowe, IP11 2GN"
2026-04-02,1930486,Slices To Go Ltd,Takeaway/sandwich shop,Unit 14,Beach Street Felixstowe,Micklegate Road,Felixstowe,IP11 2GN,East Suffolk,AwaitingInspection,,FHRS,False,51.9525047,1.3381251,"Unit 14, Beach Street Felixstowe, Micklegate Road, Felixstowe, IP11 2GN"
2026-04-02,1930491,The Little Waffle Women,Takeaway/sandwich shop,,,,,,East Suffolk,AwaitingInspection,,FHRS,False,,,
2026-04-02,1930493,The Long Haul Kitchen,Takeaway/sandwich shop,,,,,,East Suffolk,AwaitingInspection,,FHRS,False,,,
2026-04-02,1930424,Davies & Halpin Building Services Ltd,Takeaway/sandwich shop,City Plumbing Supplies,Trostre Road,Llanelli,Carmarthenshire,SA14 9RA,Carmarthenshire,AwaitingInspection,,FHRS,False,51.673776,-4.1419542,"City Plumbing Supplies, Trostre Road, Llanelli, Carmarthenshire, SA14 9RA"
2026-04-02,1930435,Oh My Cod,Takeaway/sandwich shop,,14d Heol Beili Glas,Llanelli,Carmarthenshire,SA14 8DS,Carmarthenshire,AwaitingInspection,,FHRS,False,51.705869,-4.1377,"14d Heol Beili Glas, Llanelli, Carmarthenshire, SA14 8DS"
2026-04-02,1930433,The Pink Whisk Bakery,Takeaway/sandwich shop,,38 Maes Y Glo,Llanelli,Carmarthenshire,SA14 9PZ,Carmarthenshire,AwaitingInspection,,FHRS,False,51.6800146,-4.1041999,"38 Maes Y Glo, Llanelli, Carmarthenshire, SA14 9PZ"
2026-04-03,1931324,Bombay Tandoori,Takeaway/sandwich shop,,255 Glasgow Road,Hamilton,South Lanarkshire,ML3 0QG,South Lanarkshire,Awaiting Inspection,,FHIS,False,55.7834713,-4.0736983,"255 Glasgow Road, Hamilton, South Lanarkshire, ML3 0QG"
2026-04-03,1931320,Country Park Catering,Takeaway/sandwich shop,K-Park Training Academy Calderglen Country Park,Strathaven Road,East Kilbride,Glasgow,G75 0QZ,South Lanarkshire,Awaiting Inspection,,FHIS,False,55.7485352,-4.1445028,"K-Park Training Academy Calderglen Country Park, Strathaven Road, East Kilbride, Glasgow, G75 0QZ"
2026-04-03,1931398,Malar Spice,Takeaway/sandwich shop,60B Wedgewood Street,Coldharbour,Fairford Leys,Buckinghamshire,HP19 7HL,Buckinghamshire,AwaitingInspection,,FHRS,False,51.8176816,-0.8394491,"60B Wedgewood Street, Coldharbour, Fairford Leys, Buckinghamshire, HP19 7HL"
2026-04-03,1931397,Smash N Fry,Takeaway/sandwich shop,133 Broad Street,Chesham,Buckinghamshire,,HP5 3EF,Buckinghamshire,AwaitingInspection,,FHRS,False,51.710531,-0.60907,"133 Broad Street, Chesham, Buckinghamshire, HP5 3EF"
2026-04-03,1931384,South Indian Cafe,Takeaway/sandwich shop,,,,,,Buckinghamshire,AwaitingInspection,,FHRS,False,,,
2026-04-03,1930896,Bath Superstore Ltd,Takeaway/sandwich shop,Unit A Harrison House,2 Earl Haig Close,Hounslow,,TW4 7BJ,Hounslow,AwaitingInspection,,FHRS,False,51.4721902,-0.3856487,"Unit A Harrison House, 2 Earl Haig Close, Hounslow, TW4 7BJ"
2026-04-03,1930918,Coach & Horses,Takeaway/sandwich shop,The Coach And Horses,684 London Road,Hounslow,,TW3 1PG,Hounslow,AwaitingInspection,,FHRS,False,51.4716028,-0.3517889,"The Coach And Horses, 684 London Road, Hounslow, TW3 1PG"
2026-04-03,1930897,Desi Meals Ltd,Takeaway/sandwich shop,,59 Salisbury Road,Hounslow,,TW4 7NW,Hounslow,AwaitingInspection,,FHRS,False,51.4692893,-0.3969304,"59 Salisbury Road, Hounslow, TW4 7NW"
2026-04-03,1930899,Fusion Treats,Takeaway/sandwich shop,Food Trailer,The Blenheim Centre,Prince Regent Road,,TW3 1NL,Hounslow,AwaitingInspection,,FHRS,False,51.4708553,-0.3616602,"Food Trailer, The Blenheim Centre, Prince Regent Road, TW3 1NL"
2026-04-03,1930876,G.O.A.T's BBQ (Within Royal British Legion Club),Takeaway/sandwich shop,,5-6 North Street,Isleworth,,TW7 6BT,Hounslow,AwaitingInspection,,FHRS,False,51.4691263,-0.3251308,"5-6 North Street, Isleworth, TW7 6BT"
2026-04-03,1930895,Rehan Chaat Corner,Takeaway/sandwich shop,,255a High Street,Hounslow,,TW3 1EA,Hounslow,AwaitingInspection,,FHRS,False,51.468151,-0.3643721,"255a High Street, Hounslow, TW3 1EA"
2026-04-03,1375541,The Bubble Zoo,Takeaway/sandwich shop,,123b Kingsley Road,Hounslow,,TW3 4AJ,Hounslow,AwaitingInspection,,FHRS,False,51.4750024,-0.3586114,"123b Kingsley Road, Hounslow, TW3 4AJ"
2026-04-03,1928284,New Chens,Takeaway/sandwich shop,88 Frogmore Road,Blackwater,Camberley,,GU17 0DF,Hart,AwaitingInspection,,FHRS,True,51.3365519,-0.7966178,"88 Frogmore Road, Blackwater, Camberley, GU17 0DF"
2026-04-03,1800894,Franco's (Kiosk),Takeaway/sandwich shop,Kiosk 1 Water Lane,The Mall Chequers Centre,King Street,Maidstone,ME15 6AR,Maidstone,3,2025-02-12,FHRS,False,51.272654,0.525258,"Kiosk 1 Water Lane, The Mall Chequers Centre, King Street, Maidstone, ME15 6AR"
2026-04-03,1931077,Yummy Yummy Pizza,Takeaway/sandwich shop,,Unit 11 Space Business Centre,,Plato Close,CV34 6YA,Warwick,AwaitingInspection,,FHRS,False,52.273946,-1.5475612,"Unit 11 Space Business Centre, Plato Close, CV34 6YA"
2026-04-03,1931265,Shah's Halal Food,Takeaway/sandwich shop,Unit F2 Lower ConcoursePeacocks CentreVictoria WayWokingSurrey,,,,GU21 6GB,Woking,5,2026-03-31,FHRS,False,,,"Unit F2 Lower ConcoursePeacocks CentreVictoria WayWokingSurrey, GU21 6GB"
2026-04-03,1931517,Bee Place,Takeaway/sandwich shop,,1 Dickson Way,Irvine,North Ayrshire,KA12 9JD,North Ayrshire,Awaiting Inspection,,FHIS,False,55.6279949,-4.666013,"1 Dickson Way, Irvine, North Ayrshire, KA12 9JD"
2026-04-03,1931522,Yolo's,Takeaway/sandwich shop,,84 Main Street,West Kilbride,North Ayrshire,KA23 9AP,North Ayrshire,Awaiting Inspection,,FHIS,False,55.6950936,-4.8565797,"84 Main Street, West Kilbride, North Ayrshire, KA23 9AP"
2026-04-03,1931210,Kerala Arabic House,Takeaway/sandwich shop,360 St Saviours Road,Leicester,,,LE5 4HJ,Leicester City,AwaitingInspection,,FHRS,False,52.6318615,-1.0949018,"360 St Saviours Road, Leicester, LE5 4HJ"
2026-04-03,1931220,Mama Mia,Takeaway/sandwich shop,Euro House Unit 2,1 St John Street,Leicester,,LE1 3WL,Leicester City,AwaitingInspection,,FHRS,False,52.641029,-1.1331311,"Euro House Unit 2, 1 St John Street, Leicester, LE1 3WL"
2026-04-03,1931213,QUICKFOODZ LTD,Takeaway/sandwich shop,16-18 Atkinson Street,Leicester,,,LE5 3QA,Leicester City,AwaitingInspection,,FHRS,False,52.6371011,-1.104215,"16-18 Atkinson Street, Leicester, LE5 3QA"
2026-04-03,1931219,Shelbys Burgers,Takeaway/sandwich shop,319 Aylestone Road,Leicester,,,LE2 7QL,Leicester City,AwaitingInspection,,FHRS,False,52.613383,-1.14287,"319 Aylestone Road, Leicester, LE2 7QL"
2026-04-03,1931221,Vindu Bhojanam,Takeaway/sandwich shop,479 Welford Road,Leicester,,,LE2 6BL,Leicester City,AwaitingInspection,,FHRS,False,52.610986,-1.123541,"479 Welford Road, Leicester, LE2 6BL"
2026-04-03,1931271,Tenbury Fish Bar,Takeaway/sandwich shop,17 Teme Street,Tenbury Wells,Worcestershire,,WR15 8BB,Malvern Hills,AwaitingInspection,,FHRS,True,52.311584,-2.594002,"17 Teme Street, Tenbury Wells, Worcestershire, WR15 8BB"
2026-04-03,1931260,Flappy's Chicken And Peri Peri Chicken,Takeaway/sandwich shop,Southern Cafe And Chicken,4A Station Road,Longfield,Kent,DA3 7QD,Dartford,AwaitingInspection,,FHRS,False,,,"Southern Cafe And Chicken, 4A Station Road, Longfield, Kent, DA3 7QD"
2026-04-03,1931285,Flame Street,Takeaway/sandwich shop,166A Tolladine Road,Worcester,,,WR4 9QH,Worcester City,AwaitingInspection,,FHRS,False,52.1976915,-2.2009169,"166A Tolladine Road, Worcester, WR4 9QH"
2026-04-03,1639693,Bridgford Fish Bar,Takeaway/sandwich shop,39 Radcliffe Road,West Bridgford,Nottinghamshire,,NG2 5FF,Rushcliffe,4,2025-09-25,FHRS,False,52.938102,-1.13275,"39 Radcliffe Road, West Bridgford, Nottinghamshire, NG2 5FF"
2026-04-03,1517185,Roxy The Pink Tuk Box,Takeaway/sandwich shop,,,,,,Rushcliffe,5,2026-04-01,FHRS,False,,,
2026-04-03,1931153,Cantonese Kitchen,Takeaway/sandwich shop,140 Union Road,Oswaldtwistle,Lancashire,,BB5 3DR,Hyndburn,5,2026-03-13,FHRS,False,53.745863,-2.393686,"140 Union Road, Oswaldtwistle, Lancashire, BB5 3DR"
2026-04-03,1765131,Chicken Inn also trading as Jumpworks Takeaway,Takeaway/sandwich shop,55-57 Whalley Road,Accrington,Lancashire,,BB5 1AS,Hyndburn,3,2025-02-05,FHRS,False,53.755321,-2.364503,"55-57 Whalley Road, Accrington, Lancashire, BB5 1AS"
2026-04-03,1931152,Suarez tasty bites,Takeaway/sandwich shop,102 High Street,Rishton,Lancashire,,BB1 4LQ,Hyndburn,5,2026-01-20,FHRS,False,53.7682897,-2.4165303,"102 High Street, Rishton, Lancashire, BB1 4LQ"
2026-04-03,1931139,Zainus,Takeaway/sandwich shop,Reprographic House,Ledgard Way,Armley,Leeds,LS12 2ND,Leeds,AwaitingInspection,,FHRS,False,53.799533,-1.584968,"Reprographic House, Ledgard Way, Armley, Leeds, LS12 2ND"
2026-04-03,1930994,Alan Fish Bar,Takeaway/sandwich shop,21 Broad Street,Ely,Cambridgeshire,,CB7 4BD,East Cambridgeshire,AwaitingInspection,,FHRS,False,52.395342,0.266642,"21 Broad Street, Ely, Cambridgeshire, CB7 4BD"
2026-04-03,1931430,El Greco,Takeaway/sandwich shop,19 High Street,Brandon,Suffolk,,IP27 0AQ,West Suffolk,AwaitingInspection,,FHRS,False,52.4481997,0.6234235,"19 High Street, Brandon, Suffolk, IP27 0AQ"
2026-04-03,1931162,Greenhill Fryer,Takeaway/sandwich shop,31 Woodhouse Road,Coalville,Leicestershire,,LE67 4SX,North West Leicestershire,AwaitingInspection,,FHRS,False,52.720214,-1.340352,"31 Woodhouse Road, Coalville, Leicestershire, LE67 4SX"
2026-04-03,1931169,Measham Pizza Hub,Takeaway/sandwich shop,50 - 52 High Street,Measham,Swadlincote,Derby,DE12 7HZ,North West Leicestershire,AwaitingInspection,,FHRS,False,52.706718,-1.5062861,"50 - 52 High Street, Measham, Swadlincote, Derby, DE12 7HZ"
2026-04-03,1648500,Go Mezze (Unit 26),Takeaway/sandwich shop,Unit 26,Knightsbridge House,Kingsbury Road,London,NW9 8XG,Brent,AwaitingInspection,,FHRS,False,51.5820977,-0.2595141,"Unit 26, Knightsbridge House, Kingsbury Road, London, NW9 8XG"
2026-04-03,1564156,Waves & Wings (Unit 40),Takeaway/sandwich shop,Unit 40,Knightsbridge House,Kingsbury Road,London,NW9 8XG,Brent,AwaitingInspection,,FHRS,False,51.5820977,-0.2595141,"Unit 40, Knightsbridge House, Kingsbury Road, London, NW9 8XG"
2026-04-03,1931230,Domino's Pizza,Takeaway/sandwich shop,,25 Flixton Road,Urmston,Manchester,M41 5AW,Trafford,AwaitingInspection,,FHRS,False,53.448263,-2.355408,"25 Flixton Road, Urmston, Manchester, M41 5AW"
2026-04-03,1931226,The Boundry Coffee Shop,Takeaway/sandwich shop,,Little Ees Ln,Sale,,M33 5GT,Trafford,AwaitingInspection,,FHRS,False,,,"Little Ees Ln, Sale, M33 5GT"
2026-04-03,1651915,City Star,Takeaway/sandwich shop,,181 Linacre Road,Litherland,Merseyside,L21 8JS,Sefton,AwaitingInspection,,FHRS,False,53.4619067,-2.9958036,"181 Linacre Road, Litherland, Merseyside, L21 8JS"
2026-04-03,1576709,Dallas Chicken Mirchi Grill & Pizza,Takeaway/sandwich shop,,252 St Helens Road,Bolton,,BL3 3PZ,Bolton,AwaitingInspection,,FHRS,True,,,"252 St Helens Road, Bolton, BL3 3PZ"
2026-04-03,1931020,Food Court,Takeaway/sandwich shop,,,,,,Bolton,5,2026-03-24,FHRS,False,,,
2026-04-03,1931023,Krave 2.0 Ltd,Takeaway/sandwich shop,,53 Bradshawgate,Bolton,,BL1 1DR,Bolton,AwaitingInspection,,FHRS,False,53.5782546,-2.4262867,"53 Bradshawgate, Bolton, BL1 1DR"
2026-04-03,1931060,Beaches and Creams,Takeaway/sandwich shop,Central Kiosk LTD,Princes Esplanade,Walton On The Naze,Essex,CO14 8QD,Tendring,AwaitingInspection,,FHRS,False,,,"Central Kiosk LTD, Princes Esplanade, Walton On The Naze, Essex, CO14 8QD"
2026-04-03,1931055,Central Kiosk,Takeaway/sandwich shop,Princes Esplanade,Walton On The Naze,Essex,,CO14 8QD,Tendring,AwaitingInspection,,FHRS,False,51.850934,1.274842,"Princes Esplanade, Walton On The Naze, Essex, CO14 8QD"
2026-04-03,1931050,Jay'Z Fried Chicken,Takeaway/sandwich shop,12 Old Pier Street,Walton On The Naze,Essex,,CO14 8AH,Tendring,AwaitingInspection,,FHRS,False,51.848696,1.270903,"12 Old Pier Street, Walton On The Naze, Essex, CO14 8AH"
2026-04-03,1931052,Munchiex,Takeaway/sandwich shop,124 Old Road,Clacton On Sea,Essex,,CO15 3AH,Tendring,AwaitingInspection,,FHRS,False,51.7938213,1.1484974,"124 Old Road, Clacton On Sea, Essex, CO15 3AH"
2026-04-03,1931057,Oakmead Social Club,Takeaway/sandwich shop,Oakmead Road,St Osyth,Clacton On Sea,Essex,CO16 8NW,Tendring,AwaitingInspection,,FHRS,False,51.79499265,1.0375007,"Oakmead Road, St Osyth, Clacton On Sea, Essex, CO16 8NW"
2026-04-03,1931543,Blob – French Toast Cafe,Takeaway/sandwich shop,Mm Ilford,3 Chadwick Road,,Ilford,IG1 1EQ,Redbridge,AwaitingInspection,,FHRS,False,51.5580715,0.0738987,"Mm Ilford, 3 Chadwick Road, Ilford, IG1 1EQ"
2026-04-03,1931536,Burgerwala,Takeaway/sandwich shop,,851 High Road,,Goodmayes,IG3 8TG,Redbridge,AwaitingInspection,,FHRS,False,51.5668149,0.1100685,"851 High Road, Goodmayes, IG3 8TG"
2026-04-03,1931539,Casa bravir,Takeaway/sandwich shop,,14 Roding Lane South,,Ilford,IG4 5NX,Redbridge,AwaitingInspection,,FHRS,False,51.57725,0.045363,"14 Roding Lane South, Ilford, IG4 5NX"
2026-04-03,1931529,Hungerito,Takeaway/sandwich shop,,20 Cranbrook Road,,Ilford,IG1 4DL,Redbridge,AwaitingInspection,,FHRS,False,51.5592457,0.0705632,"20 Cranbrook Road, Ilford, IG1 4DL"
2026-04-03,1725213,Pad Thai House,Takeaway/sandwich shop,Mm Ilford,3 Chadwick Road,,Ilford,IG1 1EQ,Redbridge,5,2024-08-14,FHRS,False,51.5580715,0.0738987,"Mm Ilford, 3 Chadwick Road, Ilford, IG1 1EQ"
2026-04-03,1930976,Jewson Ltd,Takeaway/sandwich shop,Jewson 15 - 16 Farnham Trading Estate,,Farnham,Surrey,GU9 9NS,Waverley,AwaitingInspection,,FHRS,False,,,"Jewson 15 - 16 Farnham Trading Estate, Farnham, Surrey, GU9 9NS"
2026-04-03,1889446,Aroma,Takeaway/sandwich shop,4 Lansdowne Hill,London,,,SE27 0AR,Lambeth,5,2026-01-25,FHRS,False,51.434482,-0.104995,"4 Lansdowne Hill, London, SE27 0AR"
2026-04-03,1931123,BFC Chicken,Takeaway/sandwich shop,Business,20 Sunnyhill Road,London,,SW16 2UH,Lambeth,AwaitingInspection,,FHRS,False,51.4303773,-0.1283024,"Business, 20 Sunnyhill Road, London, SW16 2UH"
2026-04-03,1931124,Morley's Chickem (Oval Station),Takeaway/sandwich shop,Ground Floor,332 Kennington Park Road,London,,SE11 4PP,Lambeth,AwaitingInspection,,FHRS,False,51.4813062,-0.1133433,"Ground Floor, 332 Kennington Park Road, London, SE11 4PP"
2026-04-03,1931127,Smile Within Foodies,Takeaway/sandwich shop,19 Tannoy Square,London,,,SE27 9SG,Lambeth,AwaitingInspection,,FHRS,False,51.4283778,-0.0907808,"19 Tannoy Square, London, SE27 9SG"
2026-04-03,1931126,The Pizza's & Burger's,Takeaway/sandwich shop,161 - 163 Greyhound Lane,London,,,SW16 5NJ,Lambeth,AwaitingInspection,,FHRS,False,51.4219607,-0.1294661,"161 - 163 Greyhound Lane, London, SW16 5NJ"
2026-04-03,1287574,Wellatino Aka Migue's Restaurant And Bar,Takeaway/sandwich shop,40 - 42 Brixton Road,London,,,SW9 6BT,Lambeth,5,2025-03-15,FHRS,False,51.479503,-0.112,"40 - 42 Brixton Road, London, SW9 6BT"
2026-04-03,1930854,Food 4 International,Takeaway/sandwich shop,3 Southend Road,Grays,Essex,,RM17 5NH,Thurrock,AwaitingInspection,,FHRS,False,51.4834071,0.3362393,"3 Southend Road, Grays, Essex, RM17 5NH"
2026-04-03,1931409,IMY FRESH HALAL MEAT,Takeaway/sandwich shop,,,,,,Windsor and Maidenhead,AwaitingInspection,,FHRS,False,,,
2026-04-03,461458,Broadway Chippy,Takeaway/sandwich shop,,35 Broadway,Swinton,Rotherham,S64 8HD,Rotherham,AwaitingInspection,,FHRS,False,53.4833,-1.326485,"35 Broadway, Swinton, Rotherham, S64 8HD"
2026-04-03,191989,Crepes & Bubbles,Takeaway/sandwich shop,,33 Whitefriargate,Kingston Upon Hull,,HU1 2EX,Hull City,AwaitingInspection,,FHRS,False,53.7432678,-0.3376847,"33 Whitefriargate, Kingston Upon Hull, HU1 2EX"
2026-04-03,666753,The Big Fat Greek,Takeaway/sandwich shop,,1044 Anlaby Road,Kingston Upon Hull,,HU4 7RA,Hull City,AwaitingInspection,,FHRS,False,53.7443962097168,-0.409193992614746,"1044 Anlaby Road, Kingston Upon Hull, HU4 7RA"
2026-04-03,1931347,Wonu’s Cookhouse,Takeaway/sandwich shop,Danish Church,104 Osborne Street,Kingston Upon Hull,,HU1 2PN,Hull City,AwaitingInspection,,FHRS,False,53.7424694,-0.3452211,"Danish Church, 104 Osborne Street, Kingston Upon Hull, HU1 2PN"
2026-04-03,1931103,Forty hall farm coffee,Takeaway/sandwich shop,,Basement Flat 80 Southgate Road London,Hackney,London,N1 3JD,Hackney,AwaitingInspection,,FHRS,False,51.5408723,-0.0849509,"Basement Flat 80 Southgate Road London, Hackney, London, N1 3JD"
2026-04-03,1931091,POPTATA STREET FRIES,Takeaway/sandwich shop,,UNIT 1-28 ECHO BUILDING EAST BAY LANE London,Hackney,London,E15 2SJ,Hackney,AwaitingInspection,,FHRS,False,51.5446467,-0.0214061,"UNIT 1-28 ECHO BUILDING EAST BAY LANE London, Hackney, London, E15 2SJ"
2026-04-03,1930965,Station Road Fish Bar,Takeaway/sandwich shop,30 Station Road,North Walsham,Norfolk,,NR28 0EA,North Norfolk,5,2026-03-20,FHRS,False,52.818806,1.378294,"30 Station Road, North Walsham, Norfolk, NR28 0EA"
2026-04-03,1930875,BEEF GUYS,Takeaway/sandwich shop,,22 Ainsworth Road,Radcliffe,Manchester,M26 4EA,Bury,AwaitingInspection,,FHRS,False,53.564691,-2.333359,"22 Ainsworth Road, Radcliffe, Manchester, M26 4EA"
2026-04-03,1931491,Badboyz Diner Limited,Takeaway/sandwich shop,56 Queens Market,Upton Park,London,,E13 9BA,Newham,AwaitingInspection,,FHRS,False,51.5343944,0.0348443,"56 Queens Market, Upton Park, London, E13 9BA"
2026-04-03,1914662,Behrouz Biryani / Faasos / Dish'd / Eugreeka / Leb Nom / Bao & Bowls / Wingology,Takeaway/sandwich shop,748 - 750 Romford Road,Manor Park,London,,E12 6BU,Newham,1,2026-02-06,FHRS,False,51.5528681,0.0542908,"748 - 750 Romford Road, Manor Park, London, E12 6BU"
2026-04-03,1931473,Croffle Haus,Takeaway/sandwich shop,33 Upton Lane,Forest Gate,London,,E7 9PA,Newham,AwaitingInspection,,FHRS,False,51.5448925,0.0263419,"33 Upton Lane, Forest Gate, London, E7 9PA"
2026-04-03,1931484,Shake Point,Takeaway/sandwich shop,41 - 43 Plashet Grove,East Ham,London,,E6 1AD,Newham,AwaitingInspection,,FHRS,False,51.5372752,0.0365168,"41 - 43 Plashet Grove, East Ham, London, E6 1AD"
2026-04-03,1931450,Sushidog Limited,Takeaway/sandwich shop,114 The Gallery,Westfield Stratford City,Montfichet Road,Stratford,E20 1EP,Newham,AwaitingInspection,,FHRS,False,,,"114 The Gallery, Westfield Stratford City, Montfichet Road, Stratford, E20 1EP"
2026-04-03,1931436,The Chillies Kitchen Pvt Ltd,Takeaway/sandwich shop,274 - 276 Neville Road,Forest Gate,London,,E7 9QN,Newham,AwaitingInspection,,FHRS,False,51.538321,0.0329573,"274 - 276 Neville Road, Forest Gate, London, E7 9QN"
2026-04-03,1931469,West Ham Fish And Chips,Takeaway/sandwich shop,132 Barking Road,Canning Town,London,,E16 1EN,Newham,AwaitingInspection,,FHRS,False,51.517515,0.012417,"132 Barking Road, Canning Town, London, E16 1EN"
2026-04-03,1931493,Wonton Company,Takeaway/sandwich shop,14 Bramall Close,Stratford,London,,E15 1RR,Newham,AwaitingInspection,,FHRS,False,51.550002,0.011557,"14 Bramall Close, Stratford, London, E15 1RR"
2026-04-03,1930955,W B Catering (Fat Nancys),Takeaway/sandwich shop,112 Wallsend Road,North Shields,Tyne And Wear,,NE29 7AB,North Tyneside,5,2026-03-22,FHRS,False,55.004624,-1.470977,"112 Wallsend Road, North Shields, Tyne And Wear, NE29 7AB"
2026-04-03,204010,Mr D's Takeaway,Takeaway/sandwich shop,8 St George's Place,Kingsmead,Bath,Bath And North East Somerset,BA1 3AA,Bath and North East Somerset,5,2024-09-24,FHRS,False,51.383667,-2.370383,"8 St George's Place, Kingsmead, Bath, Bath And North East Somerset, BA1 3AA"
2026-04-03,1931255,Bella Pizza,Takeaway/sandwich shop,40 High Street,Honiton,,,EX14 1PJ,East Devon,AwaitingInspection,,FHRS,True,50.800324,-3.186341,"40 High Street, Honiton, EX14 1PJ"
2026-04-03,1931254,The Dogs Nutz,Takeaway/sandwich shop,,,,,,East Devon,AwaitingInspection,,FHRS,False,,,
2026-04-03,1931597,Abadan,Takeaway/sandwich shop,Ground Floor,1 King Street,Acton,,W3 9LA,Ealing,AwaitingInspection,,FHRS,False,51.5078913,-0.2728933,"Ground Floor, 1 King Street, Acton, W3 9LA"
2026-04-03,1931573,Abi Fast Food,Takeaway/sandwich shop,233 The Broadway,Southall,,,UB1 1ND,Ealing,0,2026-01-28,FHRS,False,51.512635,-0.387609,"233 The Broadway, Southall, UB1 1ND"
2026-04-03,1425999,DongYuan,Takeaway/sandwich shop,Unit F05 & G06,Acton Business Centre,School Road,Park Royal,NW10 6TD,Ealing,0,2026-03-12,FHRS,False,51.5257435,-0.2584215,"Unit F05 & G06, Acton Business Centre, School Road, Park Royal, NW10 6TD"
2026-04-03,1931572,Selekt Chicken Southall,Takeaway/sandwich shop,50 High Street,Southall,,,UB1 3DB,Ealing,2,2026-01-22,FHRS,False,51.5108333,-0.3736746,"50 High Street, Southall, UB1 3DB"
2026-04-03,1931582,Triangle Surf And Turf / Fire Rooster / Furious Chicken / Surf And Turf Smash Burgers / Naples Pizza Pie / Naples Pasta / Furious Crab And Seafood Boils / Papi Taco / Rebel Rito,Takeaway/sandwich shop,191 Acton Lane,Chiswick,,,W4 5DA,Ealing,3,2026-02-04,FHRS,False,51.499881,-0.264529,"191 Acton Lane, Chiswick, W4 5DA"
2026-04-03,1931362,Cobblers Sandwiches,Takeaway/sandwich shop,103 Westgate,Wakefield,,,WF1 1EL,Wakefield,5,2026-03-31,FHRS,False,53.681578,-1.503418,"103 Westgate, Wakefield, WF1 1EL"
2026-04-03,1931357,Hannis Pizzeria,Takeaway/sandwich shop,13 Carlton Street,Castleford,,,WF10 1AX,Wakefield,AwaitingInspection,,FHRS,False,53.726493,-1.349524,"13 Carlton Street, Castleford, WF10 1AX"
2026-04-03,1931358,Kam Chuan,Takeaway/sandwich shop,188 Station Road,Ossett,,,WF5 0JQ,Wakefield,AwaitingInspection,,FHRS,False,53.673713,-1.570962,"188 Station Road, Ossett, WF5 0JQ"
2026-04-03,1930929,Sophie Bakes N Cakes,Takeaway/sandwich shop,,,,,,Stroud,AwaitingInspection,,FHRS,False,,,
2026-04-03,1922024,Kitchens Kitchen,Takeaway/sandwich shop,Cornish Market World,Stadium Retail Park,Par Moor Road,St Austell,PL25 3RP,Cornwall,5,2026-03-25,FHRS,False,50.344597,-4.736336,"Cornish Market World, Stadium Retail Park, Par Moor Road, St Austell, PL25 3RP"
2026-04-03,1931107,Cove Coffee Shop,Takeaway/sandwich shop,The Boathouse,Steephill Cove,Ventnor,Isle Of Wight,PO38 1UG,Isle of Wight,AwaitingInspection,,FHRS,False,50.589111,-1.223893,"The Boathouse, Steephill Cove, Ventnor, Isle Of Wight, PO38 1UG"
2026-04-03,585292,CHIP N TAILS,Takeaway/sandwich shop,45 HOLLYBANK CRESCENT,HYTHE,SOUTHAMPTON,,SO45 5FZ,New Forest,AwaitingInspection,,FHRS,False,50.86556,-1.404782,"45 HOLLYBANK CRESCENT, HYTHE, SOUTHAMPTON, SO45 5FZ"
2026-04-04,1931603,Platito by Mangan,Takeaway/sandwich shop,,,105 Springfield Road,Belfast,BT12 7AE,Belfast City,5,2026-03-25,FHRS,False,54.5976528,-5.9580037,"105 Springfield Road, Belfast, BT12 7AE"
2026-04-04,59914,Sphinx,Takeaway/sandwich shop,,,74 Stranmillis Road,Belfast,BT9 5AD,Belfast City,4,2026-03-11,FHRS,False,54.579193,-5.934424,"74 Stranmillis Road, Belfast, BT9 5AD"
2026-04-06,1931629,Bread & Butter,Takeaway/sandwich shop,Street Record Swan Street,,Merthyr Tydfil,,,Merthyr Tudful,AwaitingInspection,,FHRS,False,,,"Street Record Swan Street, Merthyr Tydfil"
2026-04-06,1931626,The Hungry flame,Takeaway/sandwich shop,,,,,,Merthyr Tudful,AwaitingInspection,,FHRS,False,,,
2026-04-06,1931629,Bread & Butter,Takeaway/sandwich shop,Street Record Swan Street,,Merthyr Tydfil,,,Merthyr Tydfil,AwaitingInspection,,FHRS,False,,,"Street Record Swan Street, Merthyr Tydfil"
2026-04-06,1931626,The Hungry flame,Takeaway/sandwich shop,,,,,,Merthyr Tydfil,AwaitingInspection,,FHRS,False,,,
2026-04-08,1932004,Wok And Boa,Takeaway/sandwich shop,31 Tower View Road,Great Wyrley,WALSALL,,WS6 6HF,South Staffordshire,AwaitingInspection,,FHRS,False,52.6507481,-2.0165502,"31 Tower View Road, Great Wyrley, WALSALL, WS6 6HF"
2026-04-08,1931782,Graze \& Glory Co,Takeaway/sandwich shop,,,,,,Reigate and Banstead,AwaitingInspection,,FHRS,False,,,
2026-04-08,1931720,MOMOPLUS+,Takeaway/sandwich shop,Newport Provisions Market,High Street,Newport,South Wales,,Newport,AwaitingInspection,,FHRS,False,51.5889324,-2.9963954,"Newport Provisions Market, High Street, Newport, South Wales"
2026-04-08,1931723,Parmasan Grill House Of Royal Shisha,Takeaway/sandwich shop,203 Corporation Road,Newport,South Wales,,NP19 0EB,Newport,5,2026-03-24,FHRS,False,51.5860788,-2.9807731,"203 Corporation Road, Newport, South Wales, NP19 0EB"
2026-04-08,1931718,Spice Elephant Indian Takeaway,Takeaway/sandwich shop,113 Bassaleg Road,Newport,South Wales,,NP20 3NA,Newport,AwaitingInspection,,FHRS,False,51.5801799,-3.0198441,"113 Bassaleg Road, Newport, South Wales, NP20 3NA"
2026-04-08,1931889,Salt and vinegar,Takeaway/sandwich shop,115 London Road,,Twickenham,Richmond Upon Thames,TW1 1EE,Richmond-Upon-Thames,AwaitingInspection,,FHRS,False,51.4510212,-0.3318468,"115 London Road, Twickenham, Richmond Upon Thames, TW1 1EE"
2026-04-08,1931765,Crunchy Kebab LTD,Takeaway/sandwich shop,143 - 145 Hamlet Court Road,Westcliff-on-sea,Essex,,SS0 7EW,Southend-On-Sea,3,2026-01-02,FHRS,False,51.5404206,0.6946194,"143 - 145 Hamlet Court Road, Westcliff-on-sea, Essex, SS0 7EW"
2026-04-08,1931749,Jerk Meets Jollof,Takeaway/sandwich shop,Unit B,Olivia Court,59 Canewdon Road,Westcliff-on-sea,SS0 7HE,Southend-On-Sea,4,2026-01-05,FHRS,False,,,"Unit B, Olivia Court, 59 Canewdon Road, Westcliff-on-sea, SS0 7HE"
2026-04-08,1931827,#1 Fish Bar,Takeaway/sandwich shop,8 THE CENTRAL PRECINCT WINCHESTER ROAD CHANDLER'S FORD EASTLEIGH SO53 2GB,,,,SO53 2GB,Eastleigh,AwaitingInspection,,FHRS,False,50.9826054,-1.3828696,"8 THE CENTRAL PRECINCT WINCHESTER ROAD CHANDLER'S FORD EASTLEIGH SO53 2GB, SO53 2GB"
2026-04-08,1931994,Alis,Takeaway/sandwich shop,1A - 1B Tempest Road,Beeston,Leeds,,LS11 6AU,Leeds,AwaitingInspection,,FHRS,False,53.776891,-1.554479,"1A - 1B Tempest Road, Beeston, Leeds, LS11 6AU"
2026-04-08,1931706,Boba Tea House (Mobile),Takeaway/sandwich shop,6 Cross Street,Barnstaple,Devon,,EX31 1BA,North Devon,AwaitingInspection,,FHRS,False,51.0798158,-4.060792,"6 Cross Street, Barnstaple, Devon, EX31 1BA"
2026-04-08,1931959,Lucky House,Takeaway/sandwich shop,Dean Road,,,Scarborough,YO12 7SN,North Yorkshire,AwaitingInspection,,FHRS,True,,,"Dean Road, Scarborough, YO12 7SN"
2026-04-08,1931971,Rice and Spice,Takeaway/sandwich shop,Pavilion Terrace,,,,,North Yorkshire,AwaitingInspection,,FHRS,True,,,Pavilion Terrace
2026-04-08,1931977,Spud Stop,Takeaway/sandwich shop,Flamingo Land Kirby Misperton,,,Malton,YO17 6UX,North Yorkshire,AwaitingInspection,,FHRS,False,54.2059,-0.8080156,"Flamingo Land Kirby Misperton, Malton, YO17 6UX"
2026-04-08,1931720,MOMOPLUS+,Takeaway/sandwich shop,Newport Provisions Market,High Street,Newport,South Wales,,Casnewydd,AwaitingInspection,,FHRS,False,51.5889324,-2.9963954,"Newport Provisions Market, High Street, Newport, South Wales"
2026-04-08,1931723,Parmasan Grill House Of Royal Shisha,Takeaway/sandwich shop,203 Corporation Road,Newport,South Wales,,NP19 0EB,Casnewydd,5,2026-03-24,FHRS,False,51.5860788,-2.9807731,"203 Corporation Road, Newport, South Wales, NP19 0EB"
2026-04-08,1931718,Spice Elephant Indian Takeaway,Takeaway/sandwich shop,113 Bassaleg Road,Newport,South Wales,,NP20 3NA,Casnewydd,AwaitingInspection,,FHRS,False,51.5801799,-3.0198441,"113 Bassaleg Road, Newport, South Wales, NP20 3NA"
2026-04-08,1931885,Dodam Korea - Vauxhall,Takeaway/sandwich shop,76 - 82 Stewarts Road,,London,Wandsworth,SW8 4DE,Wandsworth,AwaitingInspection,,FHRS,False,51.47488,-0.14039,"76 - 82 Stewarts Road, London, Wandsworth, SW8 4DE"
2026-04-08,1931846,Tops Pizza Wandsworth,Takeaway/sandwich shop,179 Wandsworth High Street,,London,Wandsworth,SW18 4JE,Wandsworth,AwaitingInspection,,FHRS,False,51.4570135,-0.197113,"179 Wandsworth High Street, London, Wandsworth, SW18 4JE"
2026-04-08,1931922,AJ's Kitchen,Takeaway/sandwich shop,142 Arbroath Road,Dundee,,,DD4 7PU,Dundee City,Pass,2026-03-25,FHIS,False,56.473559,-2.929372,"142 Arbroath Road, Dundee, DD4 7PU"
2026-04-08,1931682,Shin's Indian Takeaway,Takeaway/sandwich shop,Yummy Yummy Rice House,89 Harrowby Road,Fordhouses,Wolverhampton,WV10 6EP,Wolverhampton,AwaitingInspection,,FHRS,False,52.6251597,-2.1359868,"Yummy Yummy Rice House, 89 Harrowby Road, Fordhouses, Wolverhampton, WV10 6EP"
2026-04-08,1931678,The Deals Outlet,Takeaway/sandwich shop,Unit R,Wolverhampton Retail Market,Temple Street,City Centre,WV2 4AJ,Wolverhampton,AwaitingInspection,,FHRS,False,52.5836800002632,-2.13306999971482,"Unit R, Wolverhampton Retail Market, Temple Street, City Centre, WV2 4AJ"
2026-04-08,1931686,Bangin Bites,Takeaway/sandwich shop,The Pavilion Hill Top Playing Fields Gun Hill,,Arley,Warwickshire,CV7 8HA,North Warwickshire,AwaitingInspection,,FHRS,False,52.5085198,-1.5615924,"The Pavilion Hill Top Playing Fields Gun Hill, Arley, Warwickshire, CV7 8HA"
2026-04-08,1931691,Habib Indian takeaway,Takeaway/sandwich shop,15A Royal Parade Central Avenue,,Bersted,West Sussex,PO21 5AJ,Arun,AwaitingInspection,,FHRS,False,50.797107,-0.6914401,"15A Royal Parade Central Avenue, Bersted, West Sussex, PO21 5AJ"
2026-04-08,1931695,Herbies hatch,Takeaway/sandwich shop,Kiosk Angmering Railway Station Station Road,,Angmering,West Sussex,BN16 3RE,Arun,AwaitingInspection,,FHRS,False,50.8165804,-0.4891708,"Kiosk Angmering Railway Station Station Road, Angmering, West Sussex, BN16 3RE"
2026-04-08,1931981,Seaworld Fish and Grill,Takeaway/sandwich shop,193 Cell Barnes Lane,St Albans,Hertfordshire,,AL1 5PX,St Albans City,AwaitingInspection,,FHRS,False,51.74371,-0.31249,"193 Cell Barnes Lane, St Albans, Hertfordshire, AL1 5PX"
2026-04-08,1931997,Samrich (Smash. Fries. Shakes),Takeaway/sandwich shop,17 Perry Vale,London,,,SE23 2NE,Lewisham,AwaitingInspection,,FHRS,False,51.4394202,-0.0519453,"17 Perry Vale, London, SE23 2NE"
2026-04-08,1931638,Licence To Fill,Takeaway/sandwich shop,Shop 5B Fleet Street Torquay,,,,TQ1 1BX,Torbay,AwaitingInspection,,FHRS,False,50.462665,-3.525573,"Shop 5B Fleet Street Torquay, TQ1 1BX"
2026-04-08,1931917,Hashtag Fusion,Takeaway/sandwich shop,84 High Street,Cleator Moor,Cumbria,CA25 5BL,,Cumberland,5,2026-03-12,FHRS,False,54.521914,-3.5172415,"84 High Street, Cleator Moor, Cumbria, CA25 5BL"
2026-04-08,1931947,Tasty Hut,Takeaway/sandwich shop,17 Duke Street,Whitehaven,Cumbria,CA28 7ET,,Cumberland,AwaitingInspection,,FHRS,True,54.5493775,-3.5872419,"17 Duke Street, Whitehaven, Cumbria, CA28 7ET"
2026-04-08,1931948,Whitehaven Tandoori & Burrito Bar,Takeaway/sandwich shop,7 Strand Street,Whitehaven,Cumbria,CA28 7LF,,Cumberland,AwaitingInspection,,FHRS,True,54.5491905,-3.5889801,"7 Strand Street, Whitehaven, Cumbria, CA28 7LF"
2026-04-08,1931817,Bangz,Takeaway/sandwich shop,,,,,,Merton,AwaitingInspection,,FHRS,False,,,
2026-04-08,1931816,Rey’s kitchen ltd,Takeaway/sandwich shop,20 South Lodge Avenue,,Mitcham,Merton,CR4 1LU,Merton,AwaitingInspection,,FHRS,False,51.3997611,-0.1324816,"20 South Lodge Avenue, Mitcham, Merton, CR4 1LU"
2026-04-08,1931810,Ziggy’s World - New Malden,Takeaway/sandwich shop,214 Burlington Road,,New Malden,Merton,KT3 4NW,Merton,AwaitingInspection,,FHRS,False,51.3995453,-0.2418048,"214 Burlington Road, New Malden, Merton, KT3 4NW"
2026-04-09,1922047,Bradwell Mandarin,Takeaway/sandwich shop,,40 Homefield Avenue,Bradwell,Norfolk,NR31 8NS,Great Yarmouth,4,2026-03-04,FHRS,False,52.576745,1.6977,"40 Homefield Avenue, Bradwell, Norfolk, NR31 8NS"
2026-04-09,1932156,BBQ-BOSS,Takeaway/sandwich shop,40 Brambles Enterprise Centre Waterberry Drive,,Waterlooville,,PO7 7TH,Havant,AwaitingInspection,,FHRS,False,50.8869696,-1.0443208,"40 Brambles Enterprise Centre Waterberry Drive, Waterlooville, PO7 7TH"
2026-04-09,1932322,Ni Hao Fish Bar,Takeaway/sandwich shop,68 Liscard Road,Wallasey,Wirral,,CH44 8AA,Wirral,5,2026-03-26,FHRS,False,53.4161196,-3.0310162,"68 Liscard Road, Wallasey, Wirral, CH44 8AA"
2026-04-09,1932018,Nepali Food House,Takeaway/sandwich shop,,,,,,Ashford,AwaitingInspection,,FHRS,False,,,
2026-04-09,1932031,Chicken Cottage,Takeaway/sandwich shop,5a Westbourne Parade,Uxbridge Road,,Uxbridge,UB10 0NY,Hillingdon,AwaitingInspection,,FHRS,True,51.52902,-0.445662,"5a Westbourne Parade, Uxbridge Road, Uxbridge, UB10 0NY"
2026-04-09,1932027,Phat Bros,Takeaway/sandwich shop,8 Northfield Parade,Station Road,,Hayes,UB3 4JA,Hillingdon,AwaitingInspection,,FHRS,True,51.50098,-0.423896,"8 Northfield Parade, Station Road, Hayes, UB3 4JA"
2026-04-09,1932032,Pizza Pad,Takeaway/sandwich shop,Unit lm04 Market Hall,Pavilions shopping centre,,Uxbridge,UB8 1LH,Hillingdon,AwaitingInspection,,FHRS,False,,,"Unit lm04 Market Hall, Pavilions shopping centre, Uxbridge, UB8 1LH"
2026-04-09,1932151,Millarston Dairy,Takeaway/sandwich shop,,128 Ferguslie,Paisley,Renfrewshire,PA1 2XP,Renfrewshire,Awaiting Inspection,,FHIS,False,55.840413,-4.459553,"128 Ferguslie, Paisley, Renfrewshire, PA1 2XP"
2026-04-09,1932263,Shangri-La,Takeaway/sandwich shop,5A High Street,,Thatcham,West Berkshire,RG19 3JG,West Berkshire,AwaitingInspection,,FHRS,False,51.4034328,-1.2580635,"5A High Street, Thatcham, West Berkshire, RG19 3JG"
2026-04-09,1932301,The Royal Fryer,Takeaway/sandwich shop,,1 Main Street,,,NG17 2QW,Ashfield,AwaitingInspection,,FHRS,False,53.1282501220703,-1.30320298671722,"1 Main Street, NG17 2QW"
2026-04-09,1932058,Chicks Rotisserie,Takeaway/sandwich shop,93 - 95 High Street,Selsey,Chichester,West Sussex,PO20 0QL,Chichester,AwaitingInspection,,FHRS,False,50.7330484,-0.7914831,"93 - 95 High Street, Selsey, Chichester, West Sussex, PO20 0QL"
2026-04-09,1932043,La 2 Cumetri,Takeaway/sandwich shop,32-33 Market Place,Middlesbrough,,,TS3 6HR,Middlesbrough,AwaitingInspection,,FHRS,False,54.571395,-1.213997,"32-33 Market Place, Middlesbrough, TS3 6HR"
2026-04-09,1932044,Phoenix Cottage,Takeaway/sandwich shop,4A Northumberland Street,Wallsend,Tyne And Wear,,NE28 7QB,North Tyneside,5,2026-03-25,FHRS,False,54.9922998,-1.5271503,"4A Northumberland Street, Wallsend, Tyne And Wear, NE28 7QB"
2026-04-09,1932242,Berries,Takeaway/sandwich shop,Food Court,Charles Street Mall,The Broadway,Bradford,BD1 1US,Bradford,AwaitingInspection,,FHRS,False,53.7943971,-1.7501107,"Food Court, Charles Street Mall, The Broadway, Bradford, BD1 1US"
2026-04-09,1932225,Domino's Pizza,Takeaway/sandwich shop,,4 Springs Pavement,,Ilkley,LS29 8DD,Bradford,AwaitingInspection,,FHRS,False,,,"4 Springs Pavement, Ilkley, LS29 8DD"
2026-04-09,977998,Juice’d,Takeaway/sandwich shop,,444 Thornton Road,Bradford,,BD8 9BS,Bradford,AwaitingInspection,,FHRS,False,53.799092615406,-1.78301837117881,"444 Thornton Road, Bradford, BD8 9BS"
2026-04-09,1932239,Mr T’s,Takeaway/sandwich shop,Unit 19 Darley Street Market,Darley Street,Bradford,,BD1 3AW,Bradford,AwaitingInspection,,FHRS,False,53.7955645,-1.7539901,"Unit 19 Darley Street Market, Darley Street, Bradford, BD1 3AW"
2026-04-09,1932087,Dirtydog Dorset Co ltd,Takeaway/sandwich shop,Horton Wimborn Road,,Horton,,BH21 7HL,Dorset,AwaitingInspection,,FHRS,False,,,"Horton Wimborn Road, Horton, BH21 7HL"
2026-04-09,1932077,Empire Kebab and Pizza,Takeaway/sandwich shop,31 High East Street,,Dorchester,,DT1 1HF,Dorset,AwaitingInspection,,FHRS,False,50.7156203,-2.4357095,"31 High East Street, Dorchester, DT1 1HF"
2026-04-09,1577178,Pizza 2 Night,Takeaway/sandwich shop,36 Upper Richmond Road,,London,Wandsworth,SW15 2RX,Wandsworth,5,2025-07-29,FHRS,False,51.4569044,-0.2043849,"36 Upper Richmond Road, London, Wandsworth, SW15 2RX"
2026-04-09,1932251,Four Three Pizza,Takeaway/sandwich shop,49 Undercliff Road West,Felixstowe,Suffolk,,IP11 2AD,East Suffolk,AwaitingInspection,,FHRS,False,51.958655,1.34595,"49 Undercliff Road West, Felixstowe, Suffolk, IP11 2AD"
2026-04-09,1932193,DARBY END FISH AND CHIPS,Takeaway/sandwich shop,63A Northfield Road,Netherton,Dudley,,DY2 9JQ,Dudley,AwaitingInspection,,FHRS,False,52.489042,-2.078156,"63A Northfield Road, Netherton, Dudley, DY2 9JQ"
2026-04-09,1932191,Four seasons Chinese takeaway,Takeaway/sandwich shop,Four Seasons,5A Enville Road,Wall Heath,Kingswinford,DY6 0JT,Dudley,AwaitingInspection,,FHRS,False,52.5052866,-2.1791596,"Four Seasons, 5A Enville Road, Wall Heath, Kingswinford, DY6 0JT"
2026-04-09,1932188,Fusion Spice,Takeaway/sandwich shop,25 High Street,Quarry Bank,Brierley Hill,,DY5 2JW,Dudley,AwaitingInspection,,FHRS,False,52.472947,-2.105495,"25 High Street, Quarry Bank, Brierley Hill, DY5 2JW"
2026-04-09,1932166,Kingswinford pizza,Takeaway/sandwich shop,Kingswinford Pizza,3 Dingle Road,Kingswinford,,DY6 8UE,Dudley,AwaitingInspection,,FHRS,True,52.4896263,-2.1428198,"Kingswinford Pizza, 3 Dingle Road, Kingswinford, DY6 8UE"
2026-04-09,1932167,Pizza GoGo,Takeaway/sandwich shop,84 Dudley Road,Lye,Stourbridge,,DY9 8ET,Dudley,AwaitingInspection,,FHRS,False,52.4596552,-2.1168789,"84 Dudley Road, Lye, Stourbridge, DY9 8ET"
2026-04-09,1932198,Pizza posh,Takeaway/sandwich shop,Pizza Posh,40A Clarence Street,Upper Gornal,Dudley,DY3 1UP,Dudley,AwaitingInspection,,FHRS,False,52.5298772,-2.1181109,"Pizza Posh, 40A Clarence Street, Upper Gornal, Dudley, DY3 1UP"
2026-04-09,1932195,Volcano pizza and chicken,Takeaway/sandwich shop,95 Wolverhampton Street,Dudley,,,DY1 3AP,Dudley,AwaitingInspection,,FHRS,False,52.512504,-2.093993,"95 Wolverhampton Street, Dudley, DY1 3AP"
2026-04-09,1932182,Yuminos,Takeaway/sandwich shop,Hurst Green Shopping Centre,7 Woodbury Road,Halesowen,,B62 9RH,Dudley,AwaitingInspection,,FHRS,False,52.470314,-2.016575,"Hurst Green Shopping Centre, 7 Woodbury Road, Halesowen, B62 9RH"
2026-04-09,1932200,Yummy kitchen,Takeaway/sandwich shop,Yummy Kitchen,327 Brettell Lane,Brierley Hill,,DY5 3QR,Dudley,AwaitingInspection,,FHRS,False,52.4757752,-2.1329545,"Yummy Kitchen, 327 Brettell Lane, Brierley Hill, DY5 3QR"
2026-04-09,1932099,Pink Garlic,Takeaway/sandwich shop,,17 Meadow Rise,Billericay,Essex,CM11 2DN,Basildon,AwaitingInspection,,FHRS,False,51.626439,0.428096,"17 Meadow Rise, Billericay, Essex, CM11 2DN"
2026-04-09,1932298,Desi Spot,Takeaway/sandwich shop,Unit M25 The Market,Parliament Square,Oldham,,OL1 1AS,Oldham,AwaitingInspection,,FHRS,False,,,"Unit M25 The Market, Parliament Square, Oldham, OL1 1AS"
2026-04-09,1932297,Fast Food Corner,Takeaway/sandwich shop,Unit M24 The Market,Parliament Square,Oldham,,OL1 1AS,Oldham,AwaitingInspection,,FHRS,False,,,"Unit M24 The Market, Parliament Square, Oldham, OL1 1AS"
2026-04-09,1932293,Spud Station,Takeaway/sandwich shop,Unit M17 The Market,Parliament Square,Oldham,,OL1 1AS,Oldham,AwaitingInspection,,FHRS,False,,,"Unit M17 The Market, Parliament Square, Oldham, OL1 1AS"
2026-04-09,1932127,Iro Sushi,Takeaway/sandwich shop,Left Side,153 High Street,Sutton,,SM1 1JH,Sutton,AwaitingInspection,,FHRS,False,51.3645897,-0.1938777,"Left Side, 153 High Street, Sutton, SM1 1JH"
2026-04-09,1932130,Lean Bean,Takeaway/sandwich shop,,,,,,Sutton,AwaitingInspection,,FHRS,False,,,
2026-04-09,1932132,Stanley Kebab,Takeaway/sandwich shop,142 Stanley Park Road,Carshalton,,,SM5 3JG,Sutton,AwaitingInspection,,FHRS,False,51.354958,-0.162482,"142 Stanley Park Road, Carshalton, SM5 3JG"
2026-04-09,1932095,Star kebab fish chips,Takeaway/sandwich shop,Star Kebab Fish Chips,2 Chester Road,Buckley,Flintshire,CH7 3AE,Flintshire,5,2026-03-26,FHRS,False,53.166766,-3.068335,"Star Kebab Fish Chips, 2 Chester Road, Buckley, Flintshire, CH7 3AE"
2026-04-09,1932095,Star kebab fish chips,Takeaway/sandwich shop,Star Kebab Fish Chips,2 Chester Road,Buckley,Flintshire,CH7 3AE,Sir y Fflint,5,2026-03-26,FHRS,False,53.166766,-3.068335,"Star Kebab Fish Chips, 2 Chester Road, Buckley, Flintshire, CH7 3AE"
2026-04-09,1932271,The Spicy Box,Takeaway/sandwich shop,9 Union Street,Leigh,Wigan,,WN7 1AT,Wigan,AwaitingInspection,,FHRS,False,53.4970019,-2.5178348,"9 Union Street, Leigh, Wigan, WN7 1AT"
2026-04-09,1932106,Fish King,Takeaway/sandwich shop,113B Watling Street,Wellington,Telford,Shropshire,TF1 2NJ,Telford and Wrekin Council,AwaitingInspection,,FHRS,False,52.696188,-2.502618,"113B Watling Street, Wellington, Telford, Shropshire, TF1 2NJ"
2026-04-09,1932318,Afrofood House Company Limited,Takeaway/sandwich shop,,,,,,Dacorum,AwaitingInspection,,FHRS,False,,,
2026-04-10,1922046,Doggers Plaice,Takeaway/sandwich shop,,19-21 Ormesby Road,Caister-On-Sea,Great Yarmouth,NR30 5QJ,Great Yarmouth,4,2026-03-05,FHRS,False,52.6593224,1.7201974,"19-21 Ormesby Road, Caister-On-Sea, Great Yarmouth, NR30 5QJ"
2026-04-10,1932340,Radhuni,Takeaway/sandwich shop,,118 Ashridge Road,Wokingham,,RG40 1PH,Wokingham,AwaitingInspection,,FHRS,False,51.417912,-0.824899,"118 Ashridge Road, Wokingham, RG40 1PH"
2026-04-10,1932581,Pretty Good Coffee At The Pod,Takeaway/sandwich shop,54 Friary Walk,Worcester,,,WR1 3LE,Worcester City,AwaitingInspection,,FHRS,False,,,"54 Friary Walk, Worcester, WR1 3LE"
2026-04-10,1932386,Lions Kebab,Takeaway/sandwich shop,159 High Street,Potters Bar,Hertfordshire,,EN6 5BB,Hertsmere,AwaitingInspection,,FHRS,False,51.697337,-0.1749891,"159 High Street, Potters Bar, Hertfordshire, EN6 5BB"
2026-04-10,1932525,Happy Tokyo,Takeaway/sandwich shop,Knight Road,Strood,,,ME2 2BD,Medway,AwaitingInspection,,FHRS,False,,,"Knight Road, Strood, ME2 2BD"
2026-04-10,1932524,The Fry House,Takeaway/sandwich shop,5 Sherwood House,Walderslade Road,Walderslade,Chatham,ME5 9UD,Medway,AwaitingInspection,,FHRS,False,51.3392844,0.5262181,"5 Sherwood House, Walderslade Road, Walderslade, Chatham, ME5 9UD"
2026-04-10,1932357,King of Biryani,Takeaway/sandwich shop,145 Crwys Road,Cathays,Cardiff,,CF24 4NH,Caerdydd,AwaitingInspection,,FHRS,False,51.4964367,-3.1810471,"145 Crwys Road, Cathays, Cardiff, CF24 4NH"
2026-04-10,1932553,Pollini's Pizza Slice,Takeaway/sandwich shop,24 Lands Lane,Leeds,,,LS1 6LB,Leeds,AwaitingInspection,,FHRS,False,53.798292,-1.5431736,"24 Lands Lane, Leeds, LS1 6LB"
2026-04-10,1932540,Angeloz,Takeaway/sandwich shop,,114a Cannock Road,,Chadsmoor,WS11 5BZ,Cannock Chase,AwaitingInspection,,FHRS,False,52.6998961,-2.0204545,"114a Cannock Road, Chadsmoor, WS11 5BZ"
2026-04-10,1932539,The Shalimar South Asian Takeaway,Takeaway/sandwich shop,,93 Fernwood Drive,,Rugeley,WS15 2PY,Cannock Chase,AwaitingInspection,,FHRS,False,52.7658418,-1.9484813,"93 Fernwood Drive, Rugeley, WS15 2PY"
2026-04-10,1466627,Sweet Dreams North Tyneside,Takeaway/sandwich shop,11 - 13 West Percy Street,North Shields,Tyne And Wear,,NE29 0AH,North Tyneside,AwaitingInspection,,FHRS,True,55.0097683,-1.4478722,"11 - 13 West Percy Street, North Shields, Tyne And Wear, NE29 0AH"
2026-04-10,1932485,Dottie’s Desserts,Takeaway/sandwich shop,138 St. Albans Road,,Lytham St. Annes,,FY8 1UY,Fylde,AwaitingInspection,,FHRS,False,53.7555749,-3.0202097,"138 St. Albans Road, Lytham St. Annes, FY8 1UY"
2026-04-10,1932483,Dottie's Desserts,Takeaway/sandwich shop,138 St Albans Road,,Lytham St Annes,Lancashire,FY8 1UY,Fylde,AwaitingInspection,,FHRS,False,53.7555749,-3.0202097,"138 St Albans Road, Lytham St Annes, Lancashire, FY8 1UY"
2026-04-10,1932486,Foodyz pizza and grill,Takeaway/sandwich shop,Kirkham,,Preston,,PR4 2JP,Fylde,AwaitingInspection,,FHRS,False,,,"Kirkham, Preston, PR4 2JP"
2026-04-10,1863007,Goodlife Kitchen,Takeaway/sandwich shop,8 Orchard Road,,Lytham St Annes,Lancashire,FY8 1RY,Fylde,AwaitingInspection,,FHRS,False,53.750877,-3.0312215,"8 Orchard Road, Lytham St Annes, Lancashire, FY8 1RY"
2026-04-10,85274,Take Home Meals,Takeaway/sandwich shop,129 St Albans Road,,Lytham St Annes,Lancashire,FY8 1UZ,Fylde,4,2024-04-15,FHRS,False,53.7555681,-3.0210134,"129 St Albans Road, Lytham St Annes, Lancashire, FY8 1UZ"
2026-04-10,1932477,The Captains Table,Takeaway/sandwich shop,Chip Shop Newton Hall Holiday Centre Staining Road,,Staining,Lancashire,,Fylde,1,2025-10-30,FHRS,False,,,"Chip Shop Newton Hall Holiday Centre Staining Road, Staining, Lancashire"
2026-04-10,1932575,Bite Fill At Avoncroft,Takeaway/sandwich shop,Redditch Road,Stoke Heath,Worcestershire,,B60 4JR,Bromsgrove,AwaitingInspection,,FHRS,False,,,"Redditch Road, Stoke Heath, Worcestershire, B60 4JR"
2026-04-10,1932471,Catch Fish N Chips,Takeaway/sandwich shop,261 Main Road,Sidcup,Kent,,DA14 6QS,Bexley,AwaitingInspection,,FHRS,False,51.429547,0.088061,"261 Main Road, Sidcup, Kent, DA14 6QS"
2026-04-10,1932468,Golden Star,Takeaway/sandwich shop,5 Lingfield Crescent,London,,,SE9 2RL,Bexley,AwaitingInspection,,FHRS,False,51.459121,0.081118,"5 Lingfield Crescent, London, SE9 2RL"
2026-04-10,1932466,Tops Pizza - Welling,Takeaway/sandwich shop,35B Bellegrove Road,Welling,Kent,,DA16 3PB,Bexley,AwaitingInspection,,FHRS,False,51.4627952575684,0.104436002671719,"35B Bellegrove Road, Welling, Kent, DA16 3PB"
2026-04-10,1932628,Ziggy's World - Waddon,Takeaway/sandwich shop,,,,,,Croydon,AwaitingInspection,,FHRS,False,,,
2026-04-10,1932585,Pizza Time,Takeaway/sandwich shop,7 Towers Buildings,Blackwell Street,Kidderminster,Worcestershire,DY10 2DY,Wyre Forest,AwaitingInspection,,FHRS,False,52.3892235,-2.2471907,"7 Towers Buildings, Blackwell Street, Kidderminster, Worcestershire, DY10 2DY"
2026-04-10,1932618,5 Akhis Northampton,Takeaway/sandwich shop,Unit 3-4,Octagon Way,Weston Favell,Northampton,NN3 8JL,West Northamptonshire,5,2025-03-13,FHRS,False,,,"Unit 3-4, Octagon Way, Weston Favell, Northampton, NN3 8JL"
2026-04-10,1932461,Blas Aberdyfi,Takeaway/sandwich shop,Seaview Terrace,,Aberdyfi,Gwynedd,LL35 0EE,Gwynedd,AwaitingInspection,,FHRS,False,,,"Seaview Terrace, Aberdyfi, Gwynedd, LL35 0EE"
2026-04-10,1932461,Blas Aberdyfi,Takeaway/sandwich shop,Seaview Terrace,,Aberdyfi,Gwynedd,LL35 0EE,Gwynedd,AwaitingInspection,,FHRS,False,,,"Seaview Terrace, Aberdyfi, Gwynedd, LL35 0EE"
2026-04-10,1932505,BT71 Limited,Takeaway/sandwich shop,10 Barrack Street,Brackaville,Coalisland,Co. Tyrone,BT71 4LS,Mid Ulster,AwaitingInspection,,FHRS,True,54.541322,-6.703748,"10 Barrack Street, Brackaville, Coalisland, Co. Tyrone, BT71 4LS"
2026-04-10,1796600,Gokorec,Takeaway/sandwich shop,Durants Park,Hertford Road,ENFIELD,,EN3 7ED,Enfield,3,2026-02-16,FHRS,False,51.6534699,-0.0409588,"Durants Park, Hertford Road, ENFIELD, EN3 7ED"
2026-04-10,1932566,Falooda&Co.,Takeaway/sandwich shop,268 FARNHAM ROAD,,SLOUGH,,SL1 4XL,Slough,AwaitingInspection,,FHRS,False,51.5244801,-0.6150184,"268 FARNHAM ROAD, SLOUGH, SL1 4XL"
2026-04-10,1932558,Lahori'z Junction,Takeaway/sandwich shop,250 TRELAWNEY AVENUE,,SLOUGH,,SL3 7UD,Slough,AwaitingInspection,,FHRS,False,51.5022287,-0.555021,"250 TRELAWNEY AVENUE, SLOUGH, SL3 7UD"
2026-04-10,1932419,Iceberry Dessert Bar,Takeaway/sandwich shop,Waterside Shopping Centre,High Street,Lincoln,Lincolnshire,LN2 1AP,Lincoln City,AwaitingInspection,,FHRS,False,53.2286925,-0.5403436,"Waterside Shopping Centre, High Street, Lincoln, Lincolnshire, LN2 1AP"
2026-04-10,858494,King Shawarma,Takeaway/sandwich shop,,368 High Street,Lincoln,Lincolnshire,LN5 7RN,Lincoln City,AwaitingInspection,,FHRS,False,53.223894,-0.543067,"368 High Street, Lincoln, Lincolnshire, LN5 7RN"
2026-04-10,1932389,BestBites,Takeaway/sandwich shop,Newmarket,10 Marlborough Square,Coalville,Leicestershire,LE67 3WD,North West Leicestershire,AwaitingInspection,,FHRS,False,52.7233137,-1.3747361,"Newmarket, 10 Marlborough Square, Coalville, Leicestershire, LE67 3WD"
2026-04-10,1932391,Cinnamon Centre,Takeaway/sandwich shop,117 Belvoir Road,Coalville,Leicestershire,,LE67 3PH,North West Leicestershire,AwaitingInspection,,FHRS,False,52.7214456,-1.373371,"117 Belvoir Road, Coalville, Leicestershire, LE67 3PH"
2026-04-10,1932357,King of Biryani,Takeaway/sandwich shop,145 Crwys Road,Cathays,Cardiff,,CF24 4NH,Cardiff,AwaitingInspection,,FHRS,False,51.4964367,-3.1810471,"145 Crwys Road, Cathays, Cardiff, CF24 4NH"
2026-04-10,1932487,China Garden,Takeaway/sandwich shop,45 Alcombe Road,Minehead,Somerset,,TA24 6BB,Somerset,5,2026-02-19,FHRS,False,51.1979743,-3.4686575,"45 Alcombe Road, Minehead, Somerset, TA24 6BB"
2026-04-10,1932436,FLANK and go,Takeaway/sandwich shop,57 High Street,Glastonbury,Somerset,,BA6 9DS,Somerset,AwaitingInspection,,FHRS,False,51.1481832,-2.7135461,"57 High Street, Glastonbury, Somerset, BA6 9DS"
2026-04-10,1932497,King Kebab,Takeaway/sandwich shop,3 Park Street,Minehead,Somerset,,,Somerset,5,2026-03-18,FHRS,False,51.1804856,-3.4475558,"3 Park Street, Minehead, Somerset"
2026-04-10,1932398,Vettese's Traditional Ice Cream,Takeaway/sandwich shop,16 Bull Street,Holt,Norfolk,,NR25 6HP,North Norfolk,AwaitingInspection,,FHRS,False,52.906479,1.08966,"16 Bull Street, Holt, Norfolk, NR25 6HP"
2026-04-10,1932417,Tams Thai Food & Tams Bar,Takeaway/sandwich shop,6c Shaftesbury Avenue,South Shields,Tyne & Wear,,NE32 3RA,South Tyneside,3,2024-10-18,FHRS,False,54.9723167,-1.4667726,"6c Shaftesbury Avenue, South Shields, Tyne & Wear, NE32 3RA"
2026-04-10,1155463,Nil Lebanese,Takeaway/sandwich shop,,405 Chiswick High Road,Chiswick,,W4 4AR,Hounslow,AwaitingInspection,,FHRS,False,51.4920861,-0.276323,"405 Chiswick High Road, Chiswick, W4 4AR"
2026-04-10,1884893,Simply Smashed Chadwell Heath LTD,Takeaway/sandwich shop,Unit G12 Chadwell Heath Industrial Park,Kemp Road,,Dagenham,RM8 1SL,Barking and Dagenham,AwaitingInspection,,FHRS,False,51.5642528,0.1334112,"Unit G12 Chadwell Heath Industrial Park, Kemp Road, Dagenham, RM8 1SL"
2026-04-11,1933119,Jaggerz,Takeaway/sandwich shop,16 Picton Terrace Spring Gardens,,Narberth,Pembrokeshire,SA67 7AW,Sir Benfro,AwaitingInspection,,FHRS,False,51.7999189,-4.7423836,"16 Picton Terrace Spring Gardens, Narberth, Pembrokeshire, SA67 7AW"
2026-04-11,1933102,R & R BBQ n' Grill,Takeaway/sandwich shop,Unit 23 Honeyborough Industrial Estate,,Neyland,Pembrokeshire,SA73 1SE,Sir Benfro,AwaitingInspection,,FHRS,False,51.7199156,-4.9537163,"Unit 23 Honeyborough Industrial Estate, Neyland, Pembrokeshire, SA73 1SE"
2026-04-11,1933167,Saint Viet,Takeaway/sandwich shop,Riverside Cottage Woodend Cupar Fife,,,,KY15 4RJ,Fife,Awaiting Inspection,2026-04-03,FHIS,False,,,"Riverside Cottage Woodend Cupar Fife, KY15 4RJ"
2026-04-11,1933206,Midnight Brownie Club,Takeaway/sandwich shop,6A Gatefield Works,Whitelands Road,Ashton-under-lyne,Tameside,OL6 6UG,Tameside,AwaitingInspection,,FHRS,False,53.4837292,-2.081019,"6A Gatefield Works, Whitelands Road, Ashton-under-lyne, Tameside, OL6 6UG"
2026-04-11,1933268,Cod n Donner City,Takeaway/sandwich shop,19  Cape Hill,,,Smethwick,B66 4RX,Sandwell,AwaitingInspection,,FHRS,False,52.4869651,-1.9606454,"19  Cape Hill, Smethwick, B66 4RX"
2026-04-11,1933252,OGZ Hamstead,Takeaway/sandwich shop,4  Old Walsall Road,,,Birmingham,B42 1NN,Sandwell,AwaitingInspection,,FHRS,False,52.5319729,-1.9300769,"4  Old Walsall Road, Birmingham, B42 1NN"
2026-04-11,1933258,Pizza Lunch,Takeaway/sandwich shop,635 Bearwood Road,,,Smethwick,B66 4BL,Sandwell,AwaitingInspection,,FHRS,False,52.4732756,-1.9685041,"635 Bearwood Road, Smethwick, B66 4BL"
2026-04-11,1933256,Subway (inside Asda),Takeaway/sandwich shop,Wednesbury Oak Road,,,Tipton,DY4 0BP,Sandwell,AwaitingInspection,,FHRS,False,52.54570395,-2.05706225,"Wednesbury Oak Road, Tipton, DY4 0BP"
2026-04-11,1933274,Taste of Himalayan,Takeaway/sandwich shop,33  High Street,,,Rowley Regis,B65 0DR,Sandwell,AwaitingInspection,,FHRS,False,52.4755558,-2.0423514,"33  High Street, Rowley Regis, B65 0DR"
2026-04-11,548225,The Codfather,Takeaway/sandwich shop,81 Brades Road,Oldbury,,,B69 2EB,Sandwell,5,2022-09-30,FHRS,False,52.5043909,-2.0278679,"81 Brades Road, Oldbury, B69 2EB"
2026-04-11,1933262,VJ Hungry Hub,Takeaway/sandwich shop,46 Brades Road,,,Oldbury,B69 2ET,Sandwell,AwaitingInspection,,FHRS,False,52.5052716,-2.0288261,"46 Brades Road, Oldbury, B69 2ET"
2026-04-11,1932940,B's Bakery,Takeaway/sandwich shop,85 Waterloo Road,Blackpool,,,FY4 1AD,Blackpool,5,2026-03-26,FHRS,False,53.798625,-3.052216,"85 Waterloo Road, Blackpool, FY4 1AD"
2026-04-11,1932834,Biggie's,Takeaway/sandwich shop,68 Edgeley Lane,London,,,SW4 7UW,Lambeth,AwaitingInspection,,FHRS,False,51.4637855,-0.1333859,"68 Edgeley Lane, London, SW4 7UW"
2026-04-11,1932842,Chill Gelato,Takeaway/sandwich shop,Royal National Theatre,South Bank,London,,SE1 9PX,Lambeth,AwaitingInspection,,FHRS,False,51.507209,-0.113637,"Royal National Theatre, South Bank, London, SE1 9PX"
2026-04-11,1932836,Irie Sip N Eats Caribbean Vegan,Takeaway/sandwich shop,S27,Pop Brixton,49 Brixton Station Road,London,SW9 8PQ,Lambeth,AwaitingInspection,,FHRS,False,51.463765,-0.108605,"S27, Pop Brixton, 49 Brixton Station Road, London, SW9 8PQ"
2026-04-11,1932833,Mai Diamond Creations,Takeaway/sandwich shop,,,,,,Lambeth,AwaitingInspection,,FHRS,False,,,
2026-04-11,1932843,Moodys Dip Sandwiches,Takeaway/sandwich shop,Royal National Theatre,South Bank,London,,SE1 9PX,Lambeth,AwaitingInspection,,FHRS,False,51.507209,-0.113637,"Royal National Theatre, South Bank, London, SE1 9PX"
2026-04-11,1299052,Roosters Spot,Takeaway/sandwich shop,404 Brixton Road,London,,,SW9 7AW,Lambeth,4,2024-10-28,FHRS,False,51.465369,-0.114341,"404 Brixton Road, London, SW9 7AW"
2026-04-11,1932915,Pepes Piri Piri,Takeaway/sandwich shop,26 - 30 Oxton Road,Birkenhead,Wirral,,CH41 2QJ,Wirral,AwaitingInspection,,FHRS,False,53.3883388,-3.0319847,"26 - 30 Oxton Road, Birkenhead, Wirral, CH41 2QJ"
2026-04-11,1933197,Bento Sushi,Takeaway/sandwich shop,,,515 Lisburn Road,Belfast,BT9 7EZ,Belfast City,AwaitingInspection,,FHRS,False,54.5765394,-5.9554253,"515 Lisburn Road, Belfast, BT9 7EZ"
2026-04-11,661696,Breadstix,Takeaway/sandwich shop,10 Buckstone Terrace,Edinburgh,,,EH10 6PZ,Edinburgh (City of),Pass,2018-11-22,FHIS,False,55.9083582,-3.2094036,"10 Buckstone Terrace, Edinburgh, EH10 6PZ"
2026-04-11,1933035,The Hake,Takeaway/sandwich shop,12 Church Street,Weybridge,Surrey,,KT13 8DX,Elmbridge,AwaitingInspection,,FHRS,False,51.37257,-0.459759,"12 Church Street, Weybridge, Surrey, KT13 8DX"
2026-04-11,1932942,Cluckys Fried Chicken,Takeaway/sandwich shop,295 Linthorpe Road,Middlesbrough,,,TS1 4AP,Middlesbrough,AwaitingInspection,,FHRS,False,54.568047,-1.23986,"295 Linthorpe Road, Middlesbrough, TS1 4AP"
2026-04-11,1933119,Jaggerz,Takeaway/sandwich shop,16 Picton Terrace Spring Gardens,,Narberth,Pembrokeshire,SA67 7AW,Pembrokeshire,AwaitingInspection,,FHRS,False,51.7999189,-4.7423836,"16 Picton Terrace Spring Gardens, Narberth, Pembrokeshire, SA67 7AW"
2026-04-11,1933102,R & R BBQ n' Grill,Takeaway/sandwich shop,Unit 23 Honeyborough Industrial Estate,,Neyland,Pembrokeshire,SA73 1SE,Pembrokeshire,AwaitingInspection,,FHRS,False,51.7199156,-4.9537163,"Unit 23 Honeyborough Industrial Estate, Neyland, Pembrokeshire, SA73 1SE"
2026-04-11,1933242,Sushi Joy,Takeaway/sandwich shop,,2h Lamb Street,London,,E1 6EA,Tower Hamlets,AwaitingInspection,,FHRS,False,51.5006164,0.0667667,"2h Lamb Street, London, E1 6EA"
2026-04-11,1932775,Oriental House,Takeaway/sandwich shop,81 Henley Crescent,Braunstone Town,Leicester,Leicestershire,LE3 2SB,Blaby,5,2026-03-13,FHRS,False,52.614174,-1.179624,"81 Henley Crescent, Braunstone Town, Leicester, Leicestershire, LE3 2SB"
2026-04-11,1932779,Stoney Ground Coffee,Takeaway/sandwich shop,Shire House,4 - 6 Long Street,Stoney Stanton,Leicester,LE9 4DQ,Blaby,AwaitingInspection,,FHRS,False,52.5483723,-1.2778481,"Shire House, 4 - 6 Long Street, Stoney Stanton, Leicester, LE9 4DQ"
2026-04-11,1899503,Super Kebab,Takeaway/sandwich shop,194 Bexley Road,Erith,Kent,,DA8 3HF,Bexley,4,2026-03-17,FHRS,False,51.474797,0.162547,"194 Bexley Road, Erith, Kent, DA8 3HF"
2026-04-11,1933151,Caffe C Muirhead Ltd,Takeaway/sandwich shop,106 Cumbernauld Road,Muirhead,North Lanarkshire,,G69 9AA,North Lanarkshire,Awaiting Inspection,,FHIS,False,,,"106 Cumbernauld Road, Muirhead, North Lanarkshire, G69 9AA"
2026-04-11,1933150,Grill and Chill,Takeaway/sandwich shop,10 Carfin Road,Craigneuk,Wishaw,,ML2 7UG,North Lanarkshire,Awaiting Inspection,,FHIS,False,55.7805234,-3.9564311,"10 Carfin Road, Craigneuk, Wishaw, ML2 7UG"
2026-04-11,1933149,Noodle X,Takeaway/sandwich shop,157 Calder Street,Whifflet,Coatbridge,,ML5 4QN,North Lanarkshire,Pass,2026-03-31,FHIS,False,55.8558868,-4.0071903,"157 Calder Street, Whifflet, Coatbridge, ML5 4QN"
2026-04-11,1933143,Farina Italian Kitchen,Takeaway/sandwich shop,Unit 28 The Bike Shed Bakers Yard Christon Road,Gosforth,Newcastle Upon Tyne,,NE3 1XD,Newcastle Upon Tyne,AwaitingInspection,,FHRS,False,55.0084954,-1.6071047,"Unit 28 The Bike Shed Bakers Yard Christon Road, Gosforth, Newcastle Upon Tyne, NE3 1XD"
2026-04-11,1933139,The Double Diner,Takeaway/sandwich shop,239 Jesmond Road,,Newcastle Upon Tyne,,NE2 1LA,Newcastle Upon Tyne,AwaitingInspection,,FHRS,False,54.9872764,-1.5945172,"239 Jesmond Road, Newcastle Upon Tyne, NE2 1LA"
2026-04-11,1933085,Best Efes Pizza & Kebab,Takeaway/sandwich shop,79 High Street,,Wem,Shropshire,SY4 5DR,Shropshire,AwaitingInspection,,FHRS,False,52.8550483,-2.7271743,"79 High Street, Wem, Shropshire, SY4 5DR"
2026-04-11,1932863,Angry Burg Limited,Takeaway/sandwich shop,52 Welford Road,Leicester,,,LE2 7AA,Leicester City,AwaitingInspection,,FHRS,False,52.630332,-1.13329,"52 Welford Road, Leicester, LE2 7AA"
2026-04-11,1932865,Apna Pizza,Takeaway/sandwich shop,287 St Saviours Road,Leicester,,,LE5 4HG,Leicester City,AwaitingInspection,,FHRS,False,52.634093,-1.101151,"287 St Saviours Road, Leicester, LE5 4HG"
2026-04-11,1932866,Bright Pani Puri,Takeaway/sandwich shop,144 Checketts Road,Leicester,,,LE4 5EQ,Leicester City,AwaitingInspection,,FHRS,False,52.658129,-1.117512,"144 Checketts Road, Leicester, LE4 5EQ"
2026-04-11,1932856,BRIM Burgers Leicester,Takeaway/sandwich shop,34 Market Street,Leicester,,,LE1 6DP,Leicester City,AwaitingInspection,,FHRS,False,52.632545,-1.1329347,"34 Market Street, Leicester, LE1 6DP"
2026-04-11,1932868,Maurizio's Takeaway,Takeaway/sandwich shop,42 Belvoir Street,Leicester,,,LE1 6QL,Leicester City,AwaitingInspection,,FHRS,False,52.6324431,-1.1318588,"42 Belvoir Street, Leicester, LE1 6QL"
2026-04-11,1932947,China inn,Takeaway/sandwich shop,6 Brassey Parade Brassey Avenue,Eastbourne,East Sussex,,BN22 9NG,Eastbourne,AwaitingInspection,,FHRS,False,50.7969755,0.2784331,"6 Brassey Parade Brassey Avenue, Eastbourne, East Sussex, BN22 9NG"
2026-04-11,1932817,The Chinese Oakdale,Takeaway/sandwich shop,,6 Central Buildings,Oakdale,Blackwood,NP12 0JU,Caerphilly,AwaitingInspection,,FHRS,False,51.678887,-3.178359,"6 Central Buildings, Oakdale, Blackwood, NP12 0JU"
2026-04-11,1932754,Step Out Coffee,Takeaway/sandwich shop,Krafty Kettle,11A Westgate,Honley,Holmfirth,HD9 6AA,Kirklees,5,2026-01-30,FHRS,False,53.6038444,-1.7921369,"Krafty Kettle, 11A Westgate, Honley, Holmfirth, HD9 6AA"
2026-04-11,1932911,Murlidhar indian sweets & fast food,Takeaway/sandwich shop,354 Station Road,Harrow,,,HA1 2DE,Harrow,AwaitingInspection,,FHRS,False,51.5799596,-0.3337243,"354 Station Road, Harrow, HA1 2DE"
2026-04-11,1932883,Chunky Chicken,Takeaway/sandwich shop,,532 Sauchiehall Street,Glasgow,,G2 3LX,Glasgow City,Awaiting Inspection,2026-04-08,FHIS,False,55.866414,-4.270275,"532 Sauchiehall Street, Glasgow, G2 3LX"
2026-04-11,1932894,Clyde Catch,Takeaway/sandwich shop,,2338 Dumbarton Road,Glasgow,,G14 0JX,Glasgow City,Awaiting Inspection,2026-04-10,FHIS,False,55.887945,-4.377544,"2338 Dumbarton Road, Glasgow, G14 0JX"
2026-04-11,1932892,Good Choi's Cuisine,Takeaway/sandwich shop,,13 Cumming Drive,Glasgow,,G42 9AE,Glasgow City,Awaiting Inspection,2026-04-09,FHIS,False,55.826788,-4.257619,"13 Cumming Drive, Glasgow, G42 9AE"
2026-04-11,1932876,Mamos Kebab House And Pizza,Takeaway/sandwich shop,,1007 Aikenhead Road,Glasgow,,G44 4SF,Glasgow City,Awaiting Inspection,2026-03-05,FHIS,False,55.823746,-4.248997,"1007 Aikenhead Road, Glasgow, G44 4SF"
2026-04-11,1932888,Mola Bakery,Takeaway/sandwich shop,Flat 2/2,551 Alexandra Parade,Glasgow,,G31 3DB,Glasgow City,Awaiting Inspection,2026-04-08,FHIS,False,,,"Flat 2/2, 551 Alexandra Parade, Glasgow, G31 3DB"
2026-04-11,1932887,Naan Street,Takeaway/sandwich shop,,181 Albert Drive,Glasgow,,G41 2ND,Glasgow City,Awaiting Inspection,2026-04-08,FHIS,False,55.8418579101563,-4.27232599258423,"181 Albert Drive, Glasgow, G41 2ND"
2026-04-11,1932885,Rabbit Food,Takeaway/sandwich shop,,65 Broomielaw,Glasgow,,,Glasgow City,Awaiting Inspection,2026-04-08,FHIS,False,55.85650811,-4.26019593,"65 Broomielaw, Glasgow"
2026-04-11,1932878,Sears Pizza,Takeaway/sandwich shop,,4 John Street,Glasgow,,G1 1JQ,Glasgow City,Awaiting Inspection,2026-04-08,FHIS,False,55.8599695,-4.2475901,"4 John Street, Glasgow, G1 1JQ"
2026-04-11,1932884,Spudbox,Takeaway/sandwich shop,,41 Gourock Street,Glasgow,,G5 9RY,Glasgow City,Awaiting Inspection,2026-04-08,FHIS,False,55.844493,-4.2627981,"41 Gourock Street, Glasgow, G5 9RY"
2026-04-11,1932880,The Balmore Cafe,Takeaway/sandwich shop,,150 Balmore Road,Glasgow,,G22 6LJ,Glasgow City,Awaiting Inspection,2026-04-08,FHIS,False,55.887441,-4.257303,"150 Balmore Road, Glasgow, G22 6LJ"
2026-04-11,1932881,Zaks,Takeaway/sandwich shop,,41 Gourock Street,Glasgow,,G5 9RY,Glasgow City,Awaiting Inspection,2026-04-08,FHIS,False,55.844493,-4.2627981,"41 Gourock Street, Glasgow, G5 9RY"
2026-04-11,1932801,Dessert Express,Takeaway/sandwich shop,Within Kebabish Express,105 Bucknall New Road,Hanley,Stoke-On-Trent,ST1 2BG,Stoke-On-Trent,AwaitingInspection,,FHRS,False,53.0255996,-2.1665684,"Within Kebabish Express, 105 Bucknall New Road, Hanley, Stoke-On-Trent, ST1 2BG"
2026-04-11,1932808,Funky Chicken,Takeaway/sandwich shop,,17 Sandon Road,Meir,Stoke-On-Trent,ST3 7DJ,Stoke-On-Trent,AwaitingInspection,,FHRS,False,52.975834,-2.105007,"17 Sandon Road, Meir, Stoke-On-Trent, ST3 7DJ"
2026-04-11,1932792,St Mary's Fish Bar,Takeaway/sandwich shop,,3-5 Brookside Drive,Blurton,Stoke-On-Trent,ST3 2AH,Stoke-On-Trent,AwaitingInspection,,FHRS,False,52.982982,-2.160104,"3-5 Brookside Drive, Blurton, Stoke-On-Trent, ST3 2AH"
2026-04-11,1932806,Yahya’s,Takeaway/sandwich shop,,658 Leek New Road,Stoke-On-Trent,,ST2 7EF,Stoke-On-Trent,AwaitingInspection,,FHRS,False,53.0504455566406,-2.15467095375061,"658 Leek New Road, Stoke-On-Trent, ST2 7EF"
2026-04-11,1933097,TaoTao Chinese Takeaway,Takeaway/sandwich shop,83 High Street,,Coleshill,Warwickshire,B46 3AG,North Warwickshire,AwaitingInspection,,FHRS,False,52.4995461,-1.7068383,"83 High Street, Coleshill, Warwickshire, B46 3AG"
2026-04-11,1932938,Dip Chick,Takeaway/sandwich shop,,61 Bradshawgate,Bolton,,BL1 1DU,Bolton,AwaitingInspection,,FHRS,False,53.5781743,-2.4261047,"61 Bradshawgate, Bolton, BL1 1DU"
2026-04-11,1830162,Rtol Grill,Takeaway/sandwich shop,,210B St Georges Road,Bolton,,BL1 2PH,Bolton,4,2025-09-24,FHRS,False,53.5817083,-2.4381028,"210B St Georges Road, Bolton, BL1 2PH"
2026-04-11,1908270,Roastman Pat,Takeaway/sandwich shop,,,,,,East Hertfordshire,3,2026-03-06,FHRS,False,,,
2026-04-11,1933208,Slice City,Takeaway/sandwich shop,4 Honey Lane,Hertford,Hertfordshire,,SG14 1DN,East Hertfordshire,5,2025-05-28,FHRS,False,51.7965219,-0.0778929,"4 Honey Lane, Hertford, Hertfordshire, SG14 1DN"
2026-04-11,574154,Nany Pinks,Takeaway/sandwich shop,11 Harrow Inn Close  Elgin  Moray,,,,IV30 1BP,Moray,Awaiting Inspection,2026-04-03,FHIS,False,57.6479877,-3.3154305,"11 Harrow Inn Close  Elgin  Moray, IV30 1BP"
2026-04-11,1933008,Captain's Cabin,Takeaway/sandwich shop,120 Burnt Oak Broadway Edgware,,,,HA8 0BB,Barnet,AwaitingInspection,,FHRS,True,51.601217,-0.267686,"120 Burnt Oak Broadway Edgware, HA8 0BB"
2026-04-11,1932999,Pure Leafs,Takeaway/sandwich shop,809 High Road London,,,,N12 8JT,Barnet,AwaitingInspection,,FHRS,True,51.6160716,-0.177012,"809 High Road London, N12 8JT"
2026-04-11,1933005,Royal Crown,Takeaway/sandwich shop,90-92 High Street,,,,HA8 7HF,Barnet,AwaitingInspection,,FHRS,False,51.6113012,-0.2796869,"90-92 High Street, HA8 7HF"
2026-04-11,1933011,Shaketastic,Takeaway/sandwich shop,1 - 3 Hale Lane,,,,NW7 3NU,Barnet,AwaitingInspection,,FHRS,False,51.6133126,-0.2506084,"1 - 3 Hale Lane, NW7 3NU"
2026-04-11,1932961,Slice of stone,Takeaway/sandwich shop,Station Road/ Broadwalk Shopping Centre,,,,HA8 7BD,Barnet,AwaitingInspection,,FHRS,False,51.6125232,-0.2756821,"Station Road/ Broadwalk Shopping Centre, HA8 7BD"
2026-04-11,1932957,Tehran Pizza & Burgers,Takeaway/sandwich shop,Pennine Parade  Pennine Drive London,,,,NW2 1NT,Barnet,AwaitingInspection,,FHRS,True,51.567064,-0.210764,"Pennine Parade  Pennine Drive London, NW2 1NT"
2026-04-11,1932817,The Chinese Oakdale,Takeaway/sandwich shop,,6 Central Buildings,Oakdale,Blackwood,NP12 0JU,Caerffili,AwaitingInspection,,FHRS,False,51.678887,-3.178359,"6 Central Buildings, Oakdale, Blackwood, NP12 0JU"
2026-04-11,1933191,Thai 24,Takeaway/sandwich shop,,,,,,Colchester,AwaitingInspection,,FHRS,False,,,
2026-04-11,1933192,The Fresh Food Cabin,Takeaway/sandwich shop,1 Grange Way,Colchester,Essex,,CO2 8HE,Colchester,AwaitingInspection,,FHRS,False,51.8744069,0.927553,"1 Grange Way, Colchester, Essex, CO2 8HE"
2026-04-11,193729,Moon River,Takeaway/sandwich shop,,330 Holderness Road,Kingston Upon Hull,,HU9 3DQ,Hull City,AwaitingInspection,,FHRS,True,53.7565536499023,-0.308288007974625,"330 Holderness Road, Kingston Upon Hull, HU9 3DQ"
2026-04-11,1932902,Kinlab Thai Takeaway,Takeaway/sandwich shop,47 Dodds Street,Darlington,,,DL3 6BE,Darlington,AwaitingInspection,,FHRS,False,54.530006,-1.558979,"47 Dodds Street, Darlington, DL3 6BE"
2026-04-11,1932898,Marinos Pizza,Takeaway/sandwich shop,32A Larchfield Street,Darlington,,,DL3 7DH,Darlington,5,2026-03-25,FHRS,False,54.5257006,-1.5605468,"32A Larchfield Street, Darlington, DL3 7DH"
2026-04-11,1932734,Chesters Chicken,Takeaway/sandwich shop,54 Chapel Street,Chorley,,,PR7 1BS,Chorley,AwaitingInspection,,FHRS,False,53.652346,-2.6282266,"54 Chapel Street, Chorley, PR7 1BS"
2026-04-11,1932733,Mega Munch,Takeaway/sandwich shop,56 Chapel Street,Chorley,,,PR7 1BS,Chorley,5,2026-03-25,FHRS,False,53.652266,-2.628244,"56 Chapel Street, Chorley, PR7 1BS"
2026-04-11,1468944,Panku Fareham,Takeaway/sandwich shop,Asda,Speedfields Park,Fareham,,PO14 1TT,Fareham,5,2026-04-08,FHRS,False,50.8337041,-1.1839657,"Asda, Speedfields Park, Fareham, PO14 1TT"
2026-04-13,1933289,Chilli N Lime,Takeaway/sandwich shop,2 Hope Terrace,Lostock Hall,Preston,Lancashire,PR5 5RU,South Ribble,AwaitingInspection,,FHRS,False,53.7257388,-2.6927026,"2 Hope Terrace, Lostock Hall, Preston, Lancashire, PR5 5RU"
2026-04-13,1933288,Docklands Fish and Chips,Takeaway/sandwich shop,Myrtle Dene,Coote Lane,Lostock Hall,Preston,PR4 4LJ,South Ribble,AwaitingInspection,,FHRS,False,53.7229662,-2.7072815,"Myrtle Dene, Coote Lane, Lostock Hall, Preston, PR4 4LJ"
