date_added,FHRSID,BusinessName,BusinessType,AddressLine1,AddressLine2,AddressLine3,AddressLine4,PostCode,LocalAuthorityName,RatingValue,RatingDate,SchemeType,NewRatingPending,Latitude,Longitude,AddressSingleLine
2026-01-01,1904400,Spice Boom,Takeaway/sandwich shop,Aniseed,31A High Street,Edenbridge,Kent,TN8 5AD,Sevenoaks,AwaitingInspection,,FHRS,False,51.1975665,0.0653264,"Aniseed, 31A High Street, Edenbridge, Kent, TN8 5AD"
2026-01-01,1904409,Oh My Doh Redditch,Takeaway/sandwich shop,Unit 1,Walford Walk,Kingfisher Shopping Centre,Redditch,B97 4HJ,Redditch,AwaitingInspection,,FHRS,False,52.3050688,-1.9405936,"Unit 1, Walford Walk, Kingfisher Shopping Centre, Redditch, B97 4HJ"
2026-01-01,1904343,M1 Pizza & Grill,Takeaway/sandwich shop,20 Bedford Road,Brogborough,Bedford,,MK43 0XY,Central Bedfordshire,AwaitingInspection,,FHRS,False,52.034056,-0.598573,"20 Bedford Road, Brogborough, Bedford, MK43 0XY"
2026-01-01,1904322,Bite & Bliss,Takeaway/sandwich shop,14 Chapel Street,,Guildford,Surrey,GU1 1UL,Guildford,AwaitingInspection,,FHRS,False,,,"14 Chapel Street, Guildford, Surrey, GU1 1UL"
2026-01-01,1904363,Funky Grill,Takeaway/sandwich shop,3 Wolverhampton Road,Bloxwich,Walsall,West Midlands,WS3 2EY,Walsall,AwaitingInspection,,FHRS,False,52.618244,-2.005303,"3 Wolverhampton Road, Bloxwich, Walsall, West Midlands, WS3 2EY"
2026-01-01,1904372,Shelfield Fish Bar,Takeaway/sandwich shop,77 Lichfield Road,Shelfield,Walsall,West Midlands,WS4 1PU,Walsall,1,2025-11-22,FHRS,False,52.617155,-1.950698,"77 Lichfield Road, Shelfield, Walsall, West Midlands, WS4 1PU"
2026-01-01,1904334,Steak Pizza,Takeaway/sandwich shop,Unit 9,Clifton Parade,Bristol Avenue,Farington,PR25 4YU,South Ribble,AwaitingInspection,,FHRS,False,53.7037633,-2.6800259,"Unit 9, Clifton Parade, Bristol Avenue, Farington, PR25 4YU"
2026-01-01,1904407,Istanbul Kebab And Pizza Ltd / Chigao Pizza,Takeaway/sandwich shop,33 Worcester Road,Bromsgrove,Worcestershire,,B61 7DN,Bromsgrove,AwaitingInspection,,FHRS,False,52.332427,-2.063512,"33 Worcester Road, Bromsgrove, Worcestershire, B61 7DN"
2026-01-01,1904422,Halal Fast Food,Takeaway/sandwich shop,4 Northfield Parade,Station Road,,Hayes,UB3 4JA,Hillingdon,AwaitingInspection,,FHRS,False,51.5009968,-0.4237903,"4 Northfield Parade, Station Road, Hayes, UB3 4JA"
2026-01-01,1904399,New Jade Palace,Takeaway/sandwich shop,8 Bridge Road,Southampton,,,SO19 7GQ,Southampton,AwaitingInspection,,FHRS,False,50.901392,-1.376553,"8 Bridge Road, Southampton, SO19 7GQ"
2026-01-01,1904432,LAWIN Kitchen,Takeaway/sandwich shop,314-316 High Street,Enfield,,,EN3 4HF,Enfield,AwaitingInspection,,FHRS,False,51.6480273,-0.0467586,"314-316 High Street, Enfield, EN3 4HF"
2026-01-01,907342,Leo's Coffee Stop @platform 1,Takeaway/sandwich shop,Enfield Chase Station,Windmill Hill,ENFIELD,,EN2 7AA,Enfield,5,2019-05-30,FHRS,False,51.653259,-0.091027,"Enfield Chase Station, Windmill Hill, ENFIELD, EN2 7AA"
2026-01-01,1904441,Swahili Kob Unit B2,Takeaway/sandwich shop,Commercial Premises,Eleys Industrial Estate,Nobel Road,Edmonton,N18 3BH,Enfield,AwaitingInspection,,FHRS,False,51.6206987,-0.0435275,"Commercial Premises, Eleys Industrial Estate, Nobel Road, Edmonton, N18 3BH"
2026-01-01,1904357,Antep27 Ltd,Takeaway/sandwich shop,128 High Street,,Hungerford,West Berkshire,RG17 0DL,West Berkshire,AwaitingInspection,,FHRS,False,51.4160857,-1.5146174,"128 High Street, Hungerford, West Berkshire, RG17 0DL"
2026-01-01,1904416,Souvlaki Place,Takeaway/sandwich shop,1A Belmont Road,Wallington,,,SM6 8TE,Sutton,AwaitingInspection,,FHRS,False,51.3619824,-0.1502835,"1A Belmont Road, Wallington, SM6 8TE"
2026-01-01,1904298,Leeds Top Pizza,Takeaway/sandwich shop,244 Roundhay Road,Leeds,,,LS8 5RL,Leeds,AwaitingInspection,,FHRS,False,53.817073,-1.5164,"244 Roundhay Road, Leeds, LS8 5RL"
2026-01-01,1904310,Sweet Street Leeds,Takeaway/sandwich shop,Unit 21,Unity Business Centre,26 Roundhay Road,Leeds,LS7 1AB,Leeds,AwaitingInspection,,FHRS,False,53.8086124,-1.5320819,"Unit 21, Unity Business Centre, 26 Roundhay Road, Leeds, LS7 1AB"
2026-01-01,1904404,Punjabi Kitchen,Takeaway/sandwich shop,12 Gilbert Road,Belvedere,Kent,,DA17 5DA,Bexley,AwaitingInspection,,FHRS,False,51.491457,0.146624,"12 Gilbert Road, Belvedere, Kent, DA17 5DA"
2026-01-03,1904477,Usta Pizza And Charcoal Grill,Takeaway/sandwich shop,111 High Street,Milton Regis,Sittingbourne,Kent,ME10 2AR,Swale,5,2025-12-18,FHRS,False,51.349203,0.732172,"111 High Street, Milton Regis, Sittingbourne, Kent, ME10 2AR"
2026-01-03,1904523,Grandad's Kitchen Ltd,Takeaway/sandwich shop,100 Abbey Street,Accrington,Lancashire,,BB5 1EE,Hyndburn,AwaitingInspection,,FHRS,False,53.7510411,-2.3613563,"100 Abbey Street, Accrington, Lancashire, BB5 1EE"
2026-01-03,1904520,Spice and Fire,Takeaway/sandwich shop,50 Whalley Road,Accrington,Lancashire,,BB5 1AR,Hyndburn,AwaitingInspection,,FHRS,False,53.7554251,-2.3640991,"50 Whalley Road, Accrington, Lancashire, BB5 1AR"
2026-01-03,1904543,Gupshup,Takeaway/sandwich shop,,,,,,Harrow,AwaitingInspection,,FHRS,False,,,
2026-01-03,1904542,Street Food Junction,Takeaway/sandwich shop,242A Northolt Road,Harrow,,,HA2 8DU,Harrow,AwaitingInspection,,FHRS,False,51.5646029,-0.353996,"242A Northolt Road, Harrow, HA2 8DU"
2026-01-03,1904548,Syria food,Takeaway/sandwich shop,Unit 36 South Harrow Market Northolt Road,Harrow,,,HA2 0EU,Harrow,AwaitingInspection,,FHRS,False,51.5651016,-0.3530113,"Unit 36 South Harrow Market Northolt Road, Harrow, HA2 0EU"
2026-01-03,1564135,Velo Bakery And Pizza,Takeaway/sandwich shop,London Road Garage,London Road,Thrupp,Stroud,GL5 2BN,Stroud,4,2025-11-28,FHRS,False,51.7249712,-2.1993496,"London Road Garage, London Road, Thrupp, Stroud, GL5 2BN"
2026-01-03,1904493,Papudom 4U,Takeaway/sandwich shop,39 Aldergate,,,Tamworth,B79 7DD,Tamworth,AwaitingInspection,,FHRS,False,52.634524,-1.697035,"39 Aldergate, Tamworth, B79 7DD"
2026-01-03,1401267,Andover Kebab And Pizza House,Takeaway/sandwich shop,39 London Street,Andover,Hampshire,,SP10 2NU,Test Valley,3,2024-06-28,FHRS,False,51.206365,-1.477629,"39 London Street, Andover, Hampshire, SP10 2NU"
2026-01-03,1904606,TBC,Takeaway/sandwich shop,Lansdales House,Lansdales Road,High Wycombe,Buckinghamshire,HP11 2PB,Buckinghamshire,AwaitingInspection,,FHRS,False,51.6319883,-0.7614777,"Lansdales House, Lansdales Road, High Wycombe, Buckinghamshire, HP11 2PB"
2026-01-03,1904505,My-Style,Takeaway/sandwich shop,,,,,,Reigate and Banstead,AwaitingInspection,,FHRS,False,,,
2026-01-03,1904526,D Flame & Grill,Takeaway/sandwich shop,,134 Bradshawgate,Bolton,,BL2 1AY,Bolton,AwaitingInspection,,FHRS,False,53.576344,-2.425756,"134 Bradshawgate, Bolton, BL2 1AY"
2026-01-03,1904484,Athena B Fish And Chips,Takeaway/sandwich shop,27 Station Road,Portslade,,,BN41 1GB,Brighton and Hove,AwaitingInspection,,FHRS,False,50.833752,-0.207325,"27 Station Road, Portslade, BN41 1GB"
2026-01-03,1904482,Fuel Kitchen,Takeaway/sandwich shop,2 The Parade,Valley Drive,Brighton,,BN1 5FQ,Brighton and Hove,AwaitingInspection,,FHRS,False,50.856617,-0.168782,"2 The Parade, Valley Drive, Brighton, BN1 5FQ"
2026-01-03,1904592,A1 Spice,Takeaway/sandwich shop,Unit 3 Genoa Building,20 North Street,,Barking,IG11 8AW,Barking and Dagenham,AwaitingInspection,,FHRS,False,51.5368661,0.0766505,"Unit 3 Genoa Building, 20 North Street, Barking, IG11 8AW"
2026-01-03,1904584,Punjabi Cooking Studio LTD,Takeaway/sandwich shop,,Unit 6a Barking Business Centre,,Thames Road,IG11 0JP,Barking and Dagenham,AwaitingInspection,,FHRS,False,51.5253705,0.1048944,"Unit 6a Barking Business Centre, Thames Road, IG11 0JP"
2026-01-03,1904564,Golden Sunrise,Takeaway/sandwich shop,137 Mount Road,Wallasey,Wirral,,CH45 9JS,Wirral,AwaitingInspection,,FHRS,True,53.4347047,-3.0534464,"137 Mount Road, Wallasey, Wirral, CH45 9JS"
2026-01-05,1904612,Moonhouse,Takeaway/sandwich shop,56 Woodgrange Road,Forest Gate,London,,E7 0QH,Newham,AwaitingInspection,,FHRS,False,51.548599,0.02514,"56 Woodgrange Road, Forest Gate, London, E7 0QH"
2026-01-06,1904728,Sawston Pizza,Takeaway/sandwich shop,56 High Street,,Sawston,Cambridgeshire,CB22 3BG,South Cambridgeshire,AwaitingInspection,,FHRS,False,52.1223162,0.1697525,"56 High Street, Sawston, Cambridgeshire, CB22 3BG"
2026-01-06,1904643,India2cardiff,Takeaway/sandwich shop,58 Clearwater Way,Cyncoed,Cardiff,,CF23 6DJ,Caerdydd,AwaitingInspection,,FHRS,False,51.5145921,-3.1693104,"58 Clearwater Way, Cyncoed, Cardiff, CF23 6DJ"
2026-01-06,1904646,ORIENT EXPRESS,Takeaway/sandwich shop,18 Mackintosh Place,Roath,Cardiff,,CF24 4RQ,Caerdydd,AwaitingInspection,,FHRS,False,51.4930228,-3.1717685,"18 Mackintosh Place, Roath, Cardiff, CF24 4RQ"
2026-01-06,1904833,Cache At Home,Takeaway/sandwich shop,Business,256 - 258 Brixton Road,London,,SW9 6AQ,Lambeth,AwaitingInspection,,FHRS,False,51.4711026,-0.112972,"Business, 256 - 258 Brixton Road, London, SW9 6AQ"
2026-01-06,1899519,Mr Prep,Takeaway/sandwich shop,Unit 4,Hunt End Industrial Estate,Dunlop Road,Redditch,B97 5XP,Redditch,AwaitingInspection,,FHRS,False,52.2750367,-1.9511575,"Unit 4, Hunt End Industrial Estate, Dunlop Road, Redditch, B97 5XP"
2026-01-06,1904713,Subway,Takeaway/sandwich shop,SUBWAY,11 Bishop Hall Lane,Chelmsford,,CM1 1SH,Chelmsford,AwaitingInspection,,FHRS,False,51.7412292,0.4730923,"SUBWAY, 11 Bishop Hall Lane, Chelmsford, CM1 1SH"
2026-01-06,1904844,Munch N Go,Takeaway/sandwich shop,50A Moathouse Lane East,Wolverhampton,West Midlands,,WV11 3DD,Wolverhampton,AwaitingInspection,,FHRS,False,52.6081776,-2.0731065,"50A Moathouse Lane East, Wolverhampton, West Midlands, WV11 3DD"
2026-01-06,1904643,India2cardiff,Takeaway/sandwich shop,58 Clearwater Way,Cyncoed,Cardiff,,CF23 6DJ,Cardiff,AwaitingInspection,,FHRS,False,51.5145921,-3.1693104,"58 Clearwater Way, Cyncoed, Cardiff, CF23 6DJ"
2026-01-06,1904646,ORIENT EXPRESS,Takeaway/sandwich shop,18 Mackintosh Place,Roath,Cardiff,,CF24 4RQ,Cardiff,AwaitingInspection,,FHRS,False,51.4930228,-3.1717685,"18 Mackintosh Place, Roath, Cardiff, CF24 4RQ"
2026-01-06,1337730,Boss Pizza,Takeaway/sandwich shop,,54 Kilbowie Road,Clydebank,,G81 1TH,West Dunbartonshire,Awaiting Inspection,2025-02-03,FHIS,False,55.9012687,-4.4053813,"54 Kilbowie Road, Clydebank, G81 1TH"
2026-01-06,1904764,Pixi's Caribbean,Takeaway/sandwich shop,,109 Bridge Street,,,WA1 2HR,Warrington,AwaitingInspection,,FHRS,False,53.3869123,-2.591938,"109 Bridge Street, WA1 2HR"
2026-01-06,1904825,Bertie's Shirts,Takeaway/sandwich shop,,10 Wellington Street,Gateshead,,NE8 2AJ,Gateshead,AwaitingInspection,,FHRS,False,54.9654027,-1.6061019,"10 Wellington Street, Gateshead, NE8 2AJ"
2026-01-06,1904824,Chippy Chappy,Takeaway/sandwich shop,,7,Kingsway North,Team Valley,NE11 0EN,Gateshead,AwaitingInspection,,FHRS,False,,,"7, Kingsway North, Team Valley, NE11 0EN"
2026-01-06,1904827,Dr Drinks,Takeaway/sandwich shop,,,Metro Centre,Whickham,NE11 9YZ,Gateshead,AwaitingInspection,,FHRS,False,54.958263,-1.6667191,"Metro Centre, Whickham, NE11 9YZ"
2026-01-06,1904829,P Dragon,Takeaway/sandwich shop,,Unit 3 Whickham Industrial Estate,Swalwell,Whickham,NE16 3DA,Gateshead,AwaitingInspection,,FHRS,False,54.9523277282715,-1.68808698654175,"Unit 3 Whickham Industrial Estate, Swalwell, Whickham, NE16 3DA"
2026-01-06,1904810,Kims Bulgogi,Takeaway/sandwich shop,11 St Stephen Street,Edinburgh,,,EH3 5AN,Edinburgh (City of),Awaiting Inspection,2026-01-05,FHIS,False,55.957658,-3.207436,"11 St Stephen Street, Edinburgh, EH3 5AN"
2026-01-06,1904800,Shawarma Al Sultan,Takeaway/sandwich shop,79 Dalry Road,Edinburgh,,,EH11 2AA,Edinburgh (City of),Awaiting Inspection,2025-12-23,FHIS,False,55.943855,-3.218487,"79 Dalry Road, Edinburgh, EH11 2AA"
2026-01-06,1904834,Mac Flames Macclesfield,Takeaway/sandwich shop,55 Sunderland Street,Macclesfield,,Cheshire,SK11 6HN,Cheshire East,AwaitingInspection,,FHRS,False,53.2572983,-2.1227552,"55 Sunderland Street, Macclesfield, Cheshire, SK11 6HN"
2026-01-06,1904719,Hungry Hub,Takeaway/sandwich shop,55 Upper High Street,Epsom,Surrey,,KT17 4RA,Epsom and Ewell,AwaitingInspection,,FHRS,False,51.334622,-0.26123,"55 Upper High Street, Epsom, Surrey, KT17 4RA"
2026-01-06,1904717,Siva Chicken Shop,Takeaway/sandwich shop,Sandies Flowers,27 Pound Lane,Epsom,Surrey,KT19 8RY,Epsom and Ewell,AwaitingInspection,,FHRS,False,51.3401556,-0.2688517,"Sandies Flowers, 27 Pound Lane, Epsom, Surrey, KT19 8RY"
2026-01-06,1904662,Charcoal Kitchen,Takeaway/sandwich shop,Unit A 9 Mount Avenue,Bletchley,Milton Keynes,,MK1 1LS,Milton Keynes,AwaitingInspection,,FHRS,False,,,"Unit A 9 Mount Avenue, Bletchley, Milton Keynes, MK1 1LS"
2026-01-06,1904674,Chilli chilli chilli limited,Takeaway/sandwich shop,Borough Market,8,Southwark Street,London,SE1 1TL,Southwark,AwaitingInspection,,FHRS,False,51.505093,-0.090093,"Borough Market, 8, Southwark Street, London, SE1 1TL"
2026-01-06,1904671,La tua pasta ltd,Takeaway/sandwich shop,Borough Market,8,Southwark Street,London,SE1 1TL,Southwark,AwaitingInspection,,FHRS,False,51.505093,-0.090093,"Borough Market, 8, Southwark Street, London, SE1 1TL"
2026-01-06,1904664,Patty bros,Takeaway/sandwich shop,4 At Unit 10 The Aylesham Centre,,Rye Lane,London,SE15 5EW,Southwark,AwaitingInspection,,FHRS,False,51.4723656,-0.0694128,"4 At Unit 10 The Aylesham Centre, Rye Lane, London, SE15 5EW"
2026-01-06,1904669,Royal mahal,Takeaway/sandwich shop,,145,Ormside Street,,SE15 1TF,Southwark,AwaitingInspection,,FHRS,False,51.4838768,-0.0560141,"145, Ormside Street, SE15 1TF"
2026-01-06,1904670,The cinnamon tree bakery,Takeaway/sandwich shop,Green Market Borough Market,8,Southwark Street,London,SE1 9AL,Southwark,AwaitingInspection,,FHRS,False,51.505428,-0.090252,"Green Market Borough Market, 8, Southwark Street, London, SE1 9AL"
2026-01-06,1615219,The merge,Takeaway/sandwich shop,Arches 247a And 248,1-9,Pelier Street,London,SE17 3JG,Southwark,3,2025-09-11,FHRS,False,51.4840717,-0.0958303,"Arches 247a And 248, 1-9, Pelier Street, London, SE17 3JG"
2026-01-06,1904679,Hastings Spice,Takeaway/sandwich shop,51 Bohemia Road,St Leonards-on-sea,East Sussex,,TN37 6RE,Hastings,AwaitingInspection,,FHRS,False,50.863421,0.559057,"51 Bohemia Road, St Leonards-on-sea, East Sussex, TN37 6RE"
2026-01-06,1904629,Gills Silverlink Ltd,Takeaway/sandwich shop,12B New York Way,New York Industrial Park,North Shields,Tyne And Wear,NE27 0QF,North Tyneside,5,2025-12-17,FHRS,False,55.0209259,-1.4929698,"12B New York Way, New York Industrial Park, North Shields, Tyne And Wear, NE27 0QF"
2026-01-06,1904628,Souvlaki Time,Takeaway/sandwich shop,2B Duke Street,Whitley Bay,Tyne And Wear,,NE26 3PP,North Tyneside,AwaitingInspection,,FHRS,True,55.043432,-1.451968,"2B Duke Street, Whitley Bay, Tyne And Wear, NE26 3PP"
2026-01-06,1904815,Smash City,Takeaway/sandwich shop,,217 Bobbers Mill Road,,Nottingham,NG7 5JP,Nottingham City,AwaitingInspection,,FHRS,False,52.965246,-1.179151,"217 Bobbers Mill Road, Nottingham, NG7 5JP"
2026-01-06,1742715,Subway,Takeaway/sandwich shop,67 Western Road,Brighton,,,BN1 2HA,Brighton and Hove,5,2024-10-25,FHRS,False,50.824135,-0.149564,"67 Western Road, Brighton, BN1 2HA"
2026-01-06,1904811,Copper Kadai,Takeaway/sandwich shop,3 Neeld Parade,Wembley Hill Road,Wembley,,HA9 6QU,Brent,5,2025-12-03,FHRS,False,51.5534997,-0.2862828,"3 Neeld Parade, Wembley Hill Road, Wembley, HA9 6QU"
2026-01-06,1851247,Milano Pizzeria,Takeaway/sandwich shop,Milano Pizzeria 13 Millgate,,,THIRSK,YO7 1AA,North Yorkshire,1,2025-10-29,FHRS,False,54.2335887,-1.3422771,"Milano Pizzeria 13 Millgate, THIRSK, YO7 1AA"
2026-01-06,1904639,Hooked Fish & Chips,Takeaway/sandwich shop,166 Rhuddlan Road,,Rhyl,,LL18 2RF,Denbighshire,AwaitingInspection,,FHRS,False,53.3064925,-3.4686699,"166 Rhuddlan Road, Rhyl, LL18 2RF"
2026-01-06,1699962,Mr. Hot Wings,Takeaway/sandwich shop,178 Upper Wickham Lane,Welling,Kent,,DA16 3EB,Bexley,3,2025-12-08,FHRS,False,51.4684600830078,0.110067002475262,"178 Upper Wickham Lane, Welling, Kent, DA16 3EB"
2026-01-06,1904639,Hooked Fish & Chips,Takeaway/sandwich shop,166 Rhuddlan Road,,Rhyl,,LL18 2RF,Sir Ddinbych,AwaitingInspection,,FHRS,False,53.3064925,-3.4686699,"166 Rhuddlan Road, Rhyl, LL18 2RF"
2026-01-06,1904773,Bamboo Kitchen,Takeaway/sandwich shop,24 Wellington Road,Oxton,Wirral,,CH43 2JE,Wirral,2,2025-10-30,FHRS,False,53.3836608,-3.0521611,"24 Wellington Road, Oxton, Wirral, CH43 2JE"
2026-01-07,1905101,Merrie England,Takeaway/sandwich shop,Bus Station,Wade Street,Halifax,Calderdale,HX1 1SN,Calderdale,AwaitingInspection,,FHRS,False,53.724665,-1.8584893,"Bus Station, Wade Street, Halifax, Calderdale, HX1 1SN"
2026-01-07,1904879,Lahori Nashta&takeaway,Takeaway/sandwich shop,Lahori Nashta and Takeaway,10B Union Street,Heckmondwike,,WF16 0HH,Kirklees,AwaitingInspection,,FHRS,False,53.7073647,-1.6779675,"Lahori Nashta and Takeaway, 10B Union Street, Heckmondwike, WF16 0HH"
2026-01-07,1904983,BOMBAY PIZZA,Takeaway/sandwich shop,Unit M209 Hawley Wharf,Water Lane,,London,NW1 8JZ,Camden,AwaitingInspection,,FHRS,False,51.541834,-0.1439796,"Unit M209 Hawley Wharf, Water Lane, London, NW1 8JZ"
2026-01-07,1904971,FLIP & ROLL,Takeaway/sandwich shop,,29 Endell Street,,London,WC2H 9BA,Camden,AwaitingInspection,,FHRS,False,51.5144564,-0.1247432,"29 Endell Street, London, WC2H 9BA"
2026-01-07,1904994,Grounded Burger Smash & Flame,Takeaway/sandwich shop,,11 Kentish Town Road,,London,NW1 8NH,Camden,AwaitingInspection,,FHRS,False,51.5397033,-0.1425385,"11 Kentish Town Road, London, NW1 8NH"
2026-01-07,1904972,Palestine House,Takeaway/sandwich shop,Palestine House,113 High Holborn,,London,WC1V 6JQ,Camden,AwaitingInspection,,FHRS,False,51.5178578,-0.1198181,"Palestine House, 113 High Holborn, London, WC1V 6JQ"
2026-01-07,1904992,POPULUS TEA,Takeaway/sandwich shop,,,,,,Camden,AwaitingInspection,,FHRS,False,,,
2026-01-07,1904951,Shepherds Chicken And Pizza,Takeaway/sandwich shop,36 Shepherds Lane,Dartford,Kent,,DA1 2NY,Dartford,AwaitingInspection,,FHRS,False,51.443914,0.200331,"36 Shepherds Lane, Dartford, Kent, DA1 2NY"
2026-01-07,1904944,The Hutch,Takeaway/sandwich shop,35 - 37 Eastern Esplanade,Canvey Island,Essex,,SS8 7DN,Castle Point,AwaitingInspection,,FHRS,False,51.512844,0.597704,"35 - 37 Eastern Esplanade, Canvey Island, Essex, SS8 7DN"
2026-01-07,1905040,Ali's Takeway,Takeaway/sandwich shop,27 Central Drive,,Spennymoor,United Kingdom,DL16 7DJ,Durham,AwaitingInspection,,FHRS,False,54.6893118,-1.6156683,"27 Central Drive, Spennymoor, United Kingdom, DL16 7DJ"
2026-01-07,1889577,Belmont Tandoori,Takeaway/sandwich shop,16 CHEVELEY PARK SHOPPING CENTRE,,BELMONT,,DH1 2AA,Durham,4,2025-10-16,FHRS,False,54.7857037,-1.5247869,"16 CHEVELEY PARK SHOPPING CENTRE, BELMONT, DH1 2AA"
2026-01-07,1905021,Best Kebab,Takeaway/sandwich shop,4 SOUTH STREET,,CROOK,,DL15 8NE,Durham,AwaitingInspection,,FHRS,False,54.7144819,-1.7452283,"4 SOUTH STREET, CROOK, DL15 8NE"
2026-01-07,696339,CHEEZY PIZZA,Takeaway/sandwich shop,8 HAIG TERRACE,DEAN BANK,FERRYHILL,,DL17 8NR,Durham,5,2025-12-16,FHRS,False,54.6873644,-1.56335,"8 HAIG TERRACE, DEAN BANK, FERRYHILL, DL17 8NR"
2026-01-07,1905034,Gilesgate tandoori,Takeaway/sandwich shop,39 MARSHALL TERRACE,,GILESGATE,,DH1 2HX,Durham,AwaitingInspection,,FHRS,False,54.7802346,-1.5457982,"39 MARSHALL TERRACE, GILESGATE, DH1 2HX"
2026-01-07,1905022,Lisa Buffet,Takeaway/sandwich shop,28 WOODLANDS AVENUE,,WHEATLEY HILL,,DH6 3LG,Durham,AwaitingInspection,,FHRS,False,54.7410984,-1.4162857,"28 WOODLANDS AVENUE, WHEATLEY HILL, DH6 3LG"
2026-01-07,1905037,LUCKY 8 Chinese Takeaway,Takeaway/sandwich shop,5 COWLEY STREET,,SHOTTON COLLIERY,,DH6 2LP,Durham,AwaitingInspection,,FHRS,False,54.7617744,-1.3866129,"5 COWLEY STREET, SHOTTON COLLIERY, DH6 2LP"
2026-01-07,1905011,Lumley Pizza,Takeaway/sandwich shop,UNIT 5A CASTLE PARADE FRONT STREET,,GREAT LUMLEY,,DH3 4JB,Durham,AwaitingInspection,,FHRS,True,54.8364921,-1.5477327,"UNIT 5A CASTLE PARADE FRONT STREET, GREAT LUMLEY, DH3 4JB"
2026-01-07,1905038,new century,Takeaway/sandwich shop,87 DURHAM ROAD,,BLACKHILL,,DH8 8RR,Durham,AwaitingInspection,,FHRS,False,54.8611347,-1.8495218,"87 DURHAM ROAD, BLACKHILL, DH8 8RR"
2026-01-07,1905023,Pizza Time,Takeaway/sandwich shop,1 DARLINGTON ROAD,,FERRYHILL,,DL17 8JP,Durham,AwaitingInspection,,FHRS,False,54.688261,-1.5578025,"1 DARLINGTON ROAD, FERRYHILL, DL17 8JP"
2026-01-07,1905039,Pizza Villa,Takeaway/sandwich shop,DANBY HOUSE THE VILLAS,,THORNLEY,,DH6 3EU,Durham,AwaitingInspection,,FHRS,False,54.7498341,-1.4395115,"DANBY HOUSE THE VILLAS, THORNLEY, DH6 3EU"
2026-01-07,1682978,Speedy Pepper,Takeaway/sandwich shop,64 FORE BONDGATE,,BISHOP AUCKLAND,,DL14 7PE,Durham,5,2025-10-14,FHRS,False,54.6655002,-1.6752412,"64 FORE BONDGATE, BISHOP AUCKLAND, DL14 7PE"
2026-01-07,1905027,The Chatterbox Sandwich Shop,Takeaway/sandwich shop,75 FRONT STREET,,COCKFIELD,,DL13 5DJ,Durham,AwaitingInspection,,FHRS,False,54.6130886,-1.8051768,"75 FRONT STREET, COCKFIELD, DL13 5DJ"
2026-01-07,1905043,The Coffee & Co.,Takeaway/sandwich shop,22 PENSHAW VIEW,,SACRISTON,,DH7 6UX,Durham,AwaitingInspection,,FHRS,False,54.8158889,-1.6191075,"22 PENSHAW VIEW, SACRISTON, DH7 6UX"
2026-01-07,1905019,Tindale Deli,Takeaway/sandwich shop,WORKING MENS CLUB AND INSTITUTE TINDALE CRESCENT,,BISHOP AUCKLAND,,DL14 9SS,Durham,5,2025-12-18,FHRS,False,,,"WORKING MENS CLUB AND INSTITUTE TINDALE CRESCENT, BISHOP AUCKLAND, DL14 9SS"
2026-01-07,1905146,Empanading,Takeaway/sandwich shop,within Mokka,2-6 Southway,Eccles,,M30 0LJ,Salford,AwaitingInspection,,FHRS,False,53.4831001,-2.337509,"within Mokka, 2-6 Southway, Eccles, M30 0LJ"
2026-01-07,1901104,Jade Palace,Takeaway/sandwich shop,1 Victoria Road,Roche,St Austell,Cornwall,PL26 8JF,Cornwall,4,2025-12-08,FHRS,False,50.408541,-4.832596,"1 Victoria Road, Roche, St Austell, Cornwall, PL26 8JF"
2026-01-07,1905144,Grill Cartel Acton,Takeaway/sandwich shop,Blue Star Hotel,51 - 53 Steyne Road,Acton,,W3 9NU,Ealing,AwaitingInspection,,FHRS,False,51.5093754,-0.272304,"Blue Star Hotel, 51 - 53 Steyne Road, Acton, W3 9NU"
2026-01-07,1904908,KALAVARA- kerala Home Kitchen,Takeaway/sandwich shop,,,,,,South Oxfordshire,AwaitingInspection,,FHRS,False,,,
2026-01-07,1905068,Bens fire and feast,Takeaway/sandwich shop,,112 Birley Spa Lane,Sheffield,,S12 4EJ,Sheffield,AwaitingInspection,,FHRS,False,53.347159,-1.378082,"112 Birley Spa Lane, Sheffield, S12 4EJ"
2026-01-07,1905069,Burritos y mas,Takeaway/sandwich shop,,663 Chesterfield Road,Sheffield,,S8 0RY,Sheffield,AwaitingInspection,,FHRS,False,53.3453219,-1.4782555,"663 Chesterfield Road, Sheffield, S8 0RY"
2026-01-07,1905067,Grab n Go,Takeaway/sandwich shop,,St. Marys Gate,Sheffield,,S2 4QA,Sheffield,AwaitingInspection,,FHRS,False,,,"St. Marys Gate, Sheffield, S2 4QA"
2026-01-07,1904871,Bengal Munchies,Takeaway/sandwich shop,3 Dalelands West,,Market Drayton,Shropshire,TF9 1DG,Shropshire,AwaitingInspection,,FHRS,True,52.8971523,-2.4970476,"3 Dalelands West, Market Drayton, Shropshire, TF9 1DG"
2026-01-07,1904853,Ikki Street Food,Takeaway/sandwich shop,Middlesex Street Market,Middlesex Street,London,,E1,Tower Hamlets,AwaitingInspection,,FHRS,False,51.518026,-0.057244,"Middlesex Street Market, Middlesex Street, London, E1"
2026-01-07,1905165,Anfield Grill and Pizza House,Takeaway/sandwich shop,116 Breckfield Road North,,Liverpool,,L5 4QZ,Liverpool,AwaitingInspection,,FHRS,False,53.425304,-2.9640973,"116 Breckfield Road North, Liverpool, L5 4QZ"
2026-01-07,1905160,Azeez Sweets,Takeaway/sandwich shop,46K Kiosk Lodge Lane,,Liverpool,,L8 0QL,Liverpool,AwaitingInspection,,FHRS,False,53.3963416,-2.94988,"46K Kiosk Lodge Lane, Liverpool, L8 0QL"
2026-01-07,1905167,Jumbo's,Takeaway/sandwich shop,204 Greenhill Road,,Liverpool,,L18 7HW,Liverpool,AwaitingInspection,,FHRS,False,53.3704551,-2.9017917,"204 Greenhill Road, Liverpool, L18 7HW"
2026-01-07,1905166,Lucky Star,Takeaway/sandwich shop,163 Walton Road,,Liverpool,,L4 4AH,Liverpool,AwaitingInspection,,FHRS,False,53.4355251,-2.9728485,"163 Walton Road, Liverpool, L4 4AH"
2026-01-07,1905163,Naples Pizza,Takeaway/sandwich shop,331 Aigburth Road,,Liverpool,,L17 0BL,Liverpool,AwaitingInspection,,FHRS,False,53.3723966,-2.933397,"331 Aigburth Road, Liverpool, L17 0BL"
2026-01-07,1905164,Papa Nicolo's,Takeaway/sandwich shop,166 Warbreck Moor,,Liverpool,,L9 0HZ,Liverpool,AwaitingInspection,,FHRS,False,53.4701102,-2.9554704,"166 Warbreck Moor, Liverpool, L9 0HZ"
2026-01-07,1905158,Preferred pizza,Takeaway/sandwich shop,69 Lisburn Lane,,Liverpool,,L13 9AF,Liverpool,AwaitingInspection,,FHRS,False,53.4279845,-2.9310023,"69 Lisburn Lane, Liverpool, L13 9AF"
2026-01-07,1905150,FLAMING GRILL,Takeaway/sandwich shop,,72 High Street,Talke,Kidsgrove,ST7 1PY,Newcastle-Under-Lyme,0,2025-11-06,FHRS,False,53.0713078,-2.2602515,"72 High Street, Talke, Kidsgrove, ST7 1PY"
2026-01-07,1905148,FRYDAYS,Takeaway/sandwich shop,,24 Lower Ash Road,Kidsgrove,Staffordshire,ST7 1DF,Newcastle-Under-Lyme,AwaitingInspection,,FHRS,False,53.082969,-2.252961,"24 Lower Ash Road, Kidsgrove, Staffordshire, ST7 1DF"
2026-01-08,1905254,Manor Kebab and Pizza,Takeaway/sandwich shop,155 Manor Road,Chigwell,Essex,,IG7 5QA,Epping Forest,AwaitingInspection,,FHRS,True,51.6127334,0.0900515,"155 Manor Road, Chigwell, Essex, IG7 5QA"
2026-01-08,1905251,Yo! To Go!,Takeaway/sandwich shop,77-79 High Street,Epping,Essex,,CM16 4BA,Epping Forest,5,2026-01-06,FHRS,False,51.696566,0.107276,"77-79 High Street, Epping, Essex, CM16 4BA"
2026-01-08,1905299,Greggs PLC,Takeaway/sandwich shop,23 The Hyde,Stevenage,Herts,,SG2 9SD,Stevenage,AwaitingInspection,,FHRS,False,51.892537,-0.169396,"23 The Hyde, Stevenage, Herts, SG2 9SD"
2026-01-08,1905262,Mias,Takeaway/sandwich shop,Cafe Shimla,56 - 58 Burghley Drive,Corby,,,North Northamptonshire,AwaitingInspection,,FHRS,False,52.4817536,-0.6951313,"Cafe Shimla, 56 - 58 Burghley Drive, Corby"
2026-01-08,1905255,Pizza Bono,Takeaway/sandwich shop,,184 SUTCLIFFE AVENUE,,Grimsby,DN33 1HA,North East Lincolnshire,AwaitingInspection,,FHRS,False,53.5483036,-0.1084871,"184 SUTCLIFFE AVENUE, Grimsby, DN33 1HA"
2026-01-08,1905214,Chipstable Coffee Co,Takeaway/sandwich shop,,,,,,Somerset,AwaitingInspection,,FHRS,False,,,
2026-01-08,1905264,Tick Tock Takeaway,Takeaway/sandwich shop,Moorlynch Vineyard,Spring Lane,Moorlinch,,TA7 9DD,Somerset,AwaitingInspection,,FHRS,False,51.1279831,-2.8585992,"Moorlynch Vineyard, Spring Lane, Moorlinch, TA7 9DD"
2026-01-08,1905326,BLISSÈ,Takeaway/sandwich shop,6 Station Avenue,,,Coventry,CV4 9HS,Coventry,AwaitingInspection,,FHRS,False,52.4005437,-1.595555,"6 Station Avenue, Coventry, CV4 9HS"
2026-01-08,1905324,Nutifafa kitchen,Takeaway/sandwich shop,31 Barras Green,,,Coventry,CV2 4LY,Coventry,AwaitingInspection,,FHRS,False,52.4156732,-1.4833847,"31 Barras Green, Coventry, CV2 4LY"
2026-01-08,1905315,Sultani Biryani and Samosa,Takeaway/sandwich shop,,,,,,Coventry,AwaitingInspection,,FHRS,False,,,
2026-01-08,1905192,Pizza gogo,Takeaway/sandwich shop,,118 High Street,,Yiewsley,UB7 7BB,Hillingdon,AwaitingInspection,,FHRS,False,51.513642,-0.472919,"118 High Street, Yiewsley, UB7 7BB"
2026-01-08,1897169,Le Snack,Takeaway/sandwich shop,4 Foundry Street,Wadebridge,Cornwall,,PL27 7NW,Cornwall,5,2026-01-06,FHRS,False,50.516028,-4.837209,"4 Foundry Street, Wadebridge, Cornwall, PL27 7NW"
2026-01-08,1905279,Moti Bite,Takeaway/sandwich shop,Unit 16c Estate 92,Barkerend Road,Bradford,,BD3 9BA,Bradford,AwaitingInspection,,FHRS,False,,,"Unit 16c Estate 92, Barkerend Road, Bradford, BD3 9BA"
2026-01-08,324803,Shake Street,Takeaway/sandwich shop,,4 Whitby Road,Bradford,,BD8 9JW,Bradford,AwaitingInspection,,FHRS,False,53.805272,-1.785256,"4 Whitby Road, Bradford, BD8 9JW"
2026-01-08,1905268,Vape Dawg,Takeaway/sandwich shop,,737-739 Little Horton Lane,Bradford,,BD5 9EH,Bradford,AwaitingInspection,,FHRS,False,53.7759971,-1.7718726,"737-739 Little Horton Lane, Bradford, BD5 9EH"
2026-01-08,90361,Bliss Kitchen,Takeaway/sandwich shop,,106 Yorkshire Street,Oldham,,OL1 1ST,Oldham,AwaitingInspection,,FHRS,False,53.5420617,-2.106299,"106 Yorkshire Street, Oldham, OL1 1ST"
2026-01-08,1905335,Locos,Takeaway/sandwich shop,Vanguard Business Park,Hamilton Street,Oldham,,OL4 1DA,Oldham,AwaitingInspection,,FHRS,False,53.5416462,-2.0983607,"Vanguard Business Park, Hamilton Street, Oldham, OL4 1DA"
2026-01-08,1899045,DollyMals Kitchen Limited,Takeaway/sandwich shop,,,,,,Torridge,AwaitingInspection,,FHRS,False,,,
2026-01-08,1905170,La Casa Pizzeria & Takeaway,Takeaway/sandwich shop,,67 High Street,Fraserburgh,Aberdeenshire,AB43 9ET,Aberdeenshire,Awaiting Inspection,2026-01-06,FHIS,False,57.693953,-2.008563,"67 High Street, Fraserburgh, Aberdeenshire, AB43 9ET"
2026-01-09,1905386,Phatladz,Takeaway/sandwich shop,,182a Davyhulme Road,Stretford,Manchester,M32 0AS,Trafford,AwaitingInspection,,FHRS,False,53.453022,-2.315783,"182a Davyhulme Road, Stretford, Manchester, M32 0AS"
2026-01-09,1905387,The Cake Co.,Takeaway/sandwich shop,,256 Upper Chorlton Road,Old Trafford,Manchester,M16 0BN,Trafford,AwaitingInspection,,FHRS,False,53.4509178,-2.271964,"256 Upper Chorlton Road, Old Trafford, Manchester, M16 0BN"
2026-01-09,1905546,Atidaan,Takeaway/sandwich shop,,,,,,Stevenage,AwaitingInspection,,FHRS,False,,,
2026-01-09,1905373,Mirchy,Takeaway/sandwich shop,The Curry Hut,18 Sculptor Place,Brighouse,Calderdale,HD6 2AR,Calderdale,AwaitingInspection,,FHRS,False,53.7051456,-1.7871456,"The Curry Hut, 18 Sculptor Place, Brighouse, Calderdale, HD6 2AR"
2026-01-09,1905530,Mr Fired Chiken & Pizza,Takeaway/sandwich shop,70A Unicorn Hill,Redditch,Worcestershire,,B97 4RA,Redditch,AwaitingInspection,,FHRS,False,52.3064379,-1.9449142,"70A Unicorn Hill, Redditch, Worcestershire, B97 4RA"
2026-01-09,1905529,Syds Fish & Chips - Syds Home Of The Battered Chip,Takeaway/sandwich shop,537 Evesham Road,Redditch,Worcestershire,,B97 5JP,Redditch,AwaitingInspection,,FHRS,False,52.278747,-1.938701,"537 Evesham Road, Redditch, Worcestershire, B97 5JP"
2026-01-09,1905505,MacJunk|DopeB|SpagB|Doner|Chihuahua|Caesar|Eggsp|YouV,Takeaway/sandwich shop,417 Beulah Hill,Upper Norwood,London,,SE19 3HB,Croydon,AwaitingInspection,,FHRS,False,51.4224166870117,-0.106284998357296,"417 Beulah Hill, Upper Norwood, London, SE19 3HB"
2026-01-09,631368,NEW FOREST PIZZA,Takeaway/sandwich shop,,,,,,New Forest,AwaitingInspection,,FHRS,False,,,
2026-01-09,1905522,Sarah Michell,Takeaway/sandwich shop,,,,,,Bromsgrove,AwaitingInspection,,FHRS,False,,,
2026-01-09,1905366,Stroud Grill,Takeaway/sandwich shop,,,,,,Stroud,AwaitingInspection,,FHRS,False,,,
2026-01-09,1905365,Wild Apothecary,Takeaway/sandwich shop,,,,,,Stroud,5,2025-10-14,FHRS,False,,,
2026-01-09,1893719,Cuisine Hub,Takeaway/sandwich shop,,126-127 High Street,Gorleston,Great Yarmouth Norfolk,NR31 6RE,Great Yarmouth,AwaitingInspection,,FHRS,False,52.5780763,1.7277329,"126-127 High Street, Gorleston, Great Yarmouth Norfolk, NR31 6RE"
2026-01-09,1905415,Shake Waffle & Roll,Takeaway/sandwich shop,,29 Broad Row,Great Yarmouth,Norfolk,NR30 1HT,Great Yarmouth,AwaitingInspection,,FHRS,False,52.6081181,1.7234902,"29 Broad Row, Great Yarmouth, Norfolk, NR30 1HT"
2026-01-09,1905412,Yummy Kebab,Takeaway/sandwich shop,,Beach Road,Hemsby,Great Yarmouth Norfolk,NR29 4HS,Great Yarmouth,AwaitingInspection,,FHRS,False,52.695743560791,1.70440495014191,"Beach Road, Hemsby, Great Yarmouth Norfolk, NR29 4HS"
2026-01-09,462253,De Pizza House,Takeaway/sandwich shop,Unit 3,Ox Close Avenue,Kimberworth Park,Rotherham,S61 3QY,Rotherham,AwaitingInspection,,FHRS,False,53.44368,-1.392271,"Unit 3, Ox Close Avenue, Kimberworth Park, Rotherham, S61 3QY"
2026-01-09,1474942,TreatHaus,Takeaway/sandwich shop,,22 Laughton Road,Dinnington,Sheffield,S25 2PS,Rotherham,AwaitingInspection,,FHRS,False,53.3678806,-1.2113184,"22 Laughton Road, Dinnington, Sheffield, S25 2PS"
2026-01-09,1905518,Tasty Bite,Takeaway/sandwich shop,,95A Newlands Road,,Grangemouth,FK3 8NT,Falkirk,Awaiting Inspection,,FHIS,False,56.007178,-3.728063,"95A Newlands Road, Grangemouth, FK3 8NT"
2026-01-09,1905426,Delhi Akash,Takeaway/sandwich shop,50 Presidents Court,Hoover Drive,Laindon,Basildon,SS15 6LF,Basildon,AwaitingInspection,,FHRS,True,51.5722111,0.4076688,"50 Presidents Court, Hoover Drive, Laindon, Basildon, SS15 6LF"
2026-01-09,1905421,KINGFISH,Takeaway/sandwich shop,Unit 3,Silva Island Way,Wickford,Essex,SS12 9NR,Basildon,AwaitingInspection,,FHRS,False,51.6020131,0.5358655,"Unit 3, Silva Island Way, Wickford, Essex, SS12 9NR"
2026-01-09,1905423,Pink Chilliz,Takeaway/sandwich shop,7 Station Gate,Station Approach,Laindon,Basildon,SS15 6UA,Basildon,AwaitingInspection,,FHRS,False,51.5681686401367,0.423979014158249,"7 Station Gate, Station Approach, Laindon, Basildon, SS15 6UA"
2026-01-09,1905433,Tasty Fried Chicken also trading as Chicken & Kebab House / Pizza Hub / Grill Hub / Chicken Hub / Smash & Grab / Dessert Hub / Peking House,Takeaway/sandwich shop,,9 Chalvedon Square,Pitsea,Basildon,SS13 3QX,Basildon,AwaitingInspection,,FHRS,False,51.57271,0.500667,"9 Chalvedon Square, Pitsea, Basildon, SS13 3QX"
2026-01-09,1905534,Domino's Pizza,Takeaway/sandwich shop,,32 Old Church Road,Clevedon,,BS21 6NN,North Somerset,5,2024-01-19,FHRS,False,51.435856,-2.854928,"32 Old Church Road, Clevedon, BS21 6NN"
2026-01-09,532721,CHICKEN COTTAGE,Takeaway/sandwich shop,2 Neeld Parade,Wembley Hill Road,Wembley,,HA9 6QU,Brent,5,2023-03-03,FHRS,False,51.55359,-0.286387,"2 Neeld Parade, Wembley Hill Road, Wembley, HA9 6QU"
2026-01-09,1905417,Royal Pan,Takeaway/sandwich shop,Unit 10,513 Kingsbury Road,London,,NW9 9EG,Brent,AwaitingInspection,,FHRS,True,51.5849547,-0.2782716,"Unit 10, 513 Kingsbury Road, London, NW9 9EG"
2026-01-09,533703,Taim Food and Coffee,Takeaway/sandwich shop,Front,51 Dudden Hill Lane,London,,NW10 1BD,Brent,AwaitingInspection,,FHRS,False,51.550686,-0.240874,"Front, 51 Dudden Hill Lane, London, NW10 1BD"
2026-01-09,1905512,The Grill Bros,Takeaway/sandwich shop,7 The Parade,Crayford Way,Crayford,Dartford,DA1 4JA,Bexley,AwaitingInspection,,FHRS,False,51.452037,0.179491,"7 The Parade, Crayford Way, Crayford, Dartford, DA1 4JA"
2026-01-09,1905515,New Canton,Takeaway/sandwich shop,76A Belville Street,Greenock,,,PA15 4SY,Inverclyde,Awaiting Inspection,,FHIS,False,55.9417691,-4.7380727,"76A Belville Street, Greenock, PA15 4SY"
2026-01-09,1905488,Buddha Bowl,Takeaway/sandwich shop,,4 The Crescent,Carlisle,,CA1 1QN,Cumberland,AwaitingInspection,,FHRS,False,54.892162,-2.9321832,"4 The Crescent, Carlisle, CA1 1QN"
2026-01-09,1718410,Grabby Patty's,Takeaway/sandwich shop,,51 Parkside,Carlisle,,CA3 9SF,Cumberland,AwaitingInspection,,FHRS,False,54.9101849,-2.9482624,"51 Parkside, Carlisle, CA3 9SF"
2026-01-09,375189,Hanabi Sushi,Takeaway/sandwich shop,5 Croft Terrace,Victoria Road,Carlisle,,CA1 2SN,Cumberland,5,2025-11-26,FHRS,False,54.891734,-2.902629,"5 Croft Terrace, Victoria Road, Carlisle, CA1 2SN"
2026-01-09,301489,King Cod,Takeaway/sandwich shop,,7 Scotland Road,Carlisle,,CA3 9HR,Cumberland,5,2025-12-05,FHRS,False,54.9040956,-2.9373739,"7 Scotland Road, Carlisle, CA3 9HR"
2026-01-09,1014962,Pancho's Takeaway,Takeaway/sandwich shop,47 Carlisle Market,Scotch Street,Carlisle,,CA3 8QX,Cumberland,AwaitingInspection,,FHRS,False,54.8956718444824,-2.93709897994995,"47 Carlisle Market, Scotch Street, Carlisle, CA3 8QX"
2026-01-10,1905825,Epice a mama,Takeaway/sandwich shop,,,,,,Colchester,AwaitingInspection,,FHRS,False,,,
2026-01-10,1905799,New Garden Takeaway,Takeaway/sandwich shop,221 Chesterfield Road South,,Mansfield,Nottinghamshire,NG19 7EQ,Mansfield,AwaitingInspection,,FHRS,False,53.1544534,-1.2097714,"221 Chesterfield Road South, Mansfield, Nottinghamshire, NG19 7EQ"
2026-01-10,1905742,Cobras Tuck Shop,Takeaway/sandwich shop,Recreation Ground Albert Road,,Stow Cum Quy,Cambridgeshire,,South Cambridgeshire,AwaitingInspection,,FHRS,False,,,"Recreation Ground Albert Road, Stow Cum Quy, Cambridgeshire"
2026-01-10,1905770,Scoopaholic,Takeaway/sandwich shop,5 Crichton Street,Dundee,,,DD1 3AP,Dundee City,Pass,2025-12-31,FHIS,False,56.459886,-2.970337,"5 Crichton Street, Dundee, DD1 3AP"
2026-01-10,1905982,Plazza,Takeaway/sandwich shop,3 The Broadway Friern Barnet Road,,,,N11 3DT,Barnet,AwaitingInspection,,FHRS,False,51.6137773,-0.1525846,"3 The Broadway Friern Barnet Road, N11 3DT"
2026-01-10,1905991,SUSHI HINOKI,Takeaway/sandwich shop,31 The Market Place Falloden Way,,,,NW11 6JY,Barnet,AwaitingInspection,,FHRS,False,,,"31 The Market Place Falloden Way, NW11 6JY"
2026-01-10,1905690,Monkey Bite,Takeaway/sandwich shop,Kiosk 2 Crate Food Hall 2A Selborne Walk,,Walthamstow,,E17 7JR,Waltham Forest,5,2026-01-06,FHRS,False,51.5838104,-0.0241228,"Kiosk 2 Crate Food Hall 2A Selborne Walk, Walthamstow, E17 7JR"
2026-01-10,1905968,Only Fruits,Takeaway/sandwich shop,12 - 13 New Market Walk,,Merthyr Tydfil,,CF47 8EL,Merthyr Tudful,AwaitingInspection,,FHRS,False,51.7451515197754,-3.38019299507141,"12 - 13 New Market Walk, Merthyr Tydfil, CF47 8EL"
2026-01-10,1905750,Donner Express,Takeaway/sandwich shop,210 Green Lane Road,Leicester,,,LE5 4PA,Leicester City,AwaitingInspection,,FHRS,False,52.637381,-1.098468,"210 Green Lane Road, Leicester, LE5 4PA"
2026-01-10,1905749,Nacho Man Ltd,Takeaway/sandwich shop,Ground Floor Shop,258 Humberstone Road,Leicester,,LE5 0EG,Leicester City,AwaitingInspection,,FHRS,False,,,"Ground Floor Shop, 258 Humberstone Road, Leicester, LE5 0EG"
2026-01-10,1905826,Rooster Fried Chicken 804,Takeaway/sandwich shop,Unit 2,Kingsway Local Centre,Thatcham Avenue Kingsway,Quedgeley,GL2 2GT,Gloucester City,AwaitingInspection,,FHRS,False,51.820196,-2.2677173,"Unit 2, Kingsway Local Centre, Thatcham Avenue Kingsway, Quedgeley, GL2 2GT"
2026-01-10,1905911,Alba Kebab,Takeaway/sandwich shop,,59-61 Academy Street,Inverness,Highland,IV1 1LU,Highland,Awaiting Inspection,,FHIS,False,57.4799207,-4.226616,"59-61 Academy Street, Inverness, Highland, IV1 1LU"
2026-01-10,1905907,Bake to Basics,Takeaway/sandwich shop,Creagan Idara 6 Kilvaxter,,Kilmuir,Portree,IV51 9YR,Highland,Awaiting Inspection,,FHIS,False,,,"Creagan Idara 6 Kilvaxter, Kilmuir, Portree, IV51 9YR"
2026-01-10,1905893,Cafe Skye & Mumbai Takeaway,Takeaway/sandwich shop,,Ford Road,Broadford,,IV49 9AB,Highland,Awaiting Inspection,,FHIS,False,,,"Ford Road, Broadford, IV49 9AB"
2026-01-10,1905906,Indian Rasol,Takeaway/sandwich shop,,44 Castle Heather Crescent,Inverness,Highland,IV2 4BF,Highland,Awaiting Inspection,,FHIS,False,57.4574925,-4.2051963,"44 Castle Heather Crescent, Inverness, Highland, IV2 4BF"
2026-01-10,1905902,Kusina ni Luna,Takeaway/sandwich shop,,89 Camanachd Crescent,Fort William,Highland,PH33 6XL,Highland,Awaiting Inspection,,FHIS,False,56.8234306,-5.0991652,"89 Camanachd Crescent, Fort William, Highland, PH33 6XL"
2026-01-10,1905820,After Hours Apron,Takeaway/sandwich shop,,,,,,Harrow,AwaitingInspection,,FHRS,False,,,
2026-01-10,1905863,Mr Cod,Takeaway/sandwich shop,130 Victoria Road,Old Town,Swindon,,SN1 3BU,Swindon,5,2025-12-08,FHRS,False,51.555026,-1.777784,"130 Victoria Road, Old Town, Swindon, SN1 3BU"
2026-01-10,1905653,Wataburger,Takeaway/sandwich shop,,,685 Oldpark Road,Belfast,BT14 6QY,Belfast City,AwaitingInspection,,FHRS,False,54.626293,-5.964681,"685 Oldpark Road, Belfast, BT14 6QY"
2026-01-10,357985,Greggs,Takeaway/sandwich shop,139A High Street,Penge,London,,SE20 7DS,Bromley,5,2025-10-07,FHRS,False,51.414994,-0.052317,"139A High Street, Penge, London, SE20 7DS"
2026-01-10,357428,Greggs,Takeaway/sandwich shop,15 High Street,,Bromley,,BR1 1LF,Bromley,5,2023-11-27,FHRS,False,51.4007065,0.0171432,"15 High Street, Bromley, BR1 1LF"
2026-01-10,1776657,Greggs,Takeaway/sandwich shop,65 High Street,,West Wickham,,BR4 0LS,Bromley,5,2024-12-19,FHRS,False,51.3762005,-0.0181169,"65 High Street, West Wickham, BR4 0LS"
2026-01-10,1437706,Greggs,Takeaway/sandwich shop,Unit 18 Nugent Shopping Park Cray Avenue,,Orpington,,BR5 3RP,Bromley,5,2025-06-13,FHRS,False,51.3929616,0.1126963,"Unit 18 Nugent Shopping Park Cray Avenue, Orpington, BR5 3RP"
2026-01-10,1905876,OJAS,Takeaway/sandwich shop,,,,,,Bromley,AwaitingInspection,,FHRS,False,,,
2026-01-10,339501,Porcellis,Takeaway/sandwich shop,,7 Team Valley Shopping Village,Team Valley,Gateshead,NE11 0EN,Gateshead,5,2025-09-17,FHRS,False,54.933654,-1.618891,"7 Team Valley Shopping Village, Team Valley, Gateshead, NE11 0EN"
2026-01-10,738795,Papa John's Pizza,Takeaway/sandwich shop,,32a Eastway,Hackney,London,E9 5JB,Hackney,5,2025-01-15,FHRS,False,51.545092,-0.029791,"32a Eastway, Hackney, London, E9 5JB"
2026-01-10,1905957,Smashology LTD,Takeaway/sandwich shop,,78 Dalston Lane London,Hackney,London,,Hackney,AwaitingInspection,,FHRS,False,,,"78 Dalston Lane London, Hackney, London"
2026-01-10,1905676,D Isly Artisan,Takeaway/sandwich shop,,,,,,Watford,AwaitingInspection,,FHRS,False,,,
2026-01-10,1905677,Dolphina Gymnastics Club,Takeaway/sandwich shop,,,,,,Watford,AwaitingInspection,,FHRS,False,,,
2026-01-10,1895765,Andover Kebab And Pizza House,Takeaway/sandwich shop,39 London Street,Andover,Hampshire,,SP10 2NU,Test Valley,AwaitingInspection,,FHRS,False,51.206365,-1.477629,"39 London Street, Andover, Hampshire, SP10 2NU"
2026-01-10,1905706,Eagles Fish and Chips Takeaway,Takeaway/sandwich shop,,56 Main Ridge East,,Boston,PE21 6ST,Boston,AwaitingInspection,,FHRS,False,52.9782778,-0.017622,"56 Main Ridge East, Boston, PE21 6ST"
2026-01-10,1905762,Bites N' Delights,Takeaway/sandwich shop,Unit 6 Derby Shopping Centre,Cannon Street,Bolton,,BL3 5BP,Bolton,AwaitingInspection,,FHRS,False,53.5711224,-2.4423724,"Unit 6 Derby Shopping Centre, Cannon Street, Bolton, BL3 5BP"
2026-01-10,1905763,Sundays,Takeaway/sandwich shop,,100 Market Street,Westhoughton,Bolton,BL5 3AZ,Bolton,AwaitingInspection,,FHRS,False,53.5491171,-2.5250795,"100 Market Street, Westhoughton, Bolton, BL5 3AZ"
2026-01-10,1905714,Radgie's,Takeaway/sandwich shop,89 Victoria Road,Darlington,,,DL1 5JQ,Darlington,AwaitingInspection,,FHRS,False,54.5216695,-1.5518304,"89 Victoria Road, Darlington, DL1 5JQ"
2026-01-10,1905625,Urban Kitchen,Takeaway/sandwich shop,,89 Keptie Street,Arbroath,,DD11 3AZ,Angus,Awaiting Inspection,,FHIS,False,56.559848,-2.593055,"89 Keptie Street, Arbroath, DD11 3AZ"
2026-01-10,1905670,42 Smith Street,Takeaway/sandwich shop,Ayr,South Ayrshire,,,KA7 1TF,South Ayrshire,Awaiting Inspection,2025-12-10,FHIS,False,,,"Ayr, South Ayrshire, KA7 1TF"
2026-01-10,1905673,Blue Lagoon Fish And Chips,Takeaway/sandwich shop,105 Main Street,Prestwick,South Ayrshire,,KA9 1JS,South Ayrshire,Awaiting Inspection,2025-12-23,FHIS,False,55.4991139,-4.6106575,"105 Main Street, Prestwick, South Ayrshire, KA9 1JS"
2026-01-10,1905668,Smash Epress Ltd,Takeaway/sandwich shop,148 Hillfoot Road,Ayr,South Ayrshire,,KA7 3LB,South Ayrshire,Awaiting Inspection,2025-12-10,FHIS,False,55.4528402,-4.6014134,"148 Hillfoot Road, Ayr, South Ayrshire, KA7 3LB"
2026-01-10,1905968,Only Fruits,Takeaway/sandwich shop,12 - 13 New Market Walk,,Merthyr Tydfil,,CF47 8EL,Merthyr Tydfil,AwaitingInspection,,FHRS,False,51.7451515197754,-3.38019299507141,"12 - 13 New Market Walk, Merthyr Tydfil, CF47 8EL"
2026-01-10,1865879,Tynings Fish & Chips & Chinese Takeaway,Takeaway/sandwich shop,Tynings Fish And Chip Shop,505 Bath Road,Saltford,Bath And North East Somerset,BS31 3HQ,Bath and North East Somerset,5,2026-01-08,FHRS,False,51.4017137,-2.4562216,"Tynings Fish And Chip Shop, 505 Bath Road, Saltford, Bath And North East Somerset, BS31 3HQ"
2026-01-10,1905792,Hoylands Haven,Takeaway/sandwich shop,Unit 2,11-13 Cumberland Road,,Hoyland,S74 9PQ,Barnsley,AwaitingInspection,,FHRS,False,53.5059436,-1.4384922,"Unit 2, 11-13 Cumberland Road, Hoyland, S74 9PQ"
2026-01-10,1020157,Papa Johns Pizza,Takeaway/sandwich shop,Unit A,2 Upper New Street,,Barnsley,S70 1LP,Barnsley,AwaitingInspection,,FHRS,False,53.5492820739746,-1.48097002506256,"Unit A, 2 Upper New Street, Barnsley, S70 1LP"
2026-01-11,1906005,Bahar-E-Hyderabad,Takeaway/sandwich shop,137 Plashet Road,Plaistow,London,,E13 0RA,Newham,AwaitingInspection,,FHRS,False,51.5376432,0.0290049,"137 Plashet Road, Plaistow, London, E13 0RA"
2026-01-11,1906002,Buns @ The Abbey Tap,Takeaway/sandwich shop,The Abbey Tap,10 - 14 Broadway,Stratford,London,E15 4QS,Newham,AwaitingInspection,,FHRS,False,51.5402807,7.9E-05,"The Abbey Tap, 10 - 14 Broadway, Stratford, London, E15 4QS"
2026-01-11,1906013,Chotpotiwala,Takeaway/sandwich shop,66 Green Street,Forest Gate,London,,E7 8JG,Newham,AwaitingInspection,,FHRS,False,51.5447462,0.0316716,"66 Green Street, Forest Gate, London, E7 8JG"
2026-01-11,1906016,FryDaddy,Takeaway/sandwich shop,Unit S,34 Plashet Grove,East Ham,London,E6 1AE,Newham,AwaitingInspection,,FHRS,False,51.5368296,0.0360016,"Unit S, 34 Plashet Grove, East Ham, London, E6 1AE"
2026-01-12,1906017,Munchy Chicken,Takeaway/sandwich shop,166 Hamlet Court Road,Westcliff-on-sea,Essex,,SS0 7LJ,Southend-On-Sea,AwaitingInspection,,FHRS,True,51.5409912,0.6960088,"166 Hamlet Court Road, Westcliff-on-sea, Essex, SS0 7LJ"
2026-01-12,1891232,Sutton Burger & Burrito,Takeaway/sandwich shop,86 Sutton Road,Southend-on-sea,Essex,,SS2 5EW,Southend-On-Sea,5,2025-12-17,FHRS,False,51.5423856,0.7189812,"86 Sutton Road, Southend-on-sea, Essex, SS2 5EW"
2026-01-13,1906082,Chamwiches,Takeaway/sandwich shop,Ipswich Road,,Cardiff,,CF23 9AQ,Caerdydd,AwaitingInspection,,FHRS,False,,,"Ipswich Road, Cardiff, CF23 9AQ"
2026-01-13,1906069,The Cozy Pot,Takeaway/sandwich shop,Cathays Community Centre 36 - 38 Cathays Terrace,Cathays,Cardiff,,CF24 4HX,Caerdydd,AwaitingInspection,,FHRS,False,51.4916511,-3.1807014,"Cathays Community Centre 36 - 38 Cathays Terrace, Cathays, Cardiff, CF24 4HX"
2026-01-13,1906186,Mei’s fusion Food,Takeaway/sandwich shop,,,,,,Gwynedd,AwaitingInspection,,FHRS,False,,,
2026-01-13,1906183,Ty Cod Nefyn,Takeaway/sandwich shop,Stryd Fawr Nefyn Pwllheli,,,,LL53 6HD,Gwynedd,AwaitingInspection,,FHRS,False,52.93504365,-4.520276,"Stryd Fawr Nefyn Pwllheli, LL53 6HD"
2026-01-13,1906169,Greggs,Takeaway/sandwich shop,2a Herron Retail Units,Glanhwfa Road,Llangefni,Isle Of Anglesey,LL77 7FE,Ynys Môn,5,2025-12-12,FHRS,False,53.2496691,-4.3127092,"2a Herron Retail Units, Glanhwfa Road, Llangefni, Isle Of Anglesey, LL77 7FE"
2026-01-13,1906292,Lazzy Coffee,Takeaway/sandwich shop,17 Eckersley Road,Chelmsford,Essex,,CM1 1SL,Chelmsford,AwaitingInspection,,FHRS,False,51.7375923,0.4779632,"17 Eckersley Road, Chelmsford, Essex, CM1 1SL"
2026-01-13,1906030,Impact-Now,Takeaway/sandwich shop,254 Wellingborough Road,Northampton,NN1 4SJ,,NN1 4SJ,West Northamptonshire,AwaitingInspection,,FHRS,False,52.2532539367676,-0.87432998418808,"254 Wellingborough Road, Northampton, NN1 4SJ, NN1 4SJ"
2026-01-13,1906029,United African Association,Takeaway/sandwich shop,254 Wellingborough Road,Northampton,NN1 4SJ,,NN1 4SJ,West Northamptonshire,AwaitingInspection,,FHRS,False,52.2532539367676,-0.87432998418808,"254 Wellingborough Road, Northampton, NN1 4SJ, NN1 4SJ"
2026-01-13,1890470,Dragon City,Takeaway/sandwich shop,222 Sprowston Road,Norwich,,,NR3 4HT,Norwich City,AwaitingInspection,,FHRS,False,52.646651,1.302969,"222 Sprowston Road, Norwich, NR3 4HT"
2026-01-13,1906145,Cars & Coffee,Takeaway/sandwich shop,30a Jubilee Road,Corporation South,Newtownards,Down,BT23 4YH,Ards and North Down,AwaitingInspection,,FHRS,False,54.5846539,-5.706939,"30a Jubilee Road, Corporation South, Newtownards, Down, BT23 4YH"
2026-01-13,1906175,Supreme Spuds,Takeaway/sandwich shop,Unit 4c Freeman Street Market,Freeman Street,,Grimsby,DN32 7DS,North East Lincolnshire,AwaitingInspection,,FHRS,False,,,"Unit 4c Freeman Street Market, Freeman Street, Grimsby, DN32 7DS"
2026-01-13,1906115,The Potters Wheel,Takeaway/sandwich shop,,,,,,Sunderland,AwaitingInspection,,FHRS,False,,,
2026-01-13,1906111,Today Shawarma,Takeaway/sandwich shop,The Valley,5A Victoria Road,Concord,Washington,NE37 2SY,Sunderland,AwaitingInspection,,FHRS,False,54.9126491,-1.5234349,"The Valley, 5A Victoria Road, Concord, Washington, NE37 2SY"
2026-01-13,1906082,Chamwiches,Takeaway/sandwich shop,Ipswich Road,,Cardiff,,CF23 9AQ,Cardiff,AwaitingInspection,,FHRS,False,,,"Ipswich Road, Cardiff, CF23 9AQ"
2026-01-13,1906069,The Cozy Pot,Takeaway/sandwich shop,Cathays Community Centre 36 - 38 Cathays Terrace,Cathays,Cardiff,,CF24 4HX,Cardiff,AwaitingInspection,,FHRS,False,51.4916511,-3.1807014,"Cathays Community Centre 36 - 38 Cathays Terrace, Cathays, Cardiff, CF24 4HX"
2026-01-13,1906222,Chahalo Bristol,Takeaway/sandwich shop,,12 Park Row,City Centre,Bristol,BS1 5LJ,Bristol,AwaitingInspection,,FHRS,False,51.455302,-2.600691,"12 Park Row, City Centre, Bristol, BS1 5LJ"
2026-01-13,1906221,The Codfather,Takeaway/sandwich shop,,14 West Town Lane,Brislington,Bristol,BS4 5BN,Bristol,AwaitingInspection,,FHRS,False,51.4318085,-2.5468455,"14 West Town Lane, Brislington, Bristol, BS4 5BN"
2026-01-13,1906169,Greggs,Takeaway/sandwich shop,2a Herron Retail Units,Glanhwfa Road,Llangefni,Isle Of Anglesey,LL77 7FE,Anglesey,5,2025-12-12,FHRS,False,53.2496691,-4.3127092,"2a Herron Retail Units, Glanhwfa Road, Llangefni, Isle Of Anglesey, LL77 7FE"
2026-01-13,1906304,Anayas,Takeaway/sandwich shop,,1795 Paisley Road West,Glasgow,,G52 3SS,Glasgow City,Awaiting Inspection,2026-01-09,FHIS,False,55.8454466,-4.3424063,"1795 Paisley Road West, Glasgow, G52 3SS"
2026-01-13,1906308,Keek's,Takeaway/sandwich shop,,183 Fordneuk Street,Glasgow,,G40 3AH,Glasgow City,Awaiting Inspection,2026-01-12,FHIS,False,55.849486,-4.218836,"183 Fordneuk Street, Glasgow, G40 3AH"
2026-01-13,1906305,Raja's Pizza Bar,Takeaway/sandwich shop,,470 Paisley Road,Glasgow,,G5 8RE,Glasgow City,Awaiting Inspection,2026-01-09,FHIS,False,55.853961,-4.277841,"470 Paisley Road, Glasgow, G5 8RE"
2026-01-13,1906302,YO! To Go,Takeaway/sandwich shop,Tesco Store Unit 9,1201 Maryhill Road,Glasgow,,G20 9SH,Glasgow City,Pass,2026-01-08,FHIS,False,55.887041,-4.286288,"Tesco Store Unit 9, 1201 Maryhill Road, Glasgow, G20 9SH"
2026-01-13,1906236,Hylton Pizza Felling,Takeaway/sandwich shop,,51 High Street,Felling Central,Felling,NE10 9LU,Gateshead,AwaitingInspection,,FHRS,False,54.9507469,-1.5706831,"51 High Street, Felling Central, Felling, NE10 9LU"
2026-01-13,1906238,Nates,Takeaway/sandwich shop,,1 Albion Street,Windy Nook,Felling,NE10 9SJ,Gateshead,AwaitingInspection,,FHRS,False,54.9430368,-1.5758228,"1 Albion Street, Windy Nook, Felling, NE10 9SJ"
2026-01-13,1906240,The Chippy Chappy,Takeaway/sandwich shop,7 Team Valley Shopping Village,Kingsway North,Team Valley,Gateshead,NE11 0EN,Gateshead,AwaitingInspection,,FHRS,False,,,"7 Team Valley Shopping Village, Kingsway North, Team Valley, Gateshead, NE11 0EN"
2026-01-13,1906103,IB2 Food Limited T/A Caprinos Pizza,Takeaway/sandwich shop,48 Aldwick Road,,Bognor Regis,West Sussex,PO21 2PN,Arun,AwaitingInspection,,FHRS,False,50.7814597,-0.6851381,"48 Aldwick Road, Bognor Regis, West Sussex, PO21 2PN"
2026-01-13,1906201,CHILLI PEPPER,Takeaway/sandwich shop,257 Bromley Road,London,,,SE6 2RA,Lewisham,AwaitingInspection,,FHRS,False,51.432845,-0.016929,"257 Bromley Road, London, SE6 2RA"
2026-01-13,1906213,PERFECT FRIED CHICKEN,Takeaway/sandwich shop,341 New Cross Road,London,,,SE14 6AT,Lewisham,AwaitingInspection,,FHRS,False,51.476016,-0.035477,"341 New Cross Road, London, SE14 6AT"
2026-01-13,1906206,The Chinese Experience Takeaway,Takeaway/sandwich shop,The Chinese Experience Ground Floor Unit,390 Brockley Road,Crofton Park,London,SE4 2BY,Lewisham,4,2024-11-20,FHRS,False,51.4540759,-0.0379662,"The Chinese Experience Ground Floor Unit, 390 Brockley Road, Crofton Park, London, SE4 2BY"
2026-01-13,1906054,Old Town Kitchen,Takeaway/sandwich shop,Street Record East Street,,Llantwit Major,Vale Of Glamorgan,,Bro Morgannwg,AwaitingInspection,,FHRS,False,51.40839,-3.48531,"Street Record East Street, Llantwit Major, Vale Of Glamorgan"
2026-01-13,1906054,Old Town Kitchen,Takeaway/sandwich shop,Street Record East Street,,Llantwit Major,Vale Of Glamorgan,,Vale of Glamorgan,AwaitingInspection,,FHRS,False,51.40839,-3.48531,"Street Record East Street, Llantwit Major, Vale Of Glamorgan"
2026-01-13,1900174,Taverham Fish Bar,Takeaway/sandwich shop,13B Victoria Road,Taverham,Norfolk,,NR8 6NU,Broadland,5,2026-01-07,FHRS,False,52.6807674,1.2015141,"13B Victoria Road, Taverham, Norfolk, NR8 6NU"
2026-01-13,1906285,Ceylon Pearl,Takeaway/sandwich shop,,34 Beech Avenue,,Nottingham,NG7 7LL,Nottingham City,AwaitingInspection,,FHRS,False,52.971899,-1.161067,"34 Beech Avenue, Nottingham, NG7 7LL"
2026-01-13,1906287,Clifton Food Court CFC,Takeaway/sandwich shop,,29-31 Sunninghill Drive,,Nottingham,NG11 8FT,Nottingham City,AwaitingInspection,,FHRS,False,52.9104368,-1.1800801,"29-31 Sunninghill Drive, Nottingham, NG11 8FT"
2026-01-13,1739282,Jojos Bubble Tea,Takeaway/sandwich shop,11 The Pavements,,,Chesterfield,S40 1PA,Chesterfield,5,2026-01-07,FHRS,False,53.2347132,-1.4295081,"11 The Pavements, Chesterfield, S40 1PA"
2026-01-13,1906186,Mei’s fusion Food,Takeaway/sandwich shop,,,,,,Gwynedd,AwaitingInspection,,FHRS,False,,,
2026-01-13,1906183,Ty Cod Nefyn,Takeaway/sandwich shop,Stryd Fawr Nefyn Pwllheli,,,,LL53 6HD,Gwynedd,AwaitingInspection,,FHRS,False,52.93504365,-4.520276,"Stryd Fawr Nefyn Pwllheli, LL53 6HD"
2026-01-13,1906087,Moto Hospitality Ltd - Greggs (Northbound),Takeaway/sandwich shop,Moto Hospitality Ltd,Winchester Services Northbound,Shroner Wood,Winchester,SO21 1PP,Winchester City,AwaitingInspection,,FHRS,False,51.116483,-1.254184,"Moto Hospitality Ltd, Winchester Services Northbound, Shroner Wood, Winchester, SO21 1PP"
2026-01-13,1906297,Go Burgers,Takeaway/sandwich shop,Queens Market Sussex Street,,Rhyl,Denbighshire,LL18 1SE,Denbighshire,AwaitingInspection,,FHRS,False,53.321458,-3.4920498,"Queens Market Sussex Street, Rhyl, Denbighshire, LL18 1SE"
2026-01-13,1906297,Go Burgers,Takeaway/sandwich shop,Queens Market Sussex Street,,Rhyl,Denbighshire,LL18 1SE,Sir Ddinbych,AwaitingInspection,,FHRS,False,53.321458,-3.4920498,"Queens Market Sussex Street, Rhyl, Denbighshire, LL18 1SE"
