date_added,FHRSID,BusinessName,BusinessType,AddressLine1,AddressLine2,AddressLine3,AddressLine4,PostCode,LocalAuthorityName,RatingValue,RatingDate,SchemeType,NewRatingPending,Latitude,Longitude,AddressSingleLine
2026-02-02,1912189,BFC Peri Peri - Manor Park,Takeaway/sandwich shop,544 High Street North,Manor Park,London,,E12 6QN,Newham,AwaitingInspection,,FHRS,False,51.5505875,0.0479136,"544 High Street North, Manor Park, London, E12 6QN"
2026-02-02,1912193,Dripped Limited,Takeaway/sandwich shop,14 - 16 St Georges Road,Forest Gate,London,,E7 8HY,Newham,AwaitingInspection,,FHRS,False,51.5417861938477,0.0279959999024868,"14 - 16 St Georges Road, Forest Gate, London, E7 8HY"
2026-02-02,1912186,Gourmet Sushi Limited,Takeaway/sandwich shop,Unit 16,Greenshields Industrial Estate,22 - 28 Bradfield Road,Silvertown,E16 2AU,Newham,AwaitingInspection,,FHRS,False,51.5019115,0.0234546,"Unit 16, Greenshields Industrial Estate, 22 - 28 Bradfield Road, Silvertown, E16 2AU"
2026-02-02,1912184,King Neptune,Takeaway/sandwich shop,3 Terrace Road,Plaistow,London,,E13 0LP,Newham,0,2025-12-15,FHRS,False,51.53308,0.022418,"3 Terrace Road, Plaistow, London, E13 0LP"
2026-02-02,1912190,Patel's Food & Chaat - Green Street,Takeaway/sandwich shop,Basement And Ground Floor Rear,25 Plashet Grove,East Ham,London,E6 1AD,Newham,AwaitingInspection,,FHRS,False,51.5374019,0.0356565,"Basement And Ground Floor Rear, 25 Plashet Grove, East Ham, London, E6 1AD"
2026-02-03,1466819,Spud Ladies,Takeaway/sandwich shop,The Watercloset,Moor Lane,,Flookburgh,LA11 7LR,Westmorland and Furness,AwaitingInspection,,FHRS,False,54.1732363,-2.9717157,"The Watercloset, Moor Lane, Flookburgh, LA11 7LR"
2026-02-03,1912337,CHICKENOZ PERI PERI,Takeaway/sandwich shop,123 Witton Street,,Northwich,Cheshire,CW9 5DY,Cheshire West and Chester,AwaitingInspection,,FHRS,False,53.2623973,-2.50826,"123 Witton Street, Northwich, Cheshire, CW9 5DY"
2026-02-03,1912322,Smashies,Takeaway/sandwich shop,12 Cambridge Road,,Ellesmere Port,Cheshire,CH65 4AG,Cheshire West and Chester,AwaitingInspection,,FHRS,False,53.2803777,-2.8977888,"12 Cambridge Road, Ellesmere Port, Cheshire, CH65 4AG"
2026-02-03,1912382,Pizza choice,Takeaway/sandwich shop,1 Bettws Road,Bettws,Bridgend,,CF32 8YD,Bridgend,AwaitingInspection,,FHRS,False,51.5650976,-3.5855461,"1 Bettws Road, Bettws, Bridgend, CF32 8YD"
2026-02-03,1912378,The Coffee Bean Co,Takeaway/sandwich shop,Unit 29 South Cornelly Industrial Estate,South Cornelly,Bridgend,,CF33 4RE,Bridgend,AwaitingInspection,,FHRS,False,51.5073764,-3.7008369,"Unit 29 South Cornelly Industrial Estate, South Cornelly, Bridgend, CF33 4RE"
2026-02-03,1912280,OMAOMA,Takeaway/sandwich shop,10 Mercery Lane,Canterbury,Kent,,CT1 2JJ,Canterbury City,AwaitingInspection,,FHRS,False,51.2788206,1.080764,"10 Mercery Lane, Canterbury, Kent, CT1 2JJ"
2026-02-03,1912253,Yala Habibi,Takeaway/sandwich shop,39 Magdalen Street,Norwich,,,NR3 1LQ,Norwich City,AwaitingInspection,,FHRS,False,52.634792,1.296709,"39 Magdalen Street, Norwich, NR3 1LQ"
2026-02-03,1912240,London Road Supper Bar,Takeaway/sandwich shop,37 London Road,Gloucester,,,GL1 3HF,Gloucester City,AwaitingInspection,,FHRS,False,51.867786,-2.2379876,"37 London Road, Gloucester, GL1 3HF"
2026-02-03,1738788,Southwest Grill,Takeaway/sandwich shop,103 High Street,Gloucester,,,GL1 4SY,Gloucester City,2,2024-06-21,FHRS,False,51.8546536,-2.2361614,"103 High Street, Gloucester, GL1 4SY"
2026-02-03,1912248,Tennessee Fried Chicken,Takeaway/sandwich shop,132 Eastgate Street,Gloucester,,,GL1 1QT,Gloucester City,AwaitingInspection,,FHRS,False,51.8619831,-2.2397431,"132 Eastgate Street, Gloucester, GL1 1QT"
2026-02-03,1912234,Wow Peri Peri,Takeaway/sandwich shop,220 Barton Street,Gloucester,,,GL1 4HH,Gloucester City,AwaitingInspection,,FHRS,False,51.8585343,-2.2332165,"220 Barton Street, Gloucester, GL1 4HH"
2026-02-03,1912246,Yano Cha,Takeaway/sandwich shop,57 Park End Road,Gloucester,,,GL1 5AN,Gloucester City,AwaitingInspection,,FHRS,False,51.8562746,-2.2437203,"57 Park End Road, Gloucester, GL1 5AN"
2026-02-03,1912382,Pizza choice,Takeaway/sandwich shop,1 Bettws Road,Bettws,Bridgend,,CF32 8YD,Pen-y-bont ar Ogwr,AwaitingInspection,,FHRS,False,51.5650976,-3.5855461,"1 Bettws Road, Bettws, Bridgend, CF32 8YD"
2026-02-03,1912378,The Coffee Bean Co,Takeaway/sandwich shop,Unit 29 South Cornelly Industrial Estate,South Cornelly,Bridgend,,CF33 4RE,Pen-y-bont ar Ogwr,AwaitingInspection,,FHRS,False,51.5073764,-3.7008369,"Unit 29 South Cornelly Industrial Estate, South Cornelly, Bridgend, CF33 4RE"
2026-02-03,1738838,Mamus Burgers And Shakes,Takeaway/sandwich shop,7 Queens Parade,Sunderland,,,SR6 8DA,Sunderland,4,2025-09-06,FHRS,False,54.9346008,-1.3688126,"7 Queens Parade, Sunderland, SR6 8DA"
2026-02-03,1912475,Strip'd Nashville Fried Chicken,Takeaway/sandwich shop,Stripp'd Nashville Fried Chicken,Unit 4D Stack Seaburn,Whitburn Road,Sunderland,SR6 8AA,Sunderland,AwaitingInspection,,FHRS,False,,,"Stripp'd Nashville Fried Chicken, Unit 4D Stack Seaburn, Whitburn Road, Sunderland, SR6 8AA"
2026-02-03,1912212,AL Walimah,Takeaway/sandwich shop,Unit B,69 Station Road,,Hayes,UB3 4BG,Hillingdon,AwaitingInspection,,FHRS,False,51.5050517,-0.4190684,"Unit B, 69 Station Road, Hayes, UB3 4BG"
2026-02-03,1912485,Chen's Wok,Takeaway/sandwich shop,Chen's Wok,61 Main Street,Newmilns,East Ayrshire,KA16 9DA,East Ayrshire,Awaiting Inspection,2026-01-22,FHIS,False,55.6075289,-4.3250585,"Chen's Wok, 61 Main Street, Newmilns, East Ayrshire, KA16 9DA"
2026-02-03,1912487,SMASHED,Takeaway/sandwich shop,SMASHED,95 Glaisnock Street,Cumnock,East Ayrshire,KA18 1JP,East Ayrshire,Awaiting Inspection,2026-02-02,FHIS,False,55.4522391,-4.2627844,"SMASHED, 95 Glaisnock Street, Cumnock, East Ayrshire, KA18 1JP"
2026-02-03,1912272,Master Kebab And Pizza,Takeaway/sandwich shop,106 Goldhawk Road,London,,,W12 8HD,Hammersmith and Fulham,AwaitingInspection,,FHRS,False,51.502088,-0.229318,"106 Goldhawk Road, London, W12 8HD"
2026-02-03,1912268,Tao Tao Ju,Takeaway/sandwich shop,Unit 7,Mitre Bridge Industrial Park,Mitre Way,London,W10 6AU,Hammersmith and Fulham,AwaitingInspection,,FHRS,False,51.5243312,-0.2313306,"Unit 7, Mitre Bridge Industrial Park, Mitre Way, London, W10 6AU"
2026-02-03,1912406,Shanices,Takeaway/sandwich shop,145,145-145A Agbrigg Road,Wakefield,,WF1 5AU,Wakefield,AwaitingInspection,,FHRS,False,53.666743,-1.479074,"145, 145-145A Agbrigg Road, Wakefield, WF1 5AU"
2026-02-03,1912377,Shummi Chinese Takeaway,Takeaway/sandwich shop,42 Front Street,Pontefract,,,WF8 1NW,Wakefield,5,2026-01-21,FHRS,False,53.692155,-1.316812,"42 Front Street, Pontefract, WF8 1NW"
2026-02-03,1912385,Chicken Valley,Takeaway/sandwich shop,Smart Kebab House And Fish Bar 41 Vere Street,,Barry,Vale Of Glamorgan,CF63 2HU,Bro Morgannwg,AwaitingInspection,,FHRS,False,51.411491394043,-3.25180506706238,"Smart Kebab House And Fish Bar 41 Vere Street, Barry, Vale Of Glamorgan, CF63 2HU"
2026-02-03,1912440,American Steamed Dogs,Takeaway/sandwich shop,6 Fairground,Glyncoed Terrace,Llanelli,Carmarthenshire,SA15 1EZ,Sir Gaerfyrddin,AwaitingInspection,,FHRS,False,51.6836185,-4.1371782,"6 Fairground, Glyncoed Terrace, Llanelli, Carmarthenshire, SA15 1EZ"
2026-02-03,1912450,Katie Alys Cakes,Takeaway/sandwich shop,,,,,,Sir Gaerfyrddin,AwaitingInspection,,FHRS,False,,,
2026-02-03,1912447,Malis,Takeaway/sandwich shop,,47 Bassett Terrace,Pwll,Llanelli,SA15 4DU,Sir Gaerfyrddin,AwaitingInspection,,FHRS,False,51.6867828,-4.1940685,"47 Bassett Terrace, Pwll, Llanelli, SA15 4DU"
2026-02-03,1912434,Salt 'N' Batter,Takeaway/sandwich shop,,66b Cwmamman Road,Glanaman,Ammanford,SA18 1DJ,Sir Gaerfyrddin,5,2026-01-22,FHRS,False,51.805188,-3.920712,"66b Cwmamman Road, Glanaman, Ammanford, SA18 1DJ"
2026-02-03,1912444,Spuddys,Takeaway/sandwich shop,,53a King Street,Carmarthen,Carmarthenshire,SA31 1BD,Sir Gaerfyrddin,AwaitingInspection,,FHRS,False,51.8568277,-4.3054175,"53a King Street, Carmarthen, Carmarthenshire, SA31 1BD"
2026-02-03,1912443,The Bear Shed,Takeaway/sandwich shop,5 Llanelli Workshops,Trostre Industrial Park,Llanelli,Carmarthenshire,SA14 9UU,Sir Gaerfyrddin,AwaitingInspection,,FHRS,False,51.6730878,-4.1402585,"5 Llanelli Workshops, Trostre Industrial Park, Llanelli, Carmarthenshire, SA14 9UU"
2026-02-03,1912574,SORA,Takeaway/sandwich shop,SUNROEAL PRIVATE LIMITED,884 Woodborough Road,Mapperley,Nottinghamshire,NG3 5QR,Gedling,AwaitingInspection,,FHRS,False,,,"SUNROEAL PRIVATE LIMITED, 884 Woodborough Road, Mapperley, Nottinghamshire, NG3 5QR"
2026-02-03,1912385,Chicken Valley,Takeaway/sandwich shop,Smart Kebab House And Fish Bar 41 Vere Street,,Barry,Vale Of Glamorgan,CF63 2HU,Vale of Glamorgan,AwaitingInspection,,FHRS,False,51.411491394043,-3.25180506706238,"Smart Kebab House And Fish Bar 41 Vere Street, Barry, Vale Of Glamorgan, CF63 2HU"
2026-02-03,1912547,Bobby's Chippy,Takeaway/sandwich shop,11 Main Street,Cowie,,,FK7 7BL,Stirling,Awaiting Inspection,2026-01-27,FHIS,False,,,"11 Main Street, Cowie, FK7 7BL"
2026-02-03,1912461,Mr Munchy,Takeaway/sandwich shop,82 High Street East,Wallsend,Tyne And Wear,,NE28 7RH,North Tyneside,5,2026-01-15,FHRS,False,54.991583,-1.529741,"82 High Street East, Wallsend, Tyne And Wear, NE28 7RH"
2026-02-03,1912440,American Steamed Dogs,Takeaway/sandwich shop,6 Fairground,Glyncoed Terrace,Llanelli,Carmarthenshire,SA15 1EZ,Carmarthenshire,AwaitingInspection,,FHRS,False,51.6836185,-4.1371782,"6 Fairground, Glyncoed Terrace, Llanelli, Carmarthenshire, SA15 1EZ"
2026-02-03,1912450,Katie Alys Cakes,Takeaway/sandwich shop,,,,,,Carmarthenshire,AwaitingInspection,,FHRS,False,,,
2026-02-03,1912447,Malis,Takeaway/sandwich shop,,47 Bassett Terrace,Pwll,Llanelli,SA15 4DU,Carmarthenshire,AwaitingInspection,,FHRS,False,51.6867828,-4.1940685,"47 Bassett Terrace, Pwll, Llanelli, SA15 4DU"
2026-02-03,1912434,Salt 'N' Batter,Takeaway/sandwich shop,,66b Cwmamman Road,Glanaman,Ammanford,SA18 1DJ,Carmarthenshire,5,2026-01-22,FHRS,False,51.805188,-3.920712,"66b Cwmamman Road, Glanaman, Ammanford, SA18 1DJ"
2026-02-03,1912444,Spuddys,Takeaway/sandwich shop,,53a King Street,Carmarthen,Carmarthenshire,SA31 1BD,Carmarthenshire,AwaitingInspection,,FHRS,False,51.8568277,-4.3054175,"53a King Street, Carmarthen, Carmarthenshire, SA31 1BD"
2026-02-03,1912443,The Bear Shed,Takeaway/sandwich shop,5 Llanelli Workshops,Trostre Industrial Park,Llanelli,Carmarthenshire,SA14 9UU,Carmarthenshire,AwaitingInspection,,FHRS,False,51.6730878,-4.1402585,"5 Llanelli Workshops, Trostre Industrial Park, Llanelli, Carmarthenshire, SA14 9UU"
2026-02-03,1912314,Bengal Spice,Takeaway/sandwich shop,11 Croft Street,,Darwen,Blackburn With Darwen,BB3 1BG,Blackburn,AwaitingInspection,,FHRS,False,53.6955334,-2.4670789,"11 Croft Street, Darwen, Blackburn With Darwen, BB3 1BG"
2026-02-03,1912317,Bigger Fish to Fry 2,Takeaway/sandwich shop,7 Shorrock Lane,,Blackburn,Blackburn With Darwen,BB2 4DA,Blackburn,AwaitingInspection,,FHRS,False,53.7343899,-2.5046609,"7 Shorrock Lane, Blackburn, Blackburn With Darwen, BB2 4DA"
2026-02-03,1912515,Kitchen Lads & Desi Corner,Takeaway/sandwich shop,,559 Aspley Lane,,Nottingham,NG8 5RX,Nottingham City,AwaitingInspection,,FHRS,False,52.972935,-1.210099,"559 Aspley Lane, Nottingham, NG8 5RX"
2026-02-03,1912520,WOWO Chinese Takeaway,Takeaway/sandwich shop,,26 King Street,,Nottingham,NG1 2AS,Nottingham City,AwaitingInspection,,FHRS,False,52.9547907,-1.1492641,"26 King Street, Nottingham, NG1 2AS"
2026-02-03,1912494,Benny’s Chinese Takeaway & Noodle Bar,Takeaway/sandwich shop,44 Prospect Road,,,Scarborough,YO12 7JY,North Yorkshire,AwaitingInspection,,FHRS,False,54.2827028,-0.4105388,"44 Prospect Road, Scarborough, YO12 7JY"
2026-02-03,1912497,Magic Wok,Takeaway/sandwich shop,3 Kirkgate,,,Thirsk,YO7 1PQ,North Yorkshire,5,2020-01-20,FHRS,False,54.2328165,-1.344069,"3 Kirkgate, Thirsk, YO7 1PQ"
2026-02-03,1912557,Lucky Joy,Takeaway/sandwich shop,84 Whitegate Drive,Blackpool,,,FY3 9DA,Blackpool,AwaitingInspection,,FHRS,True,53.81502,-3.035691,"84 Whitegate Drive, Blackpool, FY3 9DA"
2026-02-03,1912427,Dover Court TandoorI,Takeaway/sandwich shop,,,,,,Tendring,AwaitingInspection,,FHRS,False,,,
2026-02-03,1912424,MR CHIPS,Takeaway/sandwich shop,8 Wick Lane,Dovercourt,Harwich,Essex,CO12 3TA,Tendring,AwaitingInspection,,FHRS,True,51.9281443,1.2684174,"8 Wick Lane, Dovercourt, Harwich, Essex, CO12 3TA"
2026-02-03,1912531,Loyds Spice,Takeaway/sandwich shop,253A Longmore Road,Shirley,Solihull,,B90 3ER,Solihull,AwaitingInspection,,FHRS,False,52.4038167,-1.8115258,"253A Longmore Road, Shirley, Solihull, B90 3ER"
2026-02-03,1912301,CINNAMON REDDISH,Takeaway/sandwich shop,84 - 86 Gorton Road,North Reddish,Stockport,,SK5 6AH,Stockport,AwaitingInspection,,FHRS,False,53.4398519,-2.1589501,"84 - 86 Gorton Road, North Reddish, Stockport, SK5 6AH"
2026-02-03,1912292,The Chefs Room,Takeaway/sandwich shop,591 Gorton Road,North Reddish,Stockport,,SK5 6NX,Stockport,AwaitingInspection,,FHRS,False,53.453443,-2.158062,"591 Gorton Road, North Reddish, Stockport, SK5 6NX"
2026-02-03,1912310,The Indian Curry \& Kebab House,Takeaway/sandwich shop,370 Brinnington Road,Brinnington,Stockport,,SK5 8BT,Stockport,AwaitingInspection,,FHRS,False,53.427067,-2.131914,"370 Brinnington Road, Brinnington, Stockport, SK5 8BT"
2026-02-03,1912303,Wellino Pizza,Takeaway/sandwich shop,137 Castle Street,Edgeley,Stockport,,SK3 9AR,Stockport,AwaitingInspection,,FHRS,False,53.401449,-2.167795,"137 Castle Street, Edgeley, Stockport, SK3 9AR"
2026-02-04,1912838,The Insaaf Kitchen,Takeaway/sandwich shop,44 The Street,Heybridge,Maldon,Essex,CM9 4NB,Maldon,AwaitingInspection,,FHRS,False,51.739989,0.686897,"44 The Street, Heybridge, Maldon, Essex, CM9 4NB"
2026-02-04,1912727,PIZZA-LICIOUSS,Takeaway/sandwich shop,4 Ffordd Caerdydd Isaf,,Pwllheli,Gwynedd,LL53 5BY,Gwynedd,AwaitingInspection,,FHRS,False,52.8877766,-4.4194224,"4 Ffordd Caerdydd Isaf, Pwllheli, Gwynedd, LL53 5BY"
2026-02-04,1912594,The Sandwich Bar and Kitchen,Takeaway/sandwich shop,3 Victoria street  Paignton,,,,TQ4 5DH,Torbay,AwaitingInspection,,FHRS,False,50.4358077,-3.5676318,"3 Victoria street  Paignton, TQ4 5DH"
2026-02-04,1912809,Pita Gyros,Takeaway/sandwich shop,Unit A,9 Renfrew Road,Paisley,Renfrewshire,PA3 4AF,Renfrewshire,Awaiting Inspection,,FHIS,False,55.8488002,-4.4194216,"Unit A, 9 Renfrew Road, Paisley, Renfrewshire, PA3 4AF"
2026-02-04,1912699,SPICY HOT ROOSTER LIMITED,Takeaway/sandwich shop,324 Eastcote Lane,Harrow,,,HA2 9AH,Harrow,AwaitingInspection,,FHRS,False,51.5621012,-0.3723289,"324 Eastcote Lane, Harrow, HA2 9AH"
2026-02-04,1912830,Imzys,Takeaway/sandwich shop,,35 Snow Hill,Shelton,Stoke-On-Trent,ST1 4LU,Stoke-On-Trent,AwaitingInspection,,FHRS,False,53.01789,-2.182996,"35 Snow Hill, Shelton, Stoke-On-Trent, ST1 4LU"
2026-02-04,1912831,Lucky House,Takeaway/sandwich shop,,34 Stansmore Road,Meir,Stoke-On-Trent,ST3 6LZ,Stoke-On-Trent,AwaitingInspection,,FHRS,False,52.981272,-2.095816,"34 Stansmore Road, Meir, Stoke-On-Trent, ST3 6LZ"
2026-02-04,1912821,Nam Jai Thai,Takeaway/sandwich shop,,74 Victoria Road,Fenton,Stoke-On-Trent,ST4 2JX,Stoke-On-Trent,AwaitingInspection,,FHRS,False,53.001597,-2.161753,"74 Victoria Road, Fenton, Stoke-On-Trent, ST4 2JX"
2026-02-04,1912828,New Imperial Phoenix,Takeaway/sandwich shop,,227 High Street,Tunstall,Stoke-On-Trent,ST6 5EG,Stoke-On-Trent,AwaitingInspection,,FHRS,True,53.060785,-2.210813,"227 High Street, Tunstall, Stoke-On-Trent, ST6 5EG"
2026-02-04,1912823,Rose Grill,Takeaway/sandwich shop,,160 Newcastle Street,Burslem,Stoke-On-Trent,ST6 3QN,Stoke-On-Trent,AwaitingInspection,,FHRS,True,53.043881,-2.208329,"160 Newcastle Street, Burslem, Stoke-On-Trent, ST6 3QN"
2026-02-04,1912833,Tasty Links,Takeaway/sandwich shop,,6 Milton Road,Sneyd Green,Stoke-On-Trent,ST1 6HD,Stoke-On-Trent,AwaitingInspection,,FHRS,False,53.040449,-2.167208,"6 Milton Road, Sneyd Green, Stoke-On-Trent, ST1 6HD"
2026-02-04,1889653,Somma pizza,Takeaway/sandwich shop,Unit 1 Hobsons buildings,,Stanley,United Kingdom,DH9 8EU,Durham,3,2025-12-30,FHRS,False,,,"Unit 1 Hobsons buildings, Stanley, United Kingdom, DH9 8EU"
2026-02-04,1912626,Mixee Foodee,Takeaway/sandwich shop,The Trinity Centre,Trinity Road,Easton,Bristol,BS2 0NW,Bristol,AwaitingInspection,,FHRS,False,51.458065,-2.5759712,"The Trinity Centre, Trinity Road, Easton, Bristol, BS2 0NW"
2026-02-04,1912617,Rice Box,Takeaway/sandwich shop,Kiosk 4 Cargo 2,Museum Street,Redcliff,Bristol,BS1 6ZA,Bristol,AwaitingInspection,,FHRS,False,51.4472473,-2.5986016,"Kiosk 4 Cargo 2, Museum Street, Redcliff, Bristol, BS1 6ZA"
2026-02-04,1912622,Thank COD for That,Takeaway/sandwich shop,,130 Hotwell Road,Hotwells,Bristol,BS8 4UB,Bristol,AwaitingInspection,,FHRS,False,51.4497,-2.61285,"130 Hotwell Road, Hotwells, Bristol, BS8 4UB"
2026-02-04,1912623,The Arjee Bhajee,Takeaway/sandwich shop,,132 Hotwell Road,Hotwells,Bristol,BS8 4UB,Bristol,AwaitingInspection,,FHRS,False,51.4497,-2.61285,"132 Hotwell Road, Hotwells, Bristol, BS8 4UB"
2026-02-04,1912840,Betty's,Takeaway/sandwich shop,,33 Silver Street,Ilminster,Somerset,TA19 0DW,Somerset,AwaitingInspection,,FHRS,False,50.9267103,-2.9122706,"33 Silver Street, Ilminster, Somerset, TA19 0DW"
2026-02-04,1912866,Queens fish &tikka,Takeaway/sandwich shop,18 Queens Gardens,,Eaton Socon,Cambridgeshire,PE19 8BY,Huntingdonshire,AwaitingInspection,,FHRS,False,52.2205706,-0.2925946,"18 Queens Gardens, Eaton Socon, Cambridgeshire, PE19 8BY"
2026-02-04,1912848,Scarlett’s little coffee pod,Takeaway/sandwich shop,Hyperion Antiques Station Road,,St Ives,Cambridgeshire,PE27 5BH,Huntingdonshire,AwaitingInspection,,FHRS,False,,,"Hyperion Antiques Station Road, St Ives, Cambridgeshire, PE27 5BH"
2026-02-04,1912740,The Top Shawarma,Takeaway/sandwich shop,,194 Pitt Street,Glasgow,,G2 4DY,Glasgow City,Awaiting Inspection,2026-01-30,FHIS,False,55.865289,-4.26452,"194 Pitt Street, Glasgow, G2 4DY"
2026-02-04,1912591,Doner One,Takeaway/sandwich shop,122 Commercial Road,Portsmouth,,,PO1 1EJ,Portsmouth,AwaitingInspection,,FHRS,False,50.7992744445801,-1.0906800031662,"122 Commercial Road, Portsmouth, PO1 1EJ"
2026-02-04,1912593,GOURMET SPICE HUB,Takeaway/sandwich shop,62 Fratton Road,Portsmouth,,,PO1 5BX,Portsmouth,AwaitingInspection,,FHRS,False,50.7973289489746,-1.07664203643799,"62 Fratton Road, Portsmouth, PO1 5BX"
2026-02-04,1912602,Fridays Fish and Chips,Takeaway/sandwich shop,27 Meredith Road,Ipswich,Suffolk,,IP1 6ED,Ipswich,AwaitingInspection,,FHRS,False,52.079056,1.126941,"27 Meredith Road, Ipswich, Suffolk, IP1 6ED"
2026-02-04,1912605,The Bio Mechanix Ipswich,Takeaway/sandwich shop,Unit 12,Alpha Business Park,White House Road,Ipswich,IP1 5LT,Ipswich,AwaitingInspection,,FHRS,False,52.0810411,1.1238234,"Unit 12, Alpha Business Park, White House Road, Ipswich, IP1 5LT"
2026-02-04,1912712,Chow Wagon,Takeaway/sandwich shop,78 West Marlands Road,Southampton,,,SO14 7FW,Southampton,AwaitingInspection,,FHRS,False,50.907351,-1.405189,"78 West Marlands Road, Southampton, SO14 7FW"
2026-02-04,1912713,Perfect Spud Ltd,Takeaway/sandwich shop,43 Bridge Road,Southampton,,,SO19 7GP,Southampton,AwaitingInspection,,FHRS,False,50.90014,-1.377764,"43 Bridge Road, Southampton, SO19 7GP"
2026-02-04,1912711,Sizzle,Takeaway/sandwich shop,9 Premier Parade,Forest Hills Drive,Southampton,,SO18 2GA,Southampton,AwaitingInspection,,FHRS,False,50.9334647,-1.3641494,"9 Premier Parade, Forest Hills Drive, Southampton, SO18 2GA"
2026-02-04,1912928,Boss Pizza,Takeaway/sandwich shop,Shop,1255 London Road,Derby,,DE24 8QN,Derby City,AwaitingInspection,,FHRS,False,52.8978173,-1.4309426,"Shop, 1255 London Road, Derby, DE24 8QN"
2026-02-04,1912931,Dixy chicken,Takeaway/sandwich shop,,14 Shardlow Road,Derby,,DE24 0JH,Derby City,AwaitingInspection,,FHRS,False,52.8964552,-1.428636,"14 Shardlow Road, Derby, DE24 0JH"
2026-02-04,1912923,Love Curry Love Food,Takeaway/sandwich shop,,22c High Street,Chellaston,Derby,DE73 6TD,Derby City,AwaitingInspection,,FHRS,False,52.8686006,-1.4374795,"22c High Street, Chellaston, Derby, DE73 6TD"
2026-02-04,1912924,O'Gelato,Takeaway/sandwich shop,Unit 2 Factory Food Court,Meadow Road,Derby,,DE1 2BH,Derby City,5,2026-01-21,FHRS,False,,,"Unit 2 Factory Food Court, Meadow Road, Derby, DE1 2BH"
2026-02-04,1912939,Pizza Licious Ltd,Takeaway/sandwich shop,,72a Cardigan Street,Derby,,DE21 6DX,Derby City,AwaitingInspection,,FHRS,False,52.9312427,-1.452841,"72a Cardigan Street, Derby, DE21 6DX"
2026-02-04,1912935,Tandoori Express,Takeaway/sandwich shop,,74 Vestry Road,Oakwood,Derby,DE21 2BN,Derby City,AwaitingInspection,,FHRS,False,52.947818,-1.445213,"74 Vestry Road, Oakwood, Derby, DE21 2BN"
2026-02-04,1788880,Chicken Valley,Takeaway/sandwich shop,39 The Green,Southall,,,UB2 4AN,Ealing,0,2026-01-14,FHRS,False,51.504101,-0.379712,"39 The Green, Southall, UB2 4AN"
2026-02-04,1738658,Papa Johns Pizza,Takeaway/sandwich shop,Unit A,Lyra Court,Portal Way,Acton,W3 6BJ,Ealing,0,2026-01-12,FHRS,False,51.522519,-0.261189,"Unit A, Lyra Court, Portal Way, Acton, W3 6BJ"
2026-02-04,1912906,Perfect Food,Takeaway/sandwich shop,47 The Broadway,Southall,,,UB1 1JY,Ealing,AwaitingInspection,,FHRS,False,51.511254,-0.378074,"47 The Broadway, Southall, UB1 1JY"
2026-02-04,1912908,Shandar Chaat Corner,Takeaway/sandwich shop,21 The Green,Southall,,,UB2 4AN,Ealing,AwaitingInspection,,FHRS,False,51.5045031,-0.3795485,"21 The Green, Southall, UB2 4AN"
2026-02-04,1912903,Yo Bro Burgers / Currys Mama,Takeaway/sandwich shop,Unit K 3,Alpha Beta Business Centre,7 - 11 Minerva Road,Park Royal,NW10 6HJ,Ealing,AwaitingInspection,,FHRS,False,51.5294841,-0.2614361,"Unit K 3, Alpha Beta Business Centre, 7 - 11 Minerva Road, Park Royal, NW10 6HJ"
2026-02-04,1912792,Continental Clock Face Pizza Ltd,Takeaway/sandwich shop,9 Four Acre Lane Shopping Centre,Four Acre Lane,Clock Face,,WA9 4BZ,St Helens,AwaitingInspection,,FHRS,False,53.4199638366699,-2.72418403625488,"9 Four Acre Lane Shopping Centre, Four Acre Lane, Clock Face, WA9 4BZ"
2026-02-04,1912791,Eat Munch,Takeaway/sandwich shop,4 Chain Lane Shopping Precinct,Chain Lane,St Helens,,WA11 9HB,St Helens,5,2025-01-15,FHRS,False,53.467383,-2.711252,"4 Chain Lane Shopping Precinct, Chain Lane, St Helens, WA11 9HB"
2026-02-04,1912790,FFC,Takeaway/sandwich shop,,99 Walmesley Road,Eccleston,,WA10 5JW,St Helens,AwaitingInspection,,FHRS,False,53.461383,-2.777003,"99 Walmesley Road, Eccleston, WA10 5JW"
2026-02-04,1912789,Pinkeez,Takeaway/sandwich shop,,91a Junction Lane,St Helens,,WA9 3JN,St Helens,AwaitingInspection,,FHRS,False,53.4348359,-2.7003969,"91a Junction Lane, St Helens, WA9 3JN"
2026-02-04,1912678,Cod City,Takeaway/sandwich shop,Unit B Spital Hill Plaza,68 Spital Hill,Sheffield,,S4 7LG,Sheffield,AwaitingInspection,,FHRS,False,53.3915008,-1.4581026,"Unit B Spital Hill Plaza, 68 Spital Hill, Sheffield, S4 7LG"
2026-02-04,1912670,Juice Way,Takeaway/sandwich shop,,431 Staniforth Road,Sheffield,,S9 3FQ,Sheffield,AwaitingInspection,,FHRS,False,53.388903,-1.422943,"431 Staniforth Road, Sheffield, S9 3FQ"
2026-02-04,1912672,L&B African Foods,Takeaway/sandwich shop,,31 Thoresby Road,Sheffield,,S6 2PG,Sheffield,AwaitingInspection,,FHRS,False,53.4005024,-1.5017084,"31 Thoresby Road, Sheffield, S6 2PG"
2026-02-04,1912675,Wagyou Burger @ Pizza Palace,Takeaway/sandwich shop,,36c Birley Moor Road,Sheffield,,S12 4WD,Sheffield,AwaitingInspection,,FHRS,False,53.349973,-1.402903,"36c Birley Moor Road, Sheffield, S12 4WD"
2026-02-04,1912640,Master Rooster,Takeaway/sandwich shop,156 - 160 Lord Street,Fleetwood,Lancashire,,FY7 6LH,Wyre,AwaitingInspection,,FHRS,False,53.921569,-3.014375,"156 - 160 Lord Street, Fleetwood, Lancashire, FY7 6LH"
2026-02-04,1912815,Mama's Perth Ltd,Takeaway/sandwich shop,,18 Main Street,Perth,,PH2 7HB,Perth and Kinross,Awaiting Inspection,,FHIS,False,56.3997198,-3.4234537,"18 Main Street, Perth, PH2 7HB"
2026-02-04,1912727,PIZZA-LICIOUSS,Takeaway/sandwich shop,4 Ffordd Caerdydd Isaf,,Pwllheli,Gwynedd,LL53 5BY,Gwynedd,AwaitingInspection,,FHRS,False,52.8877766,-4.4194224,"4 Ffordd Caerdydd Isaf, Pwllheli, Gwynedd, LL53 5BY"
2026-02-04,1912913,The Cozy Curry Kitchen,Takeaway/sandwich shop,,,,,,Wokingham,AwaitingInspection,,FHRS,False,,,
2026-02-04,1912914,Tilly's Homemade Cakes,Takeaway/sandwich shop,,,,,,Wokingham,AwaitingInspection,,FHRS,False,,,
2026-02-04,1912611,Amigos,Takeaway/sandwich shop,51 Main Street,Kimberley,Nottinghamshire,,NG16 2NG,Broxtowe,AwaitingInspection,,FHRS,False,52.997139,-1.255325,"51 Main Street, Kimberley, Nottinghamshire, NG16 2NG"
2026-02-05,1496643,Awesome Chips,Takeaway/sandwich shop,Unit 63a,Wood Green Shopping City,High Road,Wood Green,N22 6YA,Haringey,4,2025-09-01,FHRS,False,,,"Unit 63a, Wood Green Shopping City, High Road, Wood Green, N22 6YA"
2026-02-05,1893521,The Square Pizza Co,Takeaway/sandwich shop,72 Countisbury Avenue,Llanrumney,Cardiff,,CF3 5YR,Caerdydd,AwaitingInspection,,FHRS,True,51.5212939,-3.1194432,"72 Countisbury Avenue, Llanrumney, Cardiff, CF3 5YR"
2026-02-05,1913066,La Cassetta,Takeaway/sandwich shop,,23 Castle Hill,Lancaster,Lancashire,LA1 1YN,Lancaster City,AwaitingInspection,,FHRS,False,54.049119,-2.804014,"23 Castle Hill, Lancaster, Lancashire, LA1 1YN"
2026-02-05,1913029,La Doner,Takeaway/sandwich shop,1 Barum Top,Halifax,Calderdale,,HX1 1NL,Calderdale,AwaitingInspection,,FHRS,False,53.7218659,-1.8629692,"1 Barum Top, Halifax, Calderdale, HX1 1NL"
2026-02-05,1912954,Colombo Spice Limited,Takeaway/sandwich shop,7 Tunwell Lane,Corby,,,NN17 1AR,North Northamptonshire,AwaitingInspection,,FHRS,False,52.4920632,-0.6831444,"7 Tunwell Lane, Corby, NN17 1AR"
2026-02-05,1912993,Subway,Takeaway/sandwich shop,3 The Croft,Stockbridge Village,Knowsley,,L28 1NR,Knowsley,AwaitingInspection,,FHRS,False,53.4355545043945,-2.86876010894775,"3 The Croft, Stockbridge Village, Knowsley, L28 1NR"
2026-02-05,1912983,Curry Leaf,Takeaway/sandwich shop,80 High Street,,Sandhurst,Bracknell Forest,GU47 8ED,Bracknell Forest,AwaitingInspection,,FHRS,False,51.3466431,-0.8082287,"80 High Street, Sandhurst, Bracknell Forest, GU47 8ED"
2026-02-05,1893521,The Square Pizza Co,Takeaway/sandwich shop,72 Countisbury Avenue,Llanrumney,Cardiff,,CF3 5YR,Cardiff,AwaitingInspection,,FHRS,True,51.5212939,-3.1194432,"72 Countisbury Avenue, Llanrumney, Cardiff, CF3 5YR"
2026-02-05,1360578,Chicken Land,Takeaway/sandwich shop,,77b Bath Road,Bridgwater,,TA6 4PN,Somerset,AwaitingInspection,,FHRS,False,51.1334386,-2.9920191,"77b Bath Road, Bridgwater, TA6 4PN"
2026-02-05,1913134,Forum Fish Bar and Pizza,Takeaway/sandwich shop,292 Walsgrave Road,,,Coventry,CV2 4BL,Coventry,AwaitingInspection,,FHRS,False,52.4111318,-1.473497,"292 Walsgrave Road, Coventry, CV2 4BL"
2026-02-05,1913135,Prime pizza,Takeaway/sandwich shop,171 Walsgrave Road,,,Coventry,CV2 4HG,Coventry,AwaitingInspection,,FHRS,False,52.410579,-1.4848086,"171 Walsgrave Road, Coventry, CV2 4HG"
2026-02-05,1913137,VBitzy,Takeaway/sandwich shop,,,,,,Coventry,AwaitingInspection,,FHRS,False,,,
2026-02-05,1913077,Boba Tea House Limited,Takeaway/sandwich shop,6 Cross Street,Barnstaple,Devon,,EX31 1BA,North Devon,AwaitingInspection,,FHRS,False,51.0798158,-4.060792,"6 Cross Street, Barnstaple, Devon, EX31 1BA"
2026-02-05,1913088,Fleckney Fish Bar,Takeaway/sandwich shop,24 High Street,Fleckney,Leicestershire,,LE8 8AJ,Harborough,5,2024-11-06,FHRS,False,52.535579,-1.044781,"24 High Street, Fleckney, Leicestershire, LE8 8AJ"
2026-02-05,1913002,Fish by Nico,Takeaway/sandwich shop,,20 Townfoot,Dreghorn,Irvine,KA11 4EG,North Ayrshire,Pass,2026-01-27,FHIS,False,55.6091095,-4.6193469,"20 Townfoot, Dreghorn, Irvine, KA11 4EG"
2026-02-05,1913001,The Fryer,Takeaway/sandwich shop,,14 Adams Avenue,Saltcoats,North Ayrshire,KA21 6AL,North Ayrshire,Pass,2025-12-11,FHIS,False,55.6442452,-4.7845593,"14 Adams Avenue, Saltcoats, North Ayrshire, KA21 6AL"
2026-02-05,1912951,Ginger and Garlic,Takeaway/sandwich shop,105 Liverpool Road South,Burscough,Ormskirk,West Lancashire,L40 7SY,West Lancashire,AwaitingInspection,,FHRS,False,53.5913147,-2.8526996,"105 Liverpool Road South, Burscough, Ormskirk, West Lancashire, L40 7SY"
2026-02-05,1913120,Coal Clough Takeaway,Takeaway/sandwich shop,64 Coal Clough Lane,Burnley,Lancashire,,BB11 4NS,Burnley,AwaitingInspection,,FHRS,False,53.7853539,-2.2581583,"64 Coal Clough Lane, Burnley, Lancashire, BB11 4NS"
2026-02-05,1913121,Los Angeles Crispy,Takeaway/sandwich shop,52 Standish Street,Burnley,Lancashire,,BB11 1AP,Burnley,AwaitingInspection,,FHRS,False,53.7920172,-2.2437637,"52 Standish Street, Burnley, Lancashire, BB11 1AP"
2026-02-05,1913041,Golden meal,Takeaway/sandwich shop,Queens Market Sussex Street,,Rhyl,Denbighshire,LL18 1SE,Denbighshire,AwaitingInspection,,FHRS,False,53.321458,-3.4920498,"Queens Market Sussex Street, Rhyl, Denbighshire, LL18 1SE"
2026-02-05,1913040,Taco ‘bout it,Takeaway/sandwich shop,Queens Market Sussex Street,,Rhyl,,LL18 1SE,Denbighshire,AwaitingInspection,,FHRS,False,53.321458,-3.4920498,"Queens Market Sussex Street, Rhyl, LL18 1SE"
2026-02-05,1913041,Golden meal,Takeaway/sandwich shop,Queens Market Sussex Street,,Rhyl,Denbighshire,LL18 1SE,Sir Ddinbych,AwaitingInspection,,FHRS,False,53.321458,-3.4920498,"Queens Market Sussex Street, Rhyl, Denbighshire, LL18 1SE"
2026-02-05,1913040,Taco ‘bout it,Takeaway/sandwich shop,Queens Market Sussex Street,,Rhyl,,LL18 1SE,Sir Ddinbych,AwaitingInspection,,FHRS,False,53.321458,-3.4920498,"Queens Market Sussex Street, Rhyl, LL18 1SE"
2026-02-05,1913151,Pollocks Of Bath,Takeaway/sandwich shop,Belvoir Castle,32 - 33 Victoria Buildings,Westmoreland,Bath,BA2 3EH,Bath and North East Somerset,5,2026-01-27,FHRS,False,51.3816117,-2.3767474,"Belvoir Castle, 32 - 33 Victoria Buildings, Westmoreland, Bath, BA2 3EH"
2026-02-05,1913011,Venice Pizzeria,Takeaway/sandwich shop,,13 High Street,Normanby,,TS6 0NQ,Redcar and Cleveland,AwaitingInspection,,FHRS,False,54.557464,-1.155057,"13 High Street, Normanby, TS6 0NQ"
2026-02-06,1913367,Wyatts,Takeaway/sandwich shop,Shipwrights,128 Coast Road,West Mersea,Essex,CO5 8PE,Colchester,AwaitingInspection,,FHRS,False,,,"Shipwrights, 128 Coast Road, West Mersea, Essex, CO5 8PE"
2026-02-06,1913371,Subway,Takeaway/sandwich shop,27 Bede Precinct,Jarrow,Tyne & Wear,,NE32 3LW,South Tyneside,AwaitingInspection,,FHRS,False,54.9807431,-1.4891918,"27 Bede Precinct, Jarrow, Tyne & Wear, NE32 3LW"
2026-02-06,1913405,Smash & Flame,Takeaway/sandwich shop,4 The Norbury Trading Estate,Craignish Avenue,Norbury,London,SW16 4RW,Croydon,AwaitingInspection,,FHRS,False,,,"4 The Norbury Trading Estate, Craignish Avenue, Norbury, London, SW16 4RW"
2026-02-06,1913287,Delhi 45,Takeaway/sandwich shop,87 New Road,Rubery,Worcestershire,,B45 9JR,Bromsgrove,AwaitingInspection,,FHRS,False,52.3926985,-2.0219305,"87 New Road, Rubery, Worcestershire, B45 9JR"
2026-02-06,1913308,Unholy Guacamole,Takeaway/sandwich shop,The Allotment,90 St James Road,Royal Tunbridge Wells,Kent,TN1 2HH,Tunbridge Wells,AwaitingInspection,,FHRS,False,51.140786,0.273293,"The Allotment, 90 St James Road, Royal Tunbridge Wells, Kent, TN1 2HH"
2026-02-06,1913206,Kurt'Z Scran'Z,Takeaway/sandwich shop,,5 Clydemill Place,Clydemill Business Park,Glasgow,G72 7ZT,South Lanarkshire,Awaiting Inspection,,FHIS,False,,,"5 Clydemill Place, Clydemill Business Park, Glasgow, G72 7ZT"
2026-02-06,1913207,Spudzz N Shakez,Takeaway/sandwich shop,Inside Spar,Unit 4 Calderwood Square,East Kilbride,Glasgow,G74 3BA,South Lanarkshire,Awaiting Inspection,,FHIS,False,55.7719273,-4.1564221,"Inside Spar, Unit 4 Calderwood Square, East Kilbride, Glasgow, G74 3BA"
2026-02-06,1913213,Taj Mahal,Takeaway/sandwich shop,,45 High Street,Lanark,South Lanarkshire,ML11 7LU,South Lanarkshire,Awaiting Inspection,,FHIS,False,55.6737037,-3.7788659,"45 High Street, Lanark, South Lanarkshire, ML11 7LU"
2026-02-06,1913188,Acropolis Street Food,Takeaway/sandwich shop,Worswick Chambers Pilgrim Place,,Newcastle Upon Tyne,,NE1 6QF,Newcastle Upon Tyne,AwaitingInspection,,FHRS,False,,,"Worswick Chambers Pilgrim Place, Newcastle Upon Tyne, NE1 6QF"
2026-02-06,1913189,Bao Down Worswick Chambers LTD,Takeaway/sandwich shop,Unit 2worswick Chambers At Pilgrim Place,,Newcastle Upon Tyne,,NE1 6QF,Newcastle Upon Tyne,AwaitingInspection,,FHRS,False,,,"Unit 2worswick Chambers At Pilgrim Place, Newcastle Upon Tyne, NE1 6QF"
2026-02-06,1913182,BARLEY & ME,Takeaway/sandwich shop,Worswick Chambers Pilgrim Place,,Newcastle Upon Tyne,,NE16QF,Newcastle Upon Tyne,AwaitingInspection,,FHRS,False,,,"Worswick Chambers Pilgrim Place, Newcastle Upon Tyne, NE16QF"
2026-02-06,1913184,CAZCABEL,Takeaway/sandwich shop,Worswick Chambers Pilgrim Place,,Newcastle Upon Tyne,,NE16QF,Newcastle Upon Tyne,AwaitingInspection,,FHRS,False,,,"Worswick Chambers Pilgrim Place, Newcastle Upon Tyne, NE16QF"
2026-02-06,1913183,HAVANAH,Takeaway/sandwich shop,Worswick Chambers Pilgrim Place,,Newcastle Upon Tyne,,NE16QF,Newcastle Upon Tyne,AwaitingInspection,,FHRS,False,,,"Worswick Chambers Pilgrim Place, Newcastle Upon Tyne, NE16QF"
2026-02-06,1913187,SIDESHOW,Takeaway/sandwich shop,Worswick Chambers Pilgrim Place,,Newcastle Upon Tyne,,NE16QF,Newcastle Upon Tyne,AwaitingInspection,,FHRS,False,,,"Worswick Chambers Pilgrim Place, Newcastle Upon Tyne, NE16QF"
2026-02-06,1913185,STUDIO NE1,Takeaway/sandwich shop,Worswick Chambers Pilgrim Place,,Newcastle Upon Tyne,,NE16QF,Newcastle Upon Tyne,AwaitingInspection,,FHRS,False,,,"Worswick Chambers Pilgrim Place, Newcastle Upon Tyne, NE16QF"
2026-02-06,1913341,Carterton Kebab Grill,Takeaway/sandwich shop,9 The Tower Centre,Alvescot Road,Carterton,Oxfordshire,OX18 3JG,West Oxfordshire,AwaitingInspection,,FHRS,False,51.759091,-1.595533,"9 The Tower Centre, Alvescot Road, Carterton, Oxfordshire, OX18 3JG"
2026-02-06,1913204,DJ's Kitchen,Takeaway/sandwich shop,,,,,,Kingston-Upon-Thames,AwaitingInspection,,FHRS,False,,,
2026-02-06,1913260,A2 Flavours Ltd,Takeaway/sandwich shop,91 Adderley Road,Birmingham,,,B8 1LD,Birmingham,AwaitingInspection,,FHRS,False,,,"91 Adderley Road, Birmingham, B8 1LD"
2026-02-06,1913262,Cj's Ghetto Kitchen,Takeaway/sandwich shop,121       Soho Hill,Birmingham,,,B19 1AX,Birmingham,AwaitingInspection,,FHRS,False,52.4998911,-1.9216128,"121       Soho Hill, Birmingham, B19 1AX"
2026-02-06,1913265,Dessert Express +,Takeaway/sandwich shop,21-23 High Street,Moseley And Kings Heath,Birmingham,,B14 7BB,Birmingham,AwaitingInspection,,FHRS,False,52.437876,-1.892469,"21-23 High Street, Moseley And Kings Heath, Birmingham, B14 7BB"
2026-02-06,1913256,dreamdessertz,Takeaway/sandwich shop,10 Ramsey Road,Birmingham,,,B7 5LL,Birmingham,AwaitingInspection,,FHRS,False,52.5024928,-1.8658614,"10 Ramsey Road, Birmingham, B7 5LL"
2026-02-06,1913199,Betty Boop Snack Bar,Takeaway/sandwich shop,Unit 1 Kingslaw Business Park Tranent East Lothian,,,,EH33 1DY,East Lothian,Pass,2026-01-29,FHIS,False,,,"Unit 1 Kingslaw Business Park Tranent East Lothian, EH33 1DY"
2026-02-06,1913392,Greggs,Takeaway/sandwich shop,Unit 6 Haddington Retail Park Haddington East Lothian,,,,EH41 3FW,East Lothian,Awaiting Inspection,,FHIS,False,,,"Unit 6 Haddington Retail Park Haddington East Lothian, EH41 3FW"
2026-02-07,1913848,Chillis of Uplands,Takeaway/sandwich shop,,46 The Grove,,Uplands,SA2 0QR,Swansea,AwaitingInspection,,FHRS,False,51.618843,-3.967233,"46 The Grove, Uplands, SA2 0QR"
2026-02-07,1913850,M.Monni's Fish Bar,Takeaway/sandwich shop,,98 Brynymor Road,,Brynmill,SA1 4JG,Swansea,AwaitingInspection,,FHRS,False,51.616009,-3.957606,"98 Brynymor Road, Brynmill, SA1 4JG"
2026-02-07,1913847,Pizza Grove,Takeaway/sandwich shop,Unit 2,Heol Nant Bran,,Birchgrove,SA7 9LS,Swansea,AwaitingInspection,,FHRS,False,51.670459,-3.878301,"Unit 2, Heol Nant Bran, Birchgrove, SA7 9LS"
2026-02-07,1913845,Rane Bengal,Takeaway/sandwich shop,,55 Woodfield Street,,Morriston,SA6 8BW,Swansea,AwaitingInspection,,FHRS,False,51.662631,-3.925245,"55 Woodfield Street, Morriston, SA6 8BW"
2026-02-07,1913882,Oh my FUDGE,Takeaway/sandwich shop,,,,,,Merthyr Tudful,AwaitingInspection,,FHRS,False,,,
2026-02-07,1913884,PUDD,Takeaway/sandwich shop,,,,,,Merthyr Tudful,AwaitingInspection,,FHRS,False,,,
2026-02-07,1913641,Brewskie Ltd,Takeaway/sandwich shop,13 Brandon Parade South,Merry Street,Motherwell,North Lanarkshire,ML1 1RB,North Lanarkshire,Awaiting Inspection,,FHIS,False,55.7905995,-3.9928047,"13 Brandon Parade South, Merry Street, Motherwell, North Lanarkshire, ML1 1RB"
2026-02-07,1913640,German Sizzler,Takeaway/sandwich shop,155 Calder Street,Whifflet,Coatbridge,,ML5 4QR,North Lanarkshire,Awaiting Inspection,,FHIS,False,55.8549919128418,-4.00872421264648,"155 Calder Street, Whifflet, Coatbridge, ML5 4QR"
2026-02-07,1913642,Philly Express,Takeaway/sandwich shop,288 Coltness Road,Coltness,Wishaw,,ML2 7EX,North Lanarkshire,Awaiting Inspection,,FHIS,False,55.78466,-3.91395,"288 Coltness Road, Coltness, Wishaw, ML2 7EX"
2026-02-07,1913470,Mohanthal Restaurant,Takeaway/sandwich shop,2 Lanesborough Road,Leicester,,,LE4 7NG,Leicester City,AwaitingInspection,,FHRS,False,52.6610627,-1.1141643,"2 Lanesborough Road, Leicester, LE4 7NG"
2026-02-07,1913474,Moon Lounge,Takeaway/sandwich shop,,,,,,Leicester City,AwaitingInspection,,FHRS,False,,,
2026-02-07,1913689,Healthy and tasty,Takeaway/sandwich shop,,,,,,Harrow,AwaitingInspection,,FHRS,False,,,
2026-02-07,1913685,MR FUNKY LIMITED,Takeaway/sandwich shop,Unit 19 273 Station Road,Harrow,,,HA1 2TB,Harrow,AwaitingInspection,,FHRS,False,51.5827009,-0.3327156,"Unit 19 273 Station Road, Harrow, HA1 2TB"
2026-02-07,1913691,Pinner Deli,Takeaway/sandwich shop,18 High Street Pinner,Pinner,,,HA5 5PW,Harrow,AwaitingInspection,,FHRS,False,51.5939371,-0.3811893,"18 High Street Pinner, Pinner, HA5 5PW"
2026-02-07,1913716,BaxterStorey - Cybersource NI,Takeaway/sandwich shop,Victoria House,,15-17 Gloucester Street,Belfast,BT1 4LS,Belfast City,AwaitingInspection,,FHRS,False,54.597016,-5.9253225,"Victoria House, 15-17 Gloucester Street, Belfast, BT1 4LS"
2026-02-07,1913794,Charcoal Grill,Takeaway/sandwich shop,4 The Slade,,Plumstead,Greenwich,SE18 2NB,Greenwich,AwaitingInspection,,FHRS,False,51.4793134,0.0875214,"4 The Slade, Plumstead, Greenwich, SE18 2NB"
2026-02-07,1913786,The kebabci,Takeaway/sandwich shop,3 Tudor Parade Well Hall Road,,Eltham,Greenwich,SE9 6SX,Greenwich,5,2026-01-31,FHRS,False,51.4591204,0.0495311,"3 Tudor Parade Well Hall Road, Eltham, Greenwich, SE9 6SX"
2026-02-07,653469,Boost Juice Bars,Takeaway/sandwich shop,20 The Glades Shopping Centre High Street,,Bromley,,BR1 1DD,Bromley,5,2024-05-29,FHRS,False,51.4038902,0.0166076,"20 The Glades Shopping Centre High Street, Bromley, BR1 1DD"
2026-02-07,1913807,Chilli Thyme,Takeaway/sandwich shop,,,,,,Windsor and Maidenhead,AwaitingInspection,,FHRS,False,,,
2026-02-07,1913853,Domino's Pizza,Takeaway/sandwich shop,210 Frobisher Road,Bilton,,Rugby,CV22 7JF,Rugby,5,2026-01-12,FHRS,False,52.3649318,-1.2959448,"210 Frobisher Road, Bilton, Rugby, CV22 7JF"
2026-02-07,1913866,The grazing table,Takeaway/sandwich shop,117 Martin Lane,Bilton,,Rugby,CV22 7RF,Rugby,AwaitingInspection,,FHRS,False,52.3531058,-1.2845847,"117 Martin Lane, Bilton, Rugby, CV22 7RF"
2026-02-07,1913858,The Real Deal Sandwich Co,Takeaway/sandwich shop,64 Stowe Drive,New Bilton,,Rugby,CV22 7NX,Rugby,AwaitingInspection,,FHRS,False,52.3681417,-1.2808704,"64 Stowe Drive, New Bilton, Rugby, CV22 7NX"
2026-02-07,1913823,Subway,Takeaway/sandwich shop,62 Craigentinny Avenue North,Edinburgh,,,EH6 7LH,Edinburgh (City of),Awaiting Inspection,2026-01-30,FHIS,False,55.96861,-3.14132,"62 Craigentinny Avenue North, Edinburgh, EH6 7LH"
2026-02-07,1913529,Graze Pembrokeshire,Takeaway/sandwich shop,17 Hill Street,,Haverfordwest,,SA61 1QQ,Pembrokeshire,AwaitingInspection,,FHRS,False,51.7997899,-4.9715135,"17 Hill Street, Haverfordwest, SA61 1QQ"
2026-02-07,1557944,Beccas Bakes,Takeaway/sandwich shop,,,,,,Surrey Heath,5,2022-11-02,FHRS,False,,,
2026-02-07,1913796,Munchies,Takeaway/sandwich shop,161 St Chads Road,Tilbury,Essex,,RM18 8LJ,Thurrock,AwaitingInspection,,FHRS,False,51.467606,0.364504,"161 St Chads Road, Tilbury, Essex, RM18 8LJ"
2026-02-07,1913726,JFC,Takeaway/sandwich shop,36 Kingsbury,Aylesbury,Buckinghamshire,,HP20 2JE,Buckinghamshire,AwaitingInspection,,FHRS,False,51.817744,-0.813963,"36 Kingsbury, Aylesbury, Buckinghamshire, HP20 2JE"
2026-02-07,1912127,The Souvlaki Grill,Takeaway/sandwich shop,PITCH 929 JAMES STREET,MARYLEBONE HIGH STREET,LONDON,,W1U 1JW,Westminster,AwaitingInspection,,FHRS,False,,,"PITCH 929 JAMES STREET, MARYLEBONE HIGH STREET, LONDON, W1U 1JW"
2026-02-07,718023,Panku Streetfood,Takeaway/sandwich shop,Asda Superstore,Tilley Road,Feltham,,TW13 4AU,Hounslow,AwaitingInspection,,FHRS,False,51.4466018676758,-0.410988986492157,"Asda Superstore, Tilley Road, Feltham, TW13 4AU"
2026-02-07,1913529,Graze Pembrokeshire,Takeaway/sandwich shop,17 Hill Street,,Haverfordwest,,SA61 1QQ,Sir Benfro,AwaitingInspection,,FHRS,False,51.7997899,-4.9715135,"17 Hill Street, Haverfordwest, SA61 1QQ"
2026-02-07,1913547,Gasgask limited,Takeaway/sandwich shop,,354,East Street,London,SE17 2SX,Southwark,AwaitingInspection,,FHRS,False,51.490075,-0.082394,"354, East Street, London, SE17 2SX"
2026-02-07,1913556,Jfc peckham,Takeaway/sandwich shop,,89,Peckham High Street,London,SE15 5RS,Southwark,AwaitingInspection,,FHRS,False,51.4738114,-0.0693516,"89, Peckham High Street, London, SE15 5RS"
2026-02-07,1913543,Master cao malatang,Takeaway/sandwich shop,Unit 3,81,Enid Street,London,SE16 3RA,Southwark,AwaitingInspection,,FHRS,False,51.4977196,-0.0725265,"Unit 3, 81, Enid Street, London, SE16 3RA"
2026-02-07,1913553,Pimento hill,Takeaway/sandwich shop,Unit 19 Three Crown Square Borough Market,8,Southwark Street,London,SE1 1TL,Southwark,AwaitingInspection,,FHRS,False,51.5054815,-0.09073,"Unit 19 Three Crown Square Borough Market, 8, Southwark Street, London, SE1 1TL"
2026-02-07,1913557,Proper patties peckham,Takeaway/sandwich shop,,89,Peckham High Street,London,SE15 5RS,Southwark,5,2026-01-30,FHRS,False,51.4738114,-0.0693516,"89, Peckham High Street, London, SE15 5RS"
2026-02-07,1913548,Tastybites01 ltd,Takeaway/sandwich shop,,495,Lordship Lane,London,SE22 8JY,Southwark,AwaitingInspection,,FHRS,False,51.444185,-0.068114,"495, Lordship Lane, London, SE22 8JY"
2026-02-07,1913551,The olive oil co,Takeaway/sandwich shop,Unit 16a Three Crown Square Borough Market,8,Southwark Street,London,SE1 1TL,Southwark,AwaitingInspection,,FHRS,False,51.5054815,-0.09073,"Unit 16a Three Crown Square Borough Market, 8, Southwark Street, London, SE1 1TL"
2026-02-07,1913540,The rtg kitchen,Takeaway/sandwich shop,Unit 3 Allard House,18,Verney Road,London,SE16 3DH,Southwark,AwaitingInspection,,FHRS,False,51.4849325,-0.0600309,"Unit 3 Allard House, 18, Verney Road, London, SE16 3DH"
2026-02-07,1913488,Curry by Castle,Takeaway/sandwich shop,Unit 24 Ffos Caerffili,Park Lane,Caerphilly,,CF83 1BN,Caerffili,AwaitingInspection,,FHRS,False,51.5744275,-3.2207136,"Unit 24 Ffos Caerffili, Park Lane, Caerphilly, CF83 1BN"
2026-02-07,1909842,A1 Chip Stop,Takeaway/sandwich shop,,280 Chorley New Road,Horwich,Bolton,BL6 5NY,Bolton,AwaitingInspection,,FHRS,True,53.593241,-2.543576,"280 Chorley New Road, Horwich, Bolton, BL6 5NY"
2026-02-07,1662104,Greens Sandwich Bar,Takeaway/sandwich shop,,61 Gladstone Road,Farnworth,Bolton,BL4 7EL,Bolton,5,2026-01-27,FHRS,False,53.550995,-2.402696,"61 Gladstone Road, Farnworth, Bolton, BL4 7EL"
2026-02-07,1913519,The Coffee Box,Takeaway/sandwich shop,Walker Fold Car park,Walker Fold Road,Bolton,,BL1 7PT,Bolton,AwaitingInspection,,FHRS,False,53.6059018,-2.4899189,"Walker Fold Car park, Walker Fold Road, Bolton, BL1 7PT"
2026-02-07,1913504,Good Tasty,Takeaway/sandwich shop,Good Tasty,102 Park Road,Dukinfield,Tameside,SK16 5LL,Tameside,AwaitingInspection,,FHRS,False,53.4820289611816,-2.08534097671509,"Good Tasty, 102 Park Road, Dukinfield, Tameside, SK16 5LL"
2026-02-07,1878446,Istanbul Shawarma,Takeaway/sandwich shop,MDK Shawarma,1058 Ashton New Road,Droylsden,Tameside,M11 4PE,Tameside,AwaitingInspection,,FHRS,False,53.4809243,-2.1675352,"MDK Shawarma, 1058 Ashton New Road, Droylsden, Tameside, M11 4PE"
2026-02-07,1603459,La Palma,Takeaway/sandwich shop,La Palma,13 Market Street,Stalybridge,Tameside,SK15 2AL,Tameside,5,2025-09-10,FHRS,False,53.4843612,-2.0611729,"La Palma, 13 Market Street, Stalybridge, Tameside, SK15 2AL"
2026-02-07,1913498,Lee Wei Fish & Chips,Takeaway/sandwich shop,Lee Wei Fish & Chips,2 Egerton Street,Denton,Tameside,M34 3LU,Tameside,AwaitingInspection,,FHRS,True,53.4622976,-2.1172013,"Lee Wei Fish & Chips, 2 Egerton Street, Denton, Tameside, M34 3LU"
2026-02-07,1706302,Loafers,Takeaway/sandwich shop,Loafers,200 Stockport Road,Ashton-under-lyne,Tameside,OL7 0NS,Tameside,5,2024-04-12,FHRS,False,53.4770433,-2.1124961,"Loafers, 200 Stockport Road, Ashton-under-lyne, Tameside, OL7 0NS"
2026-02-07,1913497,Stanley Square,Takeaway/sandwich shop,Stanley Square,3 High Street,Stalybridge,Tameside,SK15 1SR,Tameside,AwaitingInspection,,FHRS,True,53.479766,-2.066833,"Stanley Square, 3 High Street, Stalybridge, Tameside, SK15 1SR"
2026-02-07,1526227,AB Copains UK Ltd  (Units 18 - 21 & 25 - 28),Takeaway/sandwich shop,Kitchen 18,Unit A,964 North Circular Road,Neasden,NW2 7JR,Brent,AwaitingInspection,,FHRS,True,,,"Kitchen 18, Unit A, 964 North Circular Road, Neasden, NW2 7JR"
2026-02-07,531980,Daraa Falafels,Takeaway/sandwich shop,228 High Road,London,,,NW10 2NX,Brent,AwaitingInspection,,FHRS,True,51.548098,-0.236777,"228 High Road, London, NW10 2NX"
2026-02-07,1913463,Greggs,Takeaway/sandwich shop,254 Acton Lane,London,,,NW10 7GG,Brent,5,2024-08-05,FHRS,False,51.5300036,-0.2685961,"254 Acton Lane, London, NW10 7GG"
2026-02-07,1913461,Park Royal Chaiiwala,Takeaway/sandwich shop,252 Acton Lane,London,,,NW10 7GG,Brent,AwaitingInspection,,FHRS,False,51.5300188,-0.2684081,"252 Acton Lane, London, NW10 7GG"
2026-02-07,1560832,Poke Shack (Unit 20),Takeaway/sandwich shop,Unit 20,Knightsbridge House,Kingsbury Road,London,NW9 8XG,Brent,AwaitingInspection,,FHRS,True,51.5820977,-0.2595141,"Unit 20, Knightsbridge House, Kingsbury Road, London, NW9 8XG"
2026-02-07,1913848,Chillis of Uplands,Takeaway/sandwich shop,,46 The Grove,,Uplands,SA2 0QR,Abertawe,AwaitingInspection,,FHRS,False,51.618843,-3.967233,"46 The Grove, Uplands, SA2 0QR"
2026-02-07,1913850,M.Monni's Fish Bar,Takeaway/sandwich shop,,98 Brynymor Road,,Brynmill,SA1 4JG,Abertawe,AwaitingInspection,,FHRS,False,51.616009,-3.957606,"98 Brynymor Road, Brynmill, SA1 4JG"
2026-02-07,1913847,Pizza Grove,Takeaway/sandwich shop,Unit 2,Heol Nant Bran,,Birchgrove,SA7 9LS,Abertawe,AwaitingInspection,,FHRS,False,51.670459,-3.878301,"Unit 2, Heol Nant Bran, Birchgrove, SA7 9LS"
2026-02-07,1913845,Rane Bengal,Takeaway/sandwich shop,,55 Woodfield Street,,Morriston,SA6 8BW,Abertawe,AwaitingInspection,,FHRS,False,51.662631,-3.925245,"55 Woodfield Street, Morriston, SA6 8BW"
2026-02-07,1913582,Mr Blooms,Takeaway/sandwich shop,,1 Bye Street,,Ledbury,HR8 2AA,Herefordshire,AwaitingInspection,,FHRS,False,52.036839,-2.424117,"1 Bye Street, Ledbury, HR8 2AA"
2026-02-07,1913882,Oh my FUDGE,Takeaway/sandwich shop,,,,,,Merthyr Tydfil,AwaitingInspection,,FHRS,False,,,
2026-02-07,1913884,PUDD,Takeaway/sandwich shop,,,,,,Merthyr Tydfil,AwaitingInspection,,FHRS,False,,,
2026-02-07,1913897,Becca Prep?s,Takeaway/sandwich shop,,,,,,Dudley,AwaitingInspection,,FHRS,False,,,
2026-02-07,1913890,bengal flame,Takeaway/sandwich shop,50 Zoar Street,Lower Gornal,Dudley,,DY3 2PA,Dudley,AwaitingInspection,,FHRS,False,52.517956,-2.127811,"50 Zoar Street, Lower Gornal, Dudley, DY3 2PA"
2026-02-07,1913887,Christina's,Takeaway/sandwich shop,,,,,,Dudley,5,2026-01-16,FHRS,False,,,
2026-02-07,1913930,Dubai 1,Takeaway/sandwich shop,Dubai 1 Shawarma,35 High Street,Lye,Stourbridge,DY9 8LF,Dudley,AwaitingInspection,,FHRS,False,,,"Dubai 1 Shawarma, 35 High Street, Lye, Stourbridge, DY9 8LF"
2026-02-07,1913901,Eatwise,Takeaway/sandwich shop,Eat Wise,121 New Rowley Road,Dudley,,DY2 8AU,Dudley,AwaitingInspection,,FHRS,False,52.4990165,-2.0685507,"Eat Wise, 121 New Rowley Road, Dudley, DY2 8AU"
2026-02-07,1913888,Fat Punjabi,Takeaway/sandwich shop,4 Alderwood Precinct,Sedgley,,,DY3 3QY,Dudley,AwaitingInspection,,FHRS,False,52.5481829,-2.131021,"4 Alderwood Precinct, Sedgley, DY3 3QY"
2026-02-07,1913936,Golden Garden,Takeaway/sandwich shop,51 Central Drive,Lower Gornal,Dudley,,DY3 2QE,Dudley,AwaitingInspection,,FHRS,True,52.514828,-2.127345,"51 Central Drive, Lower Gornal, Dudley, DY3 2QE"
2026-02-07,1913912,Jade garden chinese & english food Takeaway,Takeaway/sandwich shop,15 High Street,Lye,Stourbridge,,DY9 8LB,Dudley,AwaitingInspection,,FHRS,False,52.4581904,-2.1162863,"15 High Street, Lye, Stourbridge, DY9 8LB"
2026-02-07,1913889,Lucky House,Takeaway/sandwich shop,184 Hagley Road,Halesowen,,,B63 4RR,Dudley,AwaitingInspection,,FHRS,False,52.444815,-2.05723,"184 Hagley Road, Halesowen, B63 4RR"
2026-02-07,1913925,Monko,Takeaway/sandwich shop,,,,,,Dudley,AwaitingInspection,,FHRS,False,,,
2026-02-07,1913935,The Little Cob Shop,Takeaway/sandwich shop,Abbey Street,Lower Gornal,,,DY3 2ND,Dudley,0,2025-06-18,FHRS,False,,,"Abbey Street, Lower Gornal, DY3 2ND"
2026-02-07,1913418,The Filling Station Online Ltd,Takeaway/sandwich shop,3A Union Street Newton Abbot,,,,TQ12 2JX,Teignbridge,AwaitingInspection,,FHRS,False,50.529993,-3.6096796,"3A Union Street Newton Abbot, TQ12 2JX"
2026-02-07,1913447,Mai Sushi,Takeaway/sandwich shop,16 Darvills Lane,,Farnham,Surrey,GU9 8AS,Waverley,AwaitingInspection,,FHRS,False,,,"16 Darvills Lane, Farnham, Surrey, GU9 8AS"
2026-02-07,1913488,Curry by Castle,Takeaway/sandwich shop,Unit 24 Ffos Caerffili,Park Lane,Caerphilly,,CF83 1BN,Caerphilly,AwaitingInspection,,FHRS,False,51.5744275,-3.2207136,"Unit 24 Ffos Caerffili, Park Lane, Caerphilly, CF83 1BN"
2026-02-07,1913821,Best Buy Fisheries,Takeaway/sandwich shop,172 Borough Road,Middlesbrough,,,TS1 2EJ,Middlesbrough,AwaitingInspection,,FHRS,False,54.572622,-1.23006,"172 Borough Road, Middlesbrough, TS1 2EJ"
2026-02-07,1913818,Buns & Batter,Takeaway/sandwich shop,12 King's Road,Middlesbrough,,,TS3 6NF,Middlesbrough,AwaitingInspection,,FHRS,False,54.570989,-1.213633,"12 King's Road, Middlesbrough, TS3 6NF"
2026-02-07,1913817,Casa,Takeaway/sandwich shop,139 Linthorpe Road,Middlesbrough,,,TS1 5DE,Middlesbrough,AwaitingInspection,,FHRS,False,54.5732418,-1.2379199,"139 Linthorpe Road, Middlesbrough, TS1 5DE"
2026-02-07,1913820,El Pueblo,Takeaway/sandwich shop,139 Linthorpe Road,Middlesbrough,,,TS1 5DE,Middlesbrough,AwaitingInspection,,FHRS,False,54.5732418,-1.2379199,"139 Linthorpe Road, Middlesbrough, TS1 5DE"
2026-02-07,1913822,Simo's Pizzeria,Takeaway/sandwich shop,The Greenway,Middlesbrough,,,TS3 9NB,Middlesbrough,AwaitingInspection,,FHRS,False,54.565217,-1.183477,"The Greenway, Middlesbrough, TS3 9NB"
2026-02-09,1913943,Tividale Valley,Takeaway/sandwich shop,1 Tower Road,,,Oldbury,B69 1ND,Sandwell,AwaitingInspection,,FHRS,False,52.5037958,-2.0344233,"1 Tower Road, Oldbury, B69 1ND"
2026-02-09,1913942,Yummy,Takeaway/sandwich shop,129  High Street,,,Rowley Regis,B65 0EE,Sandwell,AwaitingInspection,,FHRS,False,52.4758788,-2.0440743,"129  High Street, Rowley Regis, B65 0EE"
2026-02-09,1913952,O'Yes Pizza and Kebab Shop,Takeaway/sandwich shop,,97 Attlee Way,Cefn Golau,Tredegar,NP22 3TD,Blaenau Gwent,AwaitingInspection,,FHRS,False,51.767525,-3.252329,"97 Attlee Way, Cefn Golau, Tredegar, NP22 3TD"
2026-02-09,1913960,Rassau Fish Bar,Takeaway/sandwich shop,,4 School Road,Rassau,Ebbw Vale,NP23 5PP,Blaenau Gwent,AwaitingInspection,,FHRS,False,51.797123,-3.218345,"4 School Road, Rassau, Ebbw Vale, NP23 5PP"
2026-02-09,1913961,Yo! To Go!,Takeaway/sandwich shop,Tesco Supermarket,,Ebbw Vale,Blaenau Gwent,NP23 6TS,Blaenau Gwent,AwaitingInspection,,FHRS,False,,,"Tesco Supermarket, Ebbw Vale, Blaenau Gwent, NP23 6TS"
2026-02-09,1913952,O'Yes Pizza and Kebab Shop,Takeaway/sandwich shop,,97 Attlee Way,Cefn Golau,Tredegar,NP22 3TD,Blaenau Gwent,AwaitingInspection,,FHRS,False,51.767525,-3.252329,"97 Attlee Way, Cefn Golau, Tredegar, NP22 3TD"
2026-02-09,1913960,Rassau Fish Bar,Takeaway/sandwich shop,,4 School Road,Rassau,Ebbw Vale,NP23 5PP,Blaenau Gwent,AwaitingInspection,,FHRS,False,51.797123,-3.218345,"4 School Road, Rassau, Ebbw Vale, NP23 5PP"
2026-02-09,1913961,Yo! To Go!,Takeaway/sandwich shop,Tesco Supermarket,,Ebbw Vale,Blaenau Gwent,NP23 6TS,Blaenau Gwent,AwaitingInspection,,FHRS,False,,,"Tesco Supermarket, Ebbw Vale, Blaenau Gwent, NP23 6TS"
2026-02-10,1914240,PureLeafs,Takeaway/sandwich shop,807A High Road,,,,N12 8JT,Barnet,AwaitingInspection,,FHRS,False,51.6160323,-0.1770118,"807A High Road, N12 8JT"
2026-02-10,1914211,Tasty Grill,Takeaway/sandwich shop,Sutton Parade  Church Road London,,,,NW4 1RR,Barnet,2,2026-01-06,FHRS,False,51.590083,-0.223112,"Sutton Parade  Church Road London, NW4 1RR"
2026-02-10,1914204,Titos Kitchen,Takeaway/sandwich shop,4A Broadfields Parade Glengall Road,,,,HA8 8TD,Barnet,AwaitingInspection,,FHRS,False,51.6264794,-0.2698453,"4A Broadfields Parade Glengall Road, HA8 8TD"
2026-02-10,1914371,Fu Shing,Takeaway/sandwich shop,26 Green Lane,Hadfield,Glossop,,SK13 2DT,High Peak,AwaitingInspection,,FHRS,False,53.4582901000977,-1.97609102725983,"26 Green Lane, Hadfield, Glossop, SK13 2DT"
2026-02-10,1914050,Express Pizza,Takeaway/sandwich shop,Comber,,Newtownards,,BT23 5DY,Ards and North Down,AwaitingInspection,,FHRS,False,54.5512351989746,-5.74781513214111,"Comber, Newtownards, BT23 5DY"
2026-02-10,1914042,Italian village,Takeaway/sandwich shop,84a Belfast Road,Corporation,Bangor,Down,BT20 3NN,Ards and North Down,AwaitingInspection,,FHRS,False,54.655111,-5.690385,"84a Belfast Road, Corporation, Bangor, Down, BT20 3NN"
2026-02-10,1914049,THE PHAT FRYER,Takeaway/sandwich shop,Unit 2 81 Gransha Road,,Bangor,,BT19 7HA,Ards and North Down,AwaitingInspection,,FHRS,False,54.6486714,-5.6477074,"Unit 2 81 Gransha Road, Bangor, BT19 7HA"
2026-02-10,1914368,M4 Express / Master Boba,Takeaway/sandwich shop,11 Victoria Road,Old Town,Swindon,,SN1 3AJ,Swindon,AwaitingInspection,,FHRS,False,51.558339,-1.780133,"11 Victoria Road, Old Town, Swindon, SN1 3AJ"
2026-02-10,1914174,Neighbourhood,Takeaway/sandwich shop,Street Record,Centurion Way,Farington,Lancashire,,South Ribble,AwaitingInspection,,FHRS,False,,,"Street Record, Centurion Way, Farington, Lancashire"
2026-02-10,1914152,Havant Kebab and Pizza,Takeaway/sandwich shop,26 Market Parade,,Havant,,PO9 1QF,Havant,5,2026-01-07,FHRS,False,50.8533745,-0.9820147,"26 Market Parade, Havant, PO9 1QF"
2026-02-10,1914153,Istanbul Grill,Takeaway/sandwich shop,280 London Road,,Waterlooville,,PO7 7DS,Havant,1,2024-08-28,FHRS,False,50.8792168,-1.0316821,"280 London Road, Waterlooville, PO7 7DS"
2026-02-10,1914159,Spudlickers mobile,Takeaway/sandwich shop,,,,,,Havant,AwaitingInspection,,FHRS,False,,,
2026-02-10,1914256,Raving Rooster,Takeaway/sandwich shop,159 Wareham Road,,Lytchett Matravers,Dorset,BH16 6EA,Dorset,AwaitingInspection,,FHRS,False,50.7580388,-2.0765528,"159 Wareham Road, Lytchett Matravers, Dorset, BH16 6EA"
2026-02-10,1914004,Gaja Home Foods,Takeaway/sandwich shop,,,,,,West Lindsey,AwaitingInspection,,FHRS,False,,,
2026-02-10,1914053,New Hakka Chinese take away,Takeaway/sandwich shop,78 Felpham Road,,Felpham,West Sussex,PO22 7NZ,Arun,AwaitingInspection,,FHRS,False,50.7892951965332,-0.654320001602173,"78 Felpham Road, Felpham, West Sussex, PO22 7NZ"
2026-02-10,1914056,Valley coffee pod,Takeaway/sandwich shop,,,,,,Arun,AwaitingInspection,,FHRS,False,,,
2026-02-10,1914060,Chef Collin Brown Street Food,Takeaway/sandwich shop,Unit 9,British Wharf,Landmann Way,London,SE14 5RS,Lewisham,AwaitingInspection,,FHRS,False,51.4845436,-0.0442037,"Unit 9, British Wharf, Landmann Way, London, SE14 5RS"
2026-02-10,1914064,"Jamaica Love Jerk Centre, The Dutchie Express,",Takeaway/sandwich shop,Jamaica Love Jerk Centre The Dutchie Express,7 Bromley Road,London,,SE6 2TS,Lewisham,AwaitingInspection,,FHRS,False,51.4405408,-0.0200887,"Jamaica Love Jerk Centre The Dutchie Express, 7 Bromley Road, London, SE6 2TS"
2026-02-10,1914061,KACCO CASH & CARRY,Takeaway/sandwich shop,Unit 18,Catford Broadway,London,,SE6 4SN,Lewisham,AwaitingInspection,,FHRS,False,51.4453798,-0.0217155,"Unit 18, Catford Broadway, London, SE6 4SN"
2026-02-10,1914404,Marmaris Grill,Takeaway/sandwich shop,32 High Street,Castleford,,,WF10 5JU,Wakefield,AwaitingInspection,,FHRS,False,53.722246,-1.363804,"32 High Street, Castleford, WF10 5JU"
2026-02-10,1150789,McDonalds,Takeaway/sandwich shop,Three Counties Retail Park,Townsend Way,Malvern,Worcestershire,WR14 1PY,Malvern Hills,5,2026-01-26,FHRS,False,52.1305694580078,-2.30099391937256,"Three Counties Retail Park, Townsend Way, Malvern, Worcestershire, WR14 1PY"
2026-02-10,1914171,Jade Garden,Takeaway/sandwich shop,43 High Street,Chatham,Medway,,ME4 4EN,Medway,AwaitingInspection,,FHRS,True,51.3833995,0.5189619,"43 High Street, Chatham, Medway, ME4 4EN"
2026-02-10,1914071,Chaulden Bites,Takeaway/sandwich shop,,38 Long Chaulden,Hemel Hempstead,Hertfordshire,HP1 2HX,Dacorum,5,2026-01-17,FHRS,False,51.74983,-0.501271,"38 Long Chaulden, Hemel Hempstead, Hertfordshire, HP1 2HX"
2026-02-10,1914072,No.1 Khan House pizza,Takeaway/sandwich shop,,9 Alexandra Road,Hemel Hempstead,Hertfordshire,HP2 5BS,Dacorum,AwaitingInspection,,FHRS,False,51.7574461,-0.4713686,"9 Alexandra Road, Hemel Hempstead, Hertfordshire, HP2 5BS"
2026-02-10,1914341,2 Cucina Beeston,Takeaway/sandwich shop,,117 Woodside Road,,Nottingham,NG9 2SB,Nottingham City,AwaitingInspection,,FHRS,False,52.936363,-1.212268,"117 Woodside Road, Nottingham, NG9 2SB"
2026-02-10,1789534,Uncle B Kitchens,Takeaway/sandwich shop,,698 Woodborough Road,,Nottingham,NG3 5GJ,Nottingham City,AwaitingInspection,,FHRS,False,52.980741,-1.129424,"698 Woodborough Road, Nottingham, NG3 5GJ"
2026-02-10,1823861,Ali Sweets and Spices Ltd,Takeaway/sandwich shop,300 Slade Road,Stockland Green,Birmingham,,B23 7LU,Birmingham,AwaitingInspection,,FHRS,True,52.51838,-1.856816,"300 Slade Road, Stockland Green, Birmingham, B23 7LU"
2026-02-10,706044,Baguette.com Unit 2,Takeaway/sandwich shop,2 Great Western Arcade,Birmingham,,,B2 5HU,Birmingham,AwaitingInspection,,FHRS,True,52.48177,-1.897354,"2 Great Western Arcade, Birmingham, B2 5HU"
2026-02-10,1051296,Caspian Pizza,Takeaway/sandwich shop,1072 Warwick Road,Acocks Green,Birmingham,,B27 6BH,Birmingham,4,2025-12-04,FHRS,False,52.446567,-1.822738,"1072 Warwick Road, Acocks Green, Birmingham, B27 6BH"
2026-02-10,932091,Charlies Kebab House,Takeaway/sandwich shop,2 Bevington Road,Birmingham,,,B6 6JB,Birmingham,0,2025-11-14,FHRS,False,52.509038,-1.88982,"2 Bevington Road, Birmingham, B6 6JB"
2026-02-10,1640734,Dixy Chicken,Takeaway/sandwich shop,2256 Coventry Road,Sheldon,Birmingham,,B26 3JR,Birmingham,4,2025-10-08,FHRS,False,52.4517250061035,-1.77794003486633,"2256 Coventry Road, Sheldon, Birmingham, B26 3JR"
2026-02-10,777627,Food Republic / Taste of Turkey,Takeaway/sandwich shop,Velvet,200 Broad Street,Birmingham,,B15 1SU,Birmingham,3,2025-11-18,FHRS,False,52.475238,-1.913828,"Velvet, 200 Broad Street, Birmingham, B15 1SU"
2026-02-10,602987,Golden Fish Fry,Takeaway/sandwich shop,192 Monument Road,Birmingham,,,B16 8UU,Birmingham,AwaitingInspection,,FHRS,True,52.472813,-1.930925,"192 Monument Road, Birmingham, B16 8UU"
2026-02-10,1728785,Grillo Piri Piri Expert,Takeaway/sandwich shop,269 Beeches Road,Oscott,Birmingham,,B42 2QS,Birmingham,AwaitingInspection,,FHRS,True,52.5393028259277,-1.90375101566315,"269 Beeches Road, Oscott, Birmingham, B42 2QS"
2026-02-10,1570058,Hey Sugar,Takeaway/sandwich shop,533 Bristol Road,Selly Oak,Birmingham,,B29 6AU,Birmingham,1,2025-11-19,FHRS,False,52.4462928771973,-1.93203997612,"533 Bristol Road, Selly Oak, Birmingham, B29 6AU"
2026-02-10,1914316,Lunch Box,Takeaway/sandwich shop,Telephone Kiosk,Temple Row,Birmingham,,B2 5NY,Birmingham,AwaitingInspection,,FHRS,False,,,"Telephone Kiosk, Temple Row, Birmingham, B2 5NY"
2026-02-10,976069,Marino's Pizza,Takeaway/sandwich shop,299A Alcester Road South,Brandwood,Birmingham,,B14 6EB,Birmingham,3,2025-09-22,FHRS,False,52.4213790893555,-1.89152300357819,"299A Alcester Road South, Brandwood, Birmingham, B14 6EB"
2026-02-10,1783513,ME Food,Takeaway/sandwich shop,Unit 1 At,88 Bromsgrove Street,Birmingham,,B5 6NU,Birmingham,AwaitingInspection,,FHRS,True,52.472481,-1.8987947,"Unit 1 At, 88 Bromsgrove Street, Birmingham, B5 6NU"
2026-02-10,601609,Multi Pizza,Takeaway/sandwich shop,632 Coventry Road,South Yardley,Birmingham,,B10 0UT,Birmingham,2,2025-11-11,FHRS,False,52.467598,-1.851637,"632 Coventry Road, South Yardley, Birmingham, B10 0UT"
2026-02-10,1524175,Original UK Fried Chicken Ltd,Takeaway/sandwich shop,754 Bordesley Green,Bordesley Green,Birmingham,,B9 5PQ,Birmingham,4,2025-11-06,FHRS,False,52.4803819,-1.8338618,"754 Bordesley Green, Bordesley Green, Birmingham, B9 5PQ"
2026-02-10,1621171,Pizza Station,Takeaway/sandwich shop,211 Station Road,Stechford And Yardley North,Birmingham,,B33 8BB,Birmingham,3,2026-01-07,FHRS,False,52.482561,-1.809812,"211 Station Road, Stechford And Yardley North, Birmingham, B33 8BB"
2026-02-10,1170428,Subway,Takeaway/sandwich shop,K9,Middle Mall Bullring,Birmingham,,B5 4BE,Birmingham,5,2026-01-12,FHRS,False,52.4776153564453,-1.89488995075226,"K9, Middle Mall Bullring, Birmingham, B5 4BE"
2026-02-10,1914313,The Station Fish Bar,Takeaway/sandwich shop,The Station Fish Bar,1 Station Road,Northfield,Birmingham,B31 3TE,Birmingham,AwaitingInspection,,FHRS,False,52.4079887,-1.9639776,"The Station Fish Bar, 1 Station Road, Northfield, Birmingham, B31 3TE"
2026-02-10,1912460,"Dozt, Rice Affair, NOMESS Burgers, Dayli, Bowlz, The V Kitchen",Takeaway/sandwich shop,,6 Gales Gardens,London,,E2 0EJ,Tower Hamlets,AwaitingInspection,,FHRS,False,51.526548,-0.0567,"6 Gales Gardens, London, E2 0EJ"
2026-02-10,1914182,Urban Fusion Grill,Takeaway/sandwich shop,,83 Brick Lane,London,,E1 6QR,Tower Hamlets,AwaitingInspection,,FHRS,False,51.5203107,-0.0720541,"83 Brick Lane, London, E1 6QR"
2026-02-10,1914289,Angel Bites,Takeaway/sandwich shop,5 High Street,,,Scarborough,YO11 3LL,North Yorkshire,AwaitingInspection,,FHRS,False,54.2398419,-0.3979453,"5 High Street, Scarborough, YO11 3LL"
2026-02-10,1914290,Athena Greek Street Food,Takeaway/sandwich shop,180 Kings Road,,,Harrogate,HG1 5JG,North Yorkshire,AwaitingInspection,,FHRS,False,54.0030747,-1.5370462,"180 Kings Road, Harrogate, HG1 5JG"
2026-02-10,1914308,High street fisheries,Takeaway/sandwich shop,16 High Street,,,Pateley Bridge,HG3 5AW,North Yorkshire,5,2026-01-29,FHRS,False,54.0860689,-1.7596775,"16 High Street, Pateley Bridge, HG3 5AW"
2026-02-10,1914098,Bella Pizza,Takeaway/sandwich shop,10 High Street,Dunsville,Doncaster,,DN7 4BP,Doncaster,AwaitingInspection,,FHRS,False,53.56488,-1.02062,"10 High Street, Dunsville, Doncaster, DN7 4BP"
2026-02-10,1914111,Burgerlicious,Takeaway/sandwich shop,Unit C5 The Wool Market Market Place,,Doncaster,,DN1 1NG,Doncaster,5,2026-01-29,FHRS,False,53.5253349,-1.1315472,"Unit C5 The Wool Market Market Place, Doncaster, DN1 1NG"
2026-02-10,1914101,Doner & Co,Takeaway/sandwich shop,8A Nether Hall Road,,Doncaster,,DN1 2PW,Doncaster,AwaitingInspection,,FHRS,False,53.5248225,-1.1302906,"8A Nether Hall Road, Doncaster, DN1 2PW"
2026-02-10,1914093,Natalie's,Takeaway/sandwich shop,2 Abbott Street,Hexthorpe,Doncaster,,DN4 0AU,Doncaster,AwaitingInspection,,FHRS,False,53.51818,-1.143093,"2 Abbott Street, Hexthorpe, Doncaster, DN4 0AU"
2026-02-10,1914126,Pizza Hill,Takeaway/sandwich shop,228 Thorne Road,Wheatley Hills,Doncaster,,DN2 5AG,Doncaster,AwaitingInspection,,FHRS,False,53.53713,-1.102922,"228 Thorne Road, Wheatley Hills, Doncaster, DN2 5AG"
2026-02-10,1914127,Pizza Jim,Takeaway/sandwich shop,96 Gattison Lane,New Rossington,Doncaster,,DN11 0NR,Doncaster,AwaitingInspection,,FHRS,False,53.472154,-1.070304,"96 Gattison Lane, New Rossington, Doncaster, DN11 0NR"
2026-02-10,1914136,X L Fisheries,Takeaway/sandwich shop,48 Brecks Lane,Kirk Sandall,Doncaster,,DN3 1JR,Doncaster,AwaitingInspection,,FHRS,False,53.562297,-1.068555,"48 Brecks Lane, Kirk Sandall, Doncaster, DN3 1JR"
2026-02-10,1914184,Jaipur,Takeaway/sandwich shop,19 Albert Road,Colne,Lancashire,,BB8 0RY,Pendle,AwaitingInspection,,FHRS,False,53.8560485839844,-2.17300200462341,"19 Albert Road, Colne, Lancashire, BB8 0RY"
2026-02-10,1914386,Romas Fish & Chips,Takeaway/sandwich shop,58 Fancy Farm Road,Greenock,,,PA16 7LY,Inverclyde,Awaiting Inspection,2026-02-09,FHIS,False,55.9447292,-4.8007727,"58 Fancy Farm Road, Greenock, PA16 7LY"
2026-02-11,1894758,Aberystwyth Town Football Club Social Club,Takeaway/sandwich shop,Club House Park Avenue Stadium Park Avenue,,Aberystwyth,Ceredigion,SY23 1PG,Ceredigion,AwaitingInspection,,FHRS,True,52.4112968444824,-4.08054304122925,"Club House Park Avenue Stadium Park Avenue, Aberystwyth, Ceredigion, SY23 1PG"
2026-02-11,1914703,Halen a pupur ar y prom,Takeaway/sandwich shop,The Square,,Tregaron,,SY25 6JL,Ceredigion,AwaitingInspection,,FHRS,False,,,"The Square, Tregaron, SY25 6JL"
2026-02-11,1914427,Chill and Grill,Takeaway/sandwich shop,Chill n Grill,205-207 Church Street,Paddock,Huddersfield,HD1 4UL,Kirklees,AwaitingInspection,,FHRS,False,53.6435206,-1.812927,"Chill n Grill, 205-207 Church Street, Paddock, Huddersfield, HD1 4UL"
2026-02-11,1914425,FLAVOR RUSH DELIVERY LIMITED,Takeaway/sandwich shop,Bulls Head Inn,815 Huddersfield Road,Ravensthorpe,Dewsbury,WF13 3LR,Kirklees,AwaitingInspection,,FHRS,False,53.6763264,-1.6706682,"Bulls Head Inn, 815 Huddersfield Road, Ravensthorpe, Dewsbury, WF13 3LR"
2026-02-11,1914421,Honley Spice Tandoori Ltd,Takeaway/sandwich shop,26 Bradshaw Road,Honley,Holmfirth,,HD9 6DT,Kirklees,AwaitingInspection,,FHRS,False,53.599787,-1.796815,"26 Bradshaw Road, Honley, Holmfirth, HD9 6DT"
2026-02-11,1914424,"M.C Noodleking, Nodo x M.C Noodle King",Takeaway/sandwich shop,Mc Noodle King,16 Kirkgate,Huddersfield,,HD1 1QH,Kirklees,AwaitingInspection,,FHRS,False,53.6468468,-1.7812661,"Mc Noodle King, 16 Kirkgate, Huddersfield, HD1 1QH"
2026-02-11,227408,Milano Pizzeria,Takeaway/sandwich shop,25 Greenhead Road,Huddersfield,,,HD1 4EN,Kirklees,AwaitingInspection,,FHRS,True,53.647018,-1.789826,"25 Greenhead Road, Huddersfield, HD1 4EN"
2026-02-11,1914433,New Jersey hot chicken,Takeaway/sandwich shop,Pepes Piri Piri,Alfreds Arcade,Alfreds Way,Batley,WF17 5DR,Kirklees,AwaitingInspection,,FHRS,False,53.7141791,-1.6314541,"Pepes Piri Piri, Alfreds Arcade, Alfreds Way, Batley, WF17 5DR"
2026-02-11,1914423,Pizza Island,Takeaway/sandwich shop,186A Huddersfield Road,Mirfield,,,WF14 8AN,Kirklees,AwaitingInspection,,FHRS,True,53.6741958,-1.6954274,"186A Huddersfield Road, Mirfield, WF14 8AN"
2026-02-11,1914412,Uk Fried Chicken,Takeaway/sandwich shop,626 Huddersfield Road,Ravensthorpe,Dewsbury,,WF13 3HL,Kirklees,AwaitingInspection,,FHRS,True,53.678875,-1.664726,"626 Huddersfield Road, Ravensthorpe, Dewsbury, WF13 3HL"
2026-02-11,1914713,FOOD DELISH LTD,Takeaway/sandwich shop,101A Burnt Oak Broadway,Edgware,,,HA8 5EN,Harrow,3,2026-01-13,FHRS,False,51.6015342,-0.2689228,"101A Burnt Oak Broadway, Edgware, HA8 5EN"
2026-02-11,1914711,Heathland School,Takeaway/sandwich shop,Eastcote Lane,Harrow,,,HA2 9AG,Harrow,5,2026-01-29,FHRS,False,51.56328985,-0.3676171,"Eastcote Lane, Harrow, HA2 9AG"
2026-02-11,1914712,Qaboli,Takeaway/sandwich shop,13 Station Road,Harrow,,,HA1 2UF,Harrow,AwaitingInspection,,FHRS,True,51.588671,-0.332778,"13 Station Road, Harrow, HA1 2UF"
2026-02-11,1914547,Flames Takeaway,Takeaway/sandwich shop,,10 Brighowgate,,Grimsby,DN32 0QX,North East Lincolnshire,AwaitingInspection,,FHRS,False,53.562774,-0.088282,"10 Brighowgate, Grimsby, DN32 0QX"
2026-02-11,1914545,Grimsby Pizza House,Takeaway/sandwich shop,,108 VICTORIA STREET,,Grimsby,DN31 1BA,North East Lincolnshire,AwaitingInspection,,FHRS,False,53.5658275,-0.0827619,"108 VICTORIA STREET, Grimsby, DN31 1BA"
2026-02-11,1914544,Starhouse Cleethorpes,Takeaway/sandwich shop,,101 GRIMSBY ROAD,,Cleethorpes,DN35 7DD,North East Lincolnshire,AwaitingInspection,,FHRS,False,53.5702353,-0.0516755,"101 GRIMSBY ROAD, Cleethorpes, DN35 7DD"
2026-02-11,1914473,Smash \& Dough,Takeaway/sandwich shop,Smash And Dough,1 Gayton Road,Sulgrave,Washington,NE37 3BW,Sunderland,AwaitingInspection,,FHRS,False,54.9171335,-1.5121501,"Smash And Dough, 1 Gayton Road, Sulgrave, Washington, NE37 3BW"
2026-02-11,1914479,Tolz Kitchen,Takeaway/sandwich shop,,,,,,Sunderland,AwaitingInspection,,FHRS,False,,,
2026-02-11,681417,FLAVA KITCHEN,Takeaway/sandwich shop,,33 Black Swan Lane,,Luton,LU3 2LU,Luton,AwaitingInspection,,FHRS,False,51.905983,-0.44129,"33 Black Swan Lane, Luton, LU3 2LU"
2026-02-11,1894758,Aberystwyth Town Football Club Social Club,Takeaway/sandwich shop,Club House Park Avenue Stadium Park Avenue,,Aberystwyth,Ceredigion,SY23 1PG,Ceredigion,AwaitingInspection,,FHRS,True,52.4112968444824,-4.08054304122925,"Club House Park Avenue Stadium Park Avenue, Aberystwyth, Ceredigion, SY23 1PG"
2026-02-11,1914703,Halen a pupur ar y prom,Takeaway/sandwich shop,The Square,,Tregaron,,SY25 6JL,Ceredigion,AwaitingInspection,,FHRS,False,,,"The Square, Tregaron, SY25 6JL"
2026-02-11,1914555,Ground Up,Takeaway/sandwich shop,Unit 4,Rawtenstall Market,Bank Street,Rawtenstall,BB4 7UW,Rossendale,AwaitingInspection,,FHRS,False,,,"Unit 4, Rawtenstall Market, Bank Street, Rawtenstall, BB4 7UW"
2026-02-11,1914575,Gaimao Maocai,Takeaway/sandwich shop,236 Blythe Road,London,,,W14 0HJ,Hammersmith and Fulham,AwaitingInspection,,FHRS,False,51.49977,-0.221685,"236 Blythe Road, London, W14 0HJ"
2026-02-11,1914631,Bowls and Sushi,Takeaway/sandwich shop,,147 Hackney Road London,Hackney,London,E2 8JL,Hackney,AwaitingInspection,,FHRS,False,51.5304829,-0.0737951,"147 Hackney Road London, Hackney, London, E2 8JL"
2026-02-11,1914615,NIRVANA SHOKUDO,Takeaway/sandwich shop,,117 Cassland Road London,Hackney,London,E9 5BS,Hackney,AwaitingInspection,,FHRS,False,,,"117 Cassland Road London, Hackney, London, E9 5BS"
2026-02-11,1914608,Purple and green,Takeaway/sandwich shop,,Unit 15 Bizart Studios 22 Grosvenor Way London,Hackney,London,,Hackney,AwaitingInspection,,FHRS,False,,,"Unit 15 Bizart Studios 22 Grosvenor Way London, Hackney, London"
2026-02-11,1914627,Raku Matcha,Takeaway/sandwich shop,,,,,,Hackney,5,2025-04-29,FHRS,False,,,
2026-02-11,1914620,SWAY EDIT.,Takeaway/sandwich shop,,73 Curtain Road London,Hackney,London,,Hackney,AwaitingInspection,,FHRS,False,,,"73 Curtain Road London, Hackney, London"
2026-02-11,1914603,The Good Bagel,Takeaway/sandwich shop,,64-66 Brooksby's Walk London,Hackney,London,,Hackney,AwaitingInspection,,FHRS,False,,,"64-66 Brooksby's Walk London, Hackney, London"
2026-02-11,1914613,To The Tea,Takeaway/sandwich shop,,Flat 2 39 Provost Street London,Hackney,London,N1 7NE,Hackney,AwaitingInspection,,FHRS,False,,,"Flat 2 39 Provost Street London, Hackney, London, N1 7NE"
2026-02-11,1694454,Dope Bunz,Takeaway/sandwich shop,Unit 8 To 9,Service Industrial Area,Bush Fair,Harlow,CM18 6LX,Harlow,5,2024-03-02,FHRS,False,51.7571705,0.1138459,"Unit 8 To 9, Service Industrial Area, Bush Fair, Harlow, CM18 6LX"
2026-02-11,1914698,Tom&Basal,Takeaway/sandwich shop,Unit 905,1 - 3 Britannia Way,Park Royal,,NW10 7PR,Ealing,AwaitingInspection,,FHRS,False,,,"Unit 905, 1 - 3 Britannia Way, Park Royal, NW10 7PR"
2026-02-11,1914536,Friesday Belgian Fries,Takeaway/sandwich shop,,128-132 Parkside Road,Bradford,,BD5 8EH,Bradford,AwaitingInspection,,FHRS,False,53.773131,-1.752738,"128-132 Parkside Road, Bradford, BD5 8EH"
2026-02-11,1776693,Subhan Catering,Takeaway/sandwich shop,,41 Bradford Road,Keighley,,BD21 4BW,Bradford,AwaitingInspection,,FHRS,False,53.8696722,-1.9000241,"41 Bradford Road, Keighley, BD21 4BW"
2026-02-11,894863,Heather A Logie,Takeaway/sandwich shop,Waterford Circle  Forres  Moray,,,,,Moray,Pass,2025-01-22,FHIS,False,57.61199003,-3.62267473,Waterford Circle  Forres  Moray
2026-02-11,1524928,The Patch,Takeaway/sandwich shop,Highlander Park  Victoria Street  Craigellachie  Moray,,,,,Moray,Pass,2025-05-13,FHIS,False,,,Highlander Park  Victoria Street  Craigellachie  Moray
2026-02-11,1914660,Asian Corner Within Morrisons,Takeaway/sandwich shop,3 Silvertown Square,Canning Town,London,,E16 1GW,Newham,AwaitingInspection,,FHRS,False,51.5149212,0.0104205,"3 Silvertown Square, Canning Town, London, E16 1GW"
2026-02-11,1914663,Boithok - Unit S12,Takeaway/sandwich shop,Unit S,34 Plashet Grove,East Ham,London,E6 1AE,Newham,AwaitingInspection,,FHRS,True,51.5368296,0.0360016,"Unit S, 34 Plashet Grove, East Ham, London, E6 1AE"
2026-02-11,1875168,Hungry Bitess,Takeaway/sandwich shop,101 Green Street,Forest Gate,London,,E7 8JF,Newham,AwaitingInspection,,FHRS,False,51.544729,0.0321468,"101 Green Street, Forest Gate, London, E7 8JF"
2026-02-11,1914651,Lulus,Takeaway/sandwich shop,Unit M5,49 - 51 The Mall,Stratford,London,E15 1XE,Newham,AwaitingInspection,,FHRS,False,51.5418219,-0.0001274,"Unit M5, 49 - 51 The Mall, Stratford, London, E15 1XE"
2026-02-11,1914515,May May House,Takeaway/sandwich shop,28 Station Road,Belmont,,,SM2 6BS,Sutton,AwaitingInspection,,FHRS,False,51.343772,-0.200807,"28 Station Road, Belmont, SM2 6BS"
2026-02-11,1914516,Piggies,Takeaway/sandwich shop,6 The Broadway,Cheam,,,SM3 8AY,Sutton,AwaitingInspection,,FHRS,False,51.358245,-0.216313,"6 The Broadway, Cheam, SM3 8AY"
2026-02-11,1914521,Sunflower,Takeaway/sandwich shop,19 Upper Mulgrave Road,Cheam,,,SM2 7AY,Sutton,AwaitingInspection,,FHRS,False,51.35481,-0.215154,"19 Upper Mulgrave Road, Cheam, SM2 7AY"
2026-02-11,1914523,Shish & Grill,Takeaway/sandwich shop,307 High Street,London Colney,Hertfordshire,,AL2 1EJ,St Albans City,AwaitingInspection,,FHRS,False,51.72664,-0.299081,"307 High Street, London Colney, Hertfordshire, AL2 1EJ"
2026-02-11,1914465,Ranj,Takeaway/sandwich shop,,126 Castle Street,Forfar,,DD8 3HS,Angus,Awaiting Inspection,,FHIS,False,56.646798,-2.888458,"126 Castle Street, Forfar, DD8 3HS"
2026-02-11,1914558,Grilleria,Takeaway/sandwich shop,2 The Gables,Horsforth,Leeds,,LS18 5PJ,Leeds,5,2026-01-29,FHRS,False,53.8464784,-1.6329033,"2 The Gables, Horsforth, Leeds, LS18 5PJ"
2026-02-11,1914509,Crunch Munch Perth,Takeaway/sandwich shop,,170-172 South Street,Perth,,PH2 8NY,Perth and Kinross,Awaiting Inspection,2026-02-06,FHIS,False,56.3951212,-3.4325892,"170-172 South Street, Perth, PH2 8NY"
2026-02-11,1914508,OJ's Pantry,Takeaway/sandwich shop,,37 James Square,Crieff,,PH7 3EY,Perth and Kinross,Awaiting Inspection,2026-02-06,FHIS,False,56.373002,-3.84191,"37 James Square, Crieff, PH7 3EY"
2026-02-11,1914677,Hot Noodles,Takeaway/sandwich shop,,,,,,Barking and Dagenham,AwaitingInspection,,FHRS,False,,,
2026-02-11,1914681,Karwoo Ilford Ltd,Takeaway/sandwich shop,,122 Fanshawe Avenue,,Barking,IG11 8RQ,Barking and Dagenham,AwaitingInspection,,FHRS,False,51.5434283,0.079162,"122 Fanshawe Avenue, Barking, IG11 8RQ"
2026-02-12,1914853,The Nomadic Pizzeria Limited,Takeaway/sandwich shop,The Garret,Lerwick,Shetland,,ZE1 0LL,Shetland Islands,Awaiting Inspection,,FHIS,False,,,"The Garret, Lerwick, Shetland, ZE1 0LL"
2026-02-12,1914984,Asli's Desserts,Takeaway/sandwich shop,,,,,,Stevenage,AwaitingInspection,,FHRS,False,,,
2026-02-12,1914774,The Nook,Takeaway/sandwich shop,The Kiosk,Babbage Road,Totnes,,TQ9 5JA,South Hams,AwaitingInspection,,FHRS,False,50.434953,-3.683784,"The Kiosk, Babbage Road, Totnes, TQ9 5JA"
2026-02-12,1914895,Norwich Pizza And Kebab,Takeaway/sandwich shop,6 Magdalen Street,Norwich,,,NR3 1HU,Norwich City,AwaitingInspection,,FHRS,False,52.633986,1.296604,"6 Magdalen Street, Norwich, NR3 1HU"
2026-02-12,1914887,Shah Zahan Tandoori,Takeaway/sandwich shop,84 Waterloo Road,Norwich,,,NR3 1EW,Norwich City,AwaitingInspection,,FHRS,False,52.642198,1.294295,"84 Waterloo Road, Norwich, NR3 1EW"
2026-02-12,1915039,QUAYSIDE FISHING,Takeaway/sandwich shop,,,,,,New Forest,AwaitingInspection,,FHRS,False,,,
2026-02-12,1915138,Benny's Barbecue,Takeaway/sandwich shop,61B High Street,Haverhill,Suffolk,,CB9 8AH,West Suffolk,5,2024-11-06,FHRS,False,52.081102,0.440995,"61B High Street, Haverhill, Suffolk, CB9 8AH"
2026-02-12,1915148,Bury Kebab Shop,Takeaway/sandwich shop,72 St Andrews Street North,Bury St Edmunds,Suffolk,,IP33 1TZ,West Suffolk,4,2024-08-17,FHRS,False,52.247595,0.710924,"72 St Andrews Street North, Bury St Edmunds, Suffolk, IP33 1TZ"
2026-02-12,1915099,Chippy's,Takeaway/sandwich shop,Chippy's Limited,2 Strasbourg Square,Haverhill,Suffolk,CB9 0HR,West Suffolk,5,2025-01-24,FHRS,False,52.0845526,0.443857,"Chippy's Limited, 2 Strasbourg Square, Haverhill, Suffolk, CB9 0HR"
2026-02-12,1915144,Clare Fish & Chip Shop,Takeaway/sandwich shop,19 High Street,Clare,Suffolk,,CO10 8NY,West Suffolk,5,2024-01-24,FHRS,False,52.078495,0.580221,"19 High Street, Clare, Suffolk, CO10 8NY"
2026-02-12,1114064,Golden House,Takeaway/sandwich shop,68 Guildhall Street,Bury St Edmunds,Suffolk,,IP33 1QF,West Suffolk,5,2025-11-30,FHRS,False,52.241547,0.712284,"68 Guildhall Street, Bury St Edmunds, Suffolk, IP33 1QF"
2026-02-12,1915094,Lime,Takeaway/sandwich shop,13 St Olaves Precinct,Bury St Edmunds,Suffolk,,IP32 6SP,West Suffolk,AwaitingInspection,,FHRS,False,52.258817,0.695254,"13 St Olaves Precinct, Bury St Edmunds, Suffolk, IP32 6SP"
2026-02-12,1915194,Peyton Plaice,Takeaway/sandwich shop,Unit 1a,Barton Road Retail Park,Barton Road,Bury St Edmunds,IP32 7BE,West Suffolk,5,2026-01-10,FHRS,False,52.252126,0.735494,"Unit 1a, Barton Road Retail Park, Barton Road, Bury St Edmunds, IP32 7BE"
2026-02-12,1915180,PIZZA GOGO,Takeaway/sandwich shop,Alma House,10A Market Street,Newmarket,Suffolk,CB8 8EE,West Suffolk,AwaitingInspection,,FHRS,False,52.2446828,0.4058675,"Alma House, 10A Market Street, Newmarket, Suffolk, CB8 8EE"
2026-02-12,1114447,Pizza Town,Takeaway/sandwich shop,Barton Road Retail Park,Barton Road,Bury St Edmunds,,IP32 7BE,West Suffolk,5,2024-12-04,FHRS,False,52.2520719,0.7365879,"Barton Road Retail Park, Barton Road, Bury St Edmunds, IP32 7BE"
2026-02-12,1915093,Rice & Noodles,Takeaway/sandwich shop,17 Queen Street,Haverhill,Suffolk,,CB9 9DZ,West Suffolk,AwaitingInspection,,FHRS,False,52.083652,0.437251,"17 Queen Street, Haverhill, Suffolk, CB9 9DZ"
2026-02-12,1673441,Sunlight Chinese Takeaway,Takeaway/sandwich shop,70 Exning Road,Newmarket,Suffolk,,CB8 0AB,West Suffolk,1,2025-11-01,FHRS,False,52.250464,0.398536,"70 Exning Road, Newmarket, Suffolk, CB8 0AB"
2026-02-12,1915143,Tuckermans,Takeaway/sandwich shop,10 Market Hill,Clare,Suffolk,,CO10 8NN,West Suffolk,5,2024-07-17,FHRS,False,52.078316,0.580998,"10 Market Hill, Clare, Suffolk, CO10 8NN"
2026-02-12,1914805,Wingo's Bracknell/Tops Pizza Bracknell,Takeaway/sandwich shop,6 Horndean Road,,Bracknell,Bracknell Forest,RG12 0XQ,Bracknell Forest,AwaitingInspection,,FHRS,False,51.3976264,-0.728625,"6 Horndean Road, Bracknell, Bracknell Forest, RG12 0XQ"
2026-02-12,1127659,The Sausage,Takeaway/sandwich shop,5A Greenwich Market,,Greenwich,,SE10 9HZ,Greenwich,5,2025-08-20,FHRS,False,51.4817779,-0.0094414,"5A Greenwich Market, Greenwich, SE10 9HZ"
2026-02-12,1915223,Eastville Takeaway,Takeaway/sandwich shop,,103 Fishponds Road,Eastville,Bristol,BS5 6PN,Bristol,0,2025-09-21,FHRS,False,51.472103,-2.559836,"103 Fishponds Road, Eastville, Bristol, BS5 6PN"
2026-02-12,1727773,Nihow,Takeaway/sandwich shop,,6 Baldwin Street,City Centre,Bristol,BS1 1SA,Bristol,5,2024-10-29,FHRS,False,51.4532803,-2.5966965,"6 Baldwin Street, City Centre, Bristol, BS1 1SA"
2026-02-12,1915228,Shahikebabandgrill,Takeaway/sandwich shop,,327 Southmead Road,Southmead,Bristol,BS10 5LW,Bristol,AwaitingInspection,,FHRS,False,51.497907,-2.596699,"327 Southmead Road, Southmead, Bristol, BS10 5LW"
2026-02-12,1915078,Bangalore Cafe,Takeaway/sandwich shop,Broomfield Road,,,Coventry,CV5 6JW,Coventry,AwaitingInspection,,FHRS,False,52.4034669,-1.52916955,"Broomfield Road, Coventry, CV5 6JW"
2026-02-12,1915075,Biggy Buns,Takeaway/sandwich shop,7L Broomfield Road,Earsldon,,Coventry,CV5 6JW,Coventry,AwaitingInspection,,FHRS,False,,,"7L Broomfield Road, Earsldon, Coventry, CV5 6JW"
2026-02-12,1915073,FriesLab,Takeaway/sandwich shop,Broomfield Road,,,Coventry,CV5 6JW,Coventry,AwaitingInspection,,FHRS,False,52.4034669,-1.52916955,"Broomfield Road, Coventry, CV5 6JW"
2026-02-12,1915072,Nashville Cluckz,Takeaway/sandwich shop,Broomfield Road,,,Coventry,CV5 6JW,Coventry,AwaitingInspection,,FHRS,False,52.4034669,-1.52916955,"Broomfield Road, Coventry, CV5 6JW"
2026-02-12,1915076,Neo Tokyo Pizza,Takeaway/sandwich shop,7K Broomfield Road,,,Coventry,CV5 6JW,Coventry,AwaitingInspection,,FHRS,False,52.4038386,-1.526411,"7K Broomfield Road, Coventry, CV5 6JW"
2026-02-12,1914816,McDonalds,Takeaway/sandwich shop,,47 Castlemilk Arcade,Glasgow,,G45 9AA,Glasgow City,Awaiting Inspection,2026-02-05,FHIS,False,55.806689,-4.235119,"47 Castlemilk Arcade, Glasgow, G45 9AA"
2026-02-12,1914819,McDonalds,Takeaway/sandwich shop,,17 Monument Drive,Glasgow,,G33 1AD,Glasgow City,Awaiting Inspection,2026-02-06,FHIS,False,55.890984,-4.186996,"17 Monument Drive, Glasgow, G33 1AD"
2026-02-12,1914818,McDonalds,Takeaway/sandwich shop,,1325 Springburn Road,Glasgow,,G21 1UU,Glasgow City,Awaiting Inspection,2026-02-06,FHIS,False,55.89286,-4.232683,"1325 Springburn Road, Glasgow, G21 1UU"
2026-02-12,1914821,Perfetto Pizza,Takeaway/sandwich shop,,424 Paisley Road West,Glasgow,,G51 1BE,Glasgow City,Awaiting Inspection,2026-02-10,FHIS,False,55.851788,-4.297558,"424 Paisley Road West, Glasgow, G51 1BE"
2026-02-12,1914813,Shop Local,Takeaway/sandwich shop,,1041 Tollcross Road,Glasgow,,G32 8UQ,Glasgow City,Awaiting Inspection,2026-02-03,FHIS,False,55.8437706,-4.1730218,"1041 Tollcross Road, Glasgow, G32 8UQ"
2026-02-12,1914885,fEAsT,Takeaway/sandwich shop,4 Warwick Street,,Worthing,West Sussex,BN11 3DL,Worthing,AwaitingInspection,,FHRS,False,50.8115651,-0.3695179,"4 Warwick Street, Worthing, West Sussex, BN11 3DL"
2026-02-12,1914830,Framlingham Pizza & Grill,Takeaway/sandwich shop,20 Bridge Street,Framlingham,Woodbridge,Suffolk,IP13 9AH,East Suffolk,5,2026-01-23,FHRS,False,52.2222162,1.3427213,"20 Bridge Street, Framlingham, Woodbridge, Suffolk, IP13 9AH"
2026-02-12,1915057,Food Tray and Catering,Takeaway/sandwich shop,,133 Stockton Road,Hartlepool,,TS25 1SL,Hartlepool,AwaitingInspection,,FHRS,False,54.676399,-1.215382,"133 Stockton Road, Hartlepool, TS25 1SL"
2026-02-12,1915026,Smokin Buns Also T/A Hello Sweet,Takeaway/sandwich shop,14 - 16 Wote Street,Basingstoke,Hampshire,,RG21 7NW,Basingstoke and Deane,AwaitingInspection,,FHRS,False,51.2634719,-1.0868651,"14 - 16 Wote Street, Basingstoke, Hampshire, RG21 7NW"
2026-02-12,1914793,Rosso,Takeaway/sandwich shop,,3 Clyde Street,Carluke,South Lanarkshire,ML8 5BA,South Lanarkshire,Awaiting Inspection,,FHIS,False,55.7347027,-3.8405717,"3 Clyde Street, Carluke, South Lanarkshire, ML8 5BA"
2026-02-12,1914982,BUCKLEY SMASH BURGER LTD,Takeaway/sandwich shop,BUCKLEY SMASH BURGER LTD,Ewloe Place,Buckley,Flintshire,CH7 3NL,Sir y Fflint,AwaitingInspection,,FHRS,False,,,"BUCKLEY SMASH BURGER LTD, Ewloe Place, Buckley, Flintshire, CH7 3NL"
2026-02-12,1914981,Eat lean eat clean,Takeaway/sandwich shop,Eat lean eat clean,Red Lion,Rhos Road Penyffordd,Flintshire,CH4 0JR,Sir y Fflint,AwaitingInspection,,FHRS,False,53.1448131,-3.0478103,"Eat lean eat clean, Red Lion, Rhos Road Penyffordd, Flintshire, CH4 0JR"
2026-02-12,1914997,Aby's Biryani,Takeaway/sandwich shop,236 Whalley Old Road,,Blackburn,Blackburn With Darwen,BB1 5PD,Blackburn,AwaitingInspection,,FHRS,False,53.7591206,-2.465719,"236 Whalley Old Road, Blackburn, Blackburn With Darwen, BB1 5PD"
2026-02-12,1914992,Chicken Lickin,Takeaway/sandwich shop,29 Market Way,,Blackburn,Blackburn With Darwen,BB1 7JQ,Blackburn,AwaitingInspection,,FHRS,False,53.7497106,-2.4821496,"29 Market Way, Blackburn, Blackburn With Darwen, BB1 7JQ"
2026-02-12,1915004,Dubai Grill House,Takeaway/sandwich shop,190 Burnley Road,,Blackburn,Blackburn With Darwen,BB1 3HW,Blackburn,AwaitingInspection,,FHRS,False,53.7522635,-2.4493937,"190 Burnley Road, Blackburn, Blackburn With Darwen, BB1 3HW"
2026-02-12,1914994,Hafiz's Foods Darwen,Takeaway/sandwich shop,151 Duckworth Street,,Darwen,Blackburn With Darwen,BB3 1AT,Blackburn,AwaitingInspection,,FHRS,False,53.698943,-2.471051,"151 Duckworth Street, Darwen, Blackburn With Darwen, BB3 1AT"
2026-02-12,1915011,King Street Subway,Takeaway/sandwich shop,Blackburn Service Station Whalley Banks,,Blackburn,Blackburn With Darwen,BB2 1NT,Blackburn,AwaitingInspection,,FHRS,False,53.743831,-2.4915583,"Blackburn Service Station Whalley Banks, Blackburn, Blackburn With Darwen, BB2 1NT"
2026-02-12,1914998,Miami Smash,Takeaway/sandwich shop,52 Darwen Street,,Blackburn,Blackburn With Darwen,BB2 2BH,Blackburn,AwaitingInspection,,FHRS,False,53.7461326,-2.4824851,"52 Darwen Street, Blackburn, Blackburn With Darwen, BB2 2BH"
2026-02-12,1915007,Nabzys,Takeaway/sandwich shop,50 New Chapel Street,,Blackburn,Blackburn With Darwen,BB2 4DT,Blackburn,AwaitingInspection,,FHRS,False,53.7346489,-2.5029207,"50 New Chapel Street, Blackburn, Blackburn With Darwen, BB2 4DT"
2026-02-12,1914995,Palestine Pizza Ltd,Takeaway/sandwich shop,12 Plane Street,,Blackburn,Blackburn With Darwen,BB1 6LR,Blackburn,AwaitingInspection,,FHRS,False,53.7578049,-2.4709989,"12 Plane Street, Blackburn, Blackburn With Darwen, BB1 6LR"
2026-02-12,1914905,Porto Mare,Takeaway/sandwich shop,,,,,,North Somerset,AwaitingInspection,,FHRS,False,,,
2026-02-12,1914903,Shore,Takeaway/sandwich shop,,,,,,North Somerset,AwaitingInspection,,FHRS,False,,,
2026-02-12,1914899,Desi Delights,Takeaway/sandwich shop,26A Market Street,Wellington,Telford,Shropshire,TF1 1DT,Telford and Wrekin Council,AwaitingInspection,,FHRS,False,52.7011095,-2.519824,"26A Market Street, Wellington, Telford, Shropshire, TF1 1DT"
2026-02-12,1366224,Tyromancer,Takeaway/sandwich shop,,76a High Street,Uppermill,Oldham,OL3 6AW,Oldham,AwaitingInspection,,FHRS,False,53.5483566,-2.0054227,"76a High Street, Uppermill, Oldham, OL3 6AW"
2026-02-12,1914982,BUCKLEY SMASH BURGER LTD,Takeaway/sandwich shop,BUCKLEY SMASH BURGER LTD,Ewloe Place,Buckley,Flintshire,CH7 3NL,Flintshire,AwaitingInspection,,FHRS,False,,,"BUCKLEY SMASH BURGER LTD, Ewloe Place, Buckley, Flintshire, CH7 3NL"
2026-02-12,1914981,Eat lean eat clean,Takeaway/sandwich shop,Eat lean eat clean,Red Lion,Rhos Road Penyffordd,Flintshire,CH4 0JR,Flintshire,AwaitingInspection,,FHRS,False,53.1448131,-3.0478103,"Eat lean eat clean, Red Lion, Rhos Road Penyffordd, Flintshire, CH4 0JR"
2026-02-12,1914780,2 For 1 Pizza Place,Takeaway/sandwich shop,19 Regent Street,Hinckley,Leicestershire,,LE10 0AZ,Hinckley and Bosworth,AwaitingInspection,,FHRS,False,52.540952,-1.374256,"19 Regent Street, Hinckley, Leicestershire, LE10 0AZ"
2026-02-12,1914778,Barwell Chefs,Takeaway/sandwich shop,9 High Street,Barwell,Leicester,Leicestershire,LE9 8DQ,Hinckley and Bosworth,AwaitingInspection,,FHRS,False,52.56736,-1.346748,"9 High Street, Barwell, Leicester, Leicestershire, LE9 8DQ"
2026-02-12,1915050,Adsy's Pizza,Takeaway/sandwich shop,,,,,,Oadby and Wigston,AwaitingInspection,,FHRS,False,,,
2026-02-12,1915043,Creative Bakes Atelier,Takeaway/sandwich shop,,,,,,Oadby and Wigston,AwaitingInspection,,FHRS,False,,,
2026-02-12,1834140,Helen Constantinou,Takeaway/sandwich shop,,,,,,Oadby and Wigston,AwaitingInspection,,FHRS,False,,,
2026-02-12,1915055,Red Lantern,Takeaway/sandwich shop,56A Blaby Road,Wigston,Leicestershire,,LE18 4SD,Oadby and Wigston,AwaitingInspection,,FHRS,False,52.58012,-1.131712,"56A Blaby Road, Wigston, Leicestershire, LE18 4SD"
2026-02-12,1915042,Tandoori Kitchen,Takeaway/sandwich shop,87 Blaby Road,Wigston,Leicestershire,,LE18 4PB,Oadby and Wigston,AwaitingInspection,,FHRS,False,52.579799,-1.132029,"87 Blaby Road, Wigston, Leicestershire, LE18 4PB"
2026-02-12,1915053,Tigers Roll Cafe,Takeaway/sandwich shop,One Stop Kingdom,38B Kenilworth Drive,Oadby,Leicestershire,LE2 5LG,Oadby and Wigston,AwaitingInspection,,FHRS,False,52.5952841,-1.0894628,"One Stop Kingdom, 38B Kenilworth Drive, Oadby, Leicestershire, LE2 5LG"
2026-02-12,1914988,Moza Spice,Takeaway/sandwich shop,8 Gloucester Parade,Blackfen Road,Sidcup,Kent,DA15 8PS,Bexley,AwaitingInspection,,FHRS,False,51.450923,0.102134,"8 Gloucester Parade, Blackfen Road, Sidcup, Kent, DA15 8PS"
2026-02-12,1914971,Whispering Beans X Loaded Munch,Takeaway/sandwich shop,Wawne Ferry,Zeals Garth,Kingston Upon Hull,,HU7 4ND,Hull City,AwaitingInspection,,FHRS,False,,,"Wawne Ferry, Zeals Garth, Kingston Upon Hull, HU7 4ND"
2026-02-12,1914845,Marino's Pizzeria,Takeaway/sandwich shop,,170 High Street,Eston,,TS6 9JA,Redcar and Cleveland,AwaitingInspection,,FHRS,False,54.559282,-1.142694,"170 High Street, Eston, TS6 9JA"
2026-02-12,1914746,Malabar Kitchen,Takeaway/sandwich shop,,,,,,West Devon,AwaitingInspection,,FHRS,False,,,
2026-02-12,1914920,Chia The Wellness Bar,Takeaway/sandwich shop,34 - 36 Banks Road,,West Kirby,Wirral,CH48 0RD,Wirral,5,2026-02-09,FHRS,False,,,"34 - 36 Banks Road, West Kirby, Wirral, CH48 0RD"
2026-02-12,1914930,Top 1 Kitchen,Takeaway/sandwich shop,68 Grange Road,West Kirby,Wirral,,CH48 4EG,Wirral,3,2026-01-07,FHRS,False,53.3729499,-3.1814642,"68 Grange Road, West Kirby, Wirral, CH48 4EG"
2026-02-13,1915441,Starz Pizza,Takeaway/sandwich shop,,219 High Street,Scunthorpe,North Lincolnshire,DN15 6LQ,North Lincolnshire,AwaitingInspection,,FHRS,True,53.590819,-0.653145,"219 High Street, Scunthorpe, North Lincolnshire, DN15 6LQ"
2026-02-13,1915443,The Munch Stop,Takeaway/sandwich shop,Bos Plant British Steel Works,Brigg Road,Scunthorpe,North Lincolnshire,DN16 1XA,North Lincolnshire,5,2026-02-05,FHRS,False,53.5827955,-0.6177689,"Bos Plant British Steel Works, Brigg Road, Scunthorpe, North Lincolnshire, DN16 1XA"
2026-02-13,1915445,Winterton Pizza,Takeaway/sandwich shop,Earlsgate Fisheries,122-124 Earlsgate,Winterton,Scunthorpe,DN15 9XD,North Lincolnshire,AwaitingInspection,,FHRS,False,53.6537439,-0.611426,"Earlsgate Fisheries, 122-124 Earlsgate, Winterton, Scunthorpe, DN15 9XD"
2026-02-13,1915386,Beef & Bird -Leb Nom - Eugreeka - Papa G's,Takeaway/sandwich shop,22 Silver Street,Worcester,Worcestershire,,WR1 2RS,Worcester City,AwaitingInspection,,FHRS,True,52.19381,-2.21814,"22 Silver Street, Worcester, Worcestershire, WR1 2RS"
2026-02-13,1913294,Erivum Puliyum,Takeaway/sandwich shop,,,,,,Worcester City,AwaitingInspection,,FHRS,False,,,
2026-02-13,1915385,Slice Of New York,Takeaway/sandwich shop,35 Upper Tything,Worcester,Worcestershire,,WR1 1JZ,Worcester City,AwaitingInspection,,FHRS,False,52.2005996704102,-2.22532391548157,"35 Upper Tything, Worcester, Worcestershire, WR1 1JZ"
2026-02-13,1915372,P & G Jerk & Grill,Takeaway/sandwich shop,,,,,,King's Lynn and West Norfolk,AwaitingInspection,,FHRS,False,,,
2026-02-13,1915454,The Shack,Takeaway/sandwich shop,,Mapledurham Pavilion Upper Woodcote Road,Reading,,RG4 7EZ,Reading,5,2026-01-17,FHRS,False,,,"Mapledurham Pavilion Upper Woodcote Road, Reading, RG4 7EZ"
2026-02-13,1915320,Jiu Long,Takeaway/sandwich shop,106B Cultenhove Road,St Ninians,Stirling,,FK7 9EB,Stirling,Awaiting Inspection,2026-02-06,FHIS,False,56.1008626,-3.9467876,"106B Cultenhove Road, St Ninians, Stirling, FK7 9EB"
2026-02-13,1915318,Piece Out,Takeaway/sandwich shop,5 Roughburn Road,Bridge Of Allan,,,FK9 4BL,Stirling,Pass,2026-02-06,FHIS,False,56.1492166,-3.9422261,"5 Roughburn Road, Bridge Of Allan, FK9 4BL"
2026-02-13,1915474,Rice and Spice,Takeaway/sandwich shop,3 Binchester Street,South Shields,Tyne & Wear,,NE34 9AR,South Tyneside,AwaitingInspection,,FHRS,True,54.969497,-1.452787,"3 Binchester Street, South Shields, Tyne & Wear, NE34 9AR"
2026-02-13,1915527,JPL Peking Express,Takeaway/sandwich shop,6 Marigold Square,Carterton,Oxfordshire,,OX18 1AQ,West Oxfordshire,5,2026-01-29,FHRS,False,51.769089,-1.587604,"6 Marigold Square, Carterton, Oxfordshire, OX18 1AQ"
2026-02-13,1883474,Thai Siam At Purley Dragon,Takeaway/sandwich shop,84 Brighton Road,Purley,,,CR8 4DA,Croydon,AwaitingInspection,,FHRS,False,51.333309173584,-0.123152002692223,"84 Brighton Road, Purley, CR8 4DA"
2026-02-13,616944,Alaska Fried Chicken,Takeaway/sandwich shop,,216 Yorkshire Street,Rochdale,Lancashire,OL16 2DW,Rochdale,AwaitingInspection,,FHRS,False,53.62077,-2.151552,"216 Yorkshire Street, Rochdale, Lancashire, OL16 2DW"
2026-02-13,150375,Zam Zam Kitchen,Takeaway/sandwich shop,,41 Milkstone Road,Rochdale,Lancashire,OL11 1EB,Rochdale,AwaitingInspection,,FHRS,False,53.610364,-2.15682,"41 Milkstone Road, Rochdale, Lancashire, OL11 1EB"
2026-02-13,1915404,Golden Gate,Takeaway/sandwich shop,6a Drumadd Road,,Armagh,,BT61 9EA,"Armagh City, Banbridge and Craigavon",AwaitingInspection,,FHRS,False,54.351622,-6.639934,"6a Drumadd Road, Armagh, BT61 9EA"
2026-02-13,1915405,Just Like Mamas,Takeaway/sandwich shop,10 Bridge Street,Drumbroneth,Dromore,Down,BT25 1AN,"Armagh City, Banbridge and Craigavon",AwaitingInspection,,FHRS,False,54.414068,-6.14969,"10 Bridge Street, Drumbroneth, Dromore, Down, BT25 1AN"
2026-02-13,1915250,Dubai Dessert Lab,Takeaway/sandwich shop,163E FARNHAM ROAD,,SLOUGH,,SL1 4XP,Slough,AwaitingInspection,,FHRS,False,51.5245899,-0.6159377,"163E FARNHAM ROAD, SLOUGH, SL1 4XP"
2026-02-13,1915255,Flavour Fix,Takeaway/sandwich shop,104 KNOLTON WAY,,SLOUGH,,SL2 5TL,Slough,AwaitingInspection,,FHRS,False,51.5228031,-0.5741458,"104 KNOLTON WAY, SLOUGH, SL2 5TL"
2026-02-13,1915391,BKS,Takeaway/sandwich shop,,,173 Shankill Road,Belfast,BT13 1FP,Belfast City,AwaitingInspection,,FHRS,False,54.604232,-5.947998,"173 Shankill Road, Belfast, BT13 1FP"
2026-02-13,1915393,Smash n Bird,Takeaway/sandwich shop,,,86 Botanic Avenue,Belfast,BT7 1JR,Belfast City,AwaitingInspection,,FHRS,False,54.5871734619141,-5.93236398696899,"86 Botanic Avenue, Belfast, BT7 1JR"
2026-02-13,1915340,Ibrahim Loutfy,Takeaway/sandwich shop,,Unit 3 The Bridgewater Centre,Robson Avenue,Urmston,M41 7TE,Trafford,AwaitingInspection,,FHRS,False,53.4722778,-2.3468842,"Unit 3 The Bridgewater Centre, Robson Avenue, Urmston, M41 7TE"
2026-02-13,1915338,Lighthouse fishbar,Takeaway/sandwich shop,,14 North Parade,Sale,,M33 3JS,Trafford,AwaitingInspection,,FHRS,False,53.413339,-2.308508,"14 North Parade, Sale, M33 3JS"
2026-02-13,1915342,Peri Pit,Takeaway/sandwich shop,,912 Chester Road,Stretford,Manchester,M32 0PA,Trafford,AwaitingInspection,,FHRS,False,53.453963,-2.299406,"912 Chester Road, Stretford, Manchester, M32 0PA"
2026-02-13,1915470,Dan Fish Bar,Takeaway/sandwich shop,2 Waterhouse Street,Halifax,Calderdale,,HX1 1UQ,Calderdale,AwaitingInspection,,FHRS,False,53.7234642,-1.8615243,"2 Waterhouse Street, Halifax, Calderdale, HX1 1UQ"
2026-02-13,1915471,The Brow Kitchen,Takeaway/sandwich shop,43 Bolton Brow,Sowerby Bridge,Calderdale,,HX6 2AL,Calderdale,AwaitingInspection,,FHRS,False,53.7106427,-1.9027445,"43 Bolton Brow, Sowerby Bridge, Calderdale, HX6 2AL"
2026-02-13,1915298,Domino's Pizza,Takeaway/sandwich shop,53 High Street,Stotfold,Hitchin,Herts,SG5 4LD,Central Bedfordshire,AwaitingInspection,,FHRS,False,52.0140679,-0.2272365,"53 High Street, Stotfold, Hitchin, Herts, SG5 4LD"
2026-02-13,1915366,BON EAST,Takeaway/sandwich shop,,27 Clifton Road,,,,Aberdeen City,Awaiting Inspection,1999-04-01,FHIS,False,57.1679122,-2.1215587,27 Clifton Road
2026-02-13,1915367,DAWN'S PLAICE,Takeaway/sandwich shop,,65-65A Menzies Road Aberdeen,,,AB11 9AS,Aberdeen City,Awaiting Inspection,1999-04-01,FHIS,False,57.1362451,-2.0919653,"65-65A Menzies Road Aberdeen, AB11 9AS"
2026-02-13,242273,CHEE WEI,Takeaway/sandwich shop,,162 Rugby Road,,Leamington Spa,CV32 6DS,Warwick,AwaitingInspection,,FHRS,False,52.292343,-1.549367,"162 Rugby Road, Leamington Spa, CV32 6DS"
2026-02-13,1915281,New Beijing,Takeaway/sandwich shop,107 Poulton Street,,Kirkham,Lancashire,PR4 2AJ,Fylde,5,2026-02-05,FHRS,False,53.7818758,-2.8757835,"107 Poulton Street, Kirkham, Lancashire, PR4 2AJ"
2026-02-13,1915283,No.1Chinese takeaway,Takeaway/sandwich shop,26 Garstang Road South,,Medlar With Wesham,Lancashire,PR4 3BL,Fylde,AwaitingInspection,,FHRS,False,53.788446,-2.8855953,"26 Garstang Road South, Medlar With Wesham, Lancashire, PR4 3BL"
2026-02-13,1915287,The Pantry @ Newton Shop,Takeaway/sandwich shop,Atm Site At Newton Stores Bryning Lane,,Newton With Clifton,Lancashire,PR4 3RN,Fylde,AwaitingInspection,,FHRS,False,,,"Atm Site At Newton Stores Bryning Lane, Newton With Clifton, Lancashire, PR4 3RN"
2026-02-13,1850124,Catch Of The Day,Takeaway/sandwich shop,12A Doverdale Avenue,Kidderminster,Worcestershire,,DY10 3BS,Wyre Forest,2,2025-09-25,FHRS,False,52.3856245,-2.2286491,"12A Doverdale Avenue, Kidderminster, Worcestershire, DY10 3BS"
2026-02-14,1915669,Burgershire and Royal Rasoi Leicester,Takeaway/sandwich shop,Shop,197 Uppingham Road,Leicester,,LE5 4BQ,Leicester City,AwaitingInspection,,FHRS,False,52.6419947,-1.0927943,"Shop, 197 Uppingham Road, Leicester, LE5 4BQ"
2026-02-14,1915646,Homely Bites,Takeaway/sandwich shop,,,,,,Leicester City,AwaitingInspection,,FHRS,False,,,
2026-02-14,1915652,Kerbside Krusty?s,Takeaway/sandwich shop,New Parks Social Club,Battersbee Road,Leicester,,LE3 9LD,Leicester City,AwaitingInspection,,FHRS,False,52.647259,-1.181273,"New Parks Social Club, Battersbee Road, Leicester, LE3 9LD"
2026-02-14,1915667,Little Palace,Takeaway/sandwich shop,Shop,34 Main Street,Evington,Leicester,LE5 6DN,Leicester City,AwaitingInspection,,FHRS,False,52.6213779,-1.0749768,"Shop, 34 Main Street, Evington, Leicester, LE5 6DN"
2026-02-14,1915661,Oak View Group At King Power Stadium (Retail),Takeaway/sandwich shop,King Power Football Stadium,Filbert Way,Leicester,,LE2 7FL,Leicester City,5,2026-01-24,FHRS,False,52.620053,-1.141514,"King Power Football Stadium, Filbert Way, Leicester, LE2 7FL"
2026-02-14,1916144,Farmhouse pizza,Takeaway/sandwich shop,8 Handel Parade Whitchurch Lane,Edgware,,,HA8 6LD,Harrow,AwaitingInspection,,FHRS,False,51.6095245,-0.2809245,"8 Handel Parade Whitchurch Lane, Edgware, HA8 6LD"
2026-02-14,1904542,Street Food Junction,Takeaway/sandwich shop,242A Northolt Road,South Harrow,,,HA2 8DU,Harrow,AwaitingInspection,,FHRS,True,51.5646029,-0.353996,"242A Northolt Road, South Harrow, HA2 8DU"
2026-02-14,816529,Zan Zi Bar,Takeaway/sandwich shop,113 High Street,Edgware,,,HA8 7DB,Harrow,5,2023-03-23,FHRS,False,51.611424,-0.280614,"113 High Street, Edgware, HA8 7DB"
2026-02-14,1915609,Avasarni,Takeaway/sandwich shop,,204 Dumers Lane,Radcliffe,Manchester,M26 2GF,Bury,AwaitingInspection,,FHRS,False,53.5702822,-2.3022642,"204 Dumers Lane, Radcliffe, Manchester, M26 2GF"
2026-02-14,1915611,Brews & Screws,Takeaway/sandwich shop,,203 Bury Old Road,Prestwich,Manchester,M25 1JF,Bury,AwaitingInspection,,FHRS,False,53.5295651,-2.2664472,"203 Bury Old Road, Prestwich, Manchester, M25 1JF"
2026-02-14,1915604,Holcombe Brook Pizzeria,Takeaway/sandwich shop,Holcombe Precinct,10 Longsight Road,Ramsbottom,,BL0 9SH,Bury,AwaitingInspection,,FHRS,True,53.6317775,-2.3338252,"Holcombe Precinct, 10 Longsight Road, Ramsbottom, BL0 9SH"
2026-02-14,1915607,LA PIZZA,Takeaway/sandwich shop,,173 Radcliffe Road,Bury,,BL9 9LN,Bury,AwaitingInspection,,FHRS,False,53.5789127,-2.3066618,"173 Radcliffe Road, Bury, BL9 9LN"
2026-02-14,1915615,Mbakesmcr,Takeaway/sandwich shop,,,,,,Bury,AwaitingInspection,,FHRS,False,,,
2026-02-14,1915613,Noshi Bilal,Takeaway/sandwich shop,,,,,,Bury,AwaitingInspection,,FHRS,False,,,
2026-02-14,1915601,Sasilicious,Takeaway/sandwich shop,,,,,,Bury,AwaitingInspection,,FHRS,False,,,
2026-02-14,1915602,Spicy Chef,Takeaway/sandwich shop,,135 Rochdale Road,Bury,,BL9 7BA,Bury,2,2026-01-19,FHRS,False,53.5930933,-2.2851236,"135 Rochdale Road, Bury, BL9 7BA"
2026-02-14,1915603,The Pottery,Takeaway/sandwich shop,,91-93 Windsor Road,Prestwich,Manchester,M25 0DB,Bury,AwaitingInspection,,FHRS,False,53.5252955,-2.2527502,"91-93 Windsor Road, Prestwich, Manchester, M25 0DB"
