date_added,FHRSID,BusinessName,BusinessType,AddressLine1,AddressLine2,AddressLine3,AddressLine4,PostCode,LocalAuthorityName,RatingValue,RatingDate,SchemeType,NewRatingPending,Latitude,Longitude,AddressSingleLine
2026-01-01,1904400,Spice Boom,Takeaway/sandwich shop,Aniseed,31A High Street,Edenbridge,Kent,TN8 5AD,Sevenoaks,AwaitingInspection,,FHRS,False,51.1975665,0.0653264,"Aniseed, 31A High Street, Edenbridge, Kent, TN8 5AD"
2026-01-01,1904409,Oh My Doh Redditch,Takeaway/sandwich shop,Unit 1,Walford Walk,Kingfisher Shopping Centre,Redditch,B97 4HJ,Redditch,AwaitingInspection,,FHRS,False,52.3050688,-1.9405936,"Unit 1, Walford Walk, Kingfisher Shopping Centre, Redditch, B97 4HJ"
2026-01-01,1904343,M1 Pizza & Grill,Takeaway/sandwich shop,20 Bedford Road,Brogborough,Bedford,,MK43 0XY,Central Bedfordshire,AwaitingInspection,,FHRS,False,52.034056,-0.598573,"20 Bedford Road, Brogborough, Bedford, MK43 0XY"
2026-01-01,1904322,Bite & Bliss,Takeaway/sandwich shop,14 Chapel Street,,Guildford,Surrey,GU1 1UL,Guildford,AwaitingInspection,,FHRS,False,,,"14 Chapel Street, Guildford, Surrey, GU1 1UL"
2026-01-01,1904363,Funky Grill,Takeaway/sandwich shop,3 Wolverhampton Road,Bloxwich,Walsall,West Midlands,WS3 2EY,Walsall,AwaitingInspection,,FHRS,False,52.618244,-2.005303,"3 Wolverhampton Road, Bloxwich, Walsall, West Midlands, WS3 2EY"
2026-01-01,1904372,Shelfield Fish Bar,Takeaway/sandwich shop,77 Lichfield Road,Shelfield,Walsall,West Midlands,WS4 1PU,Walsall,1,2025-11-22,FHRS,False,52.617155,-1.950698,"77 Lichfield Road, Shelfield, Walsall, West Midlands, WS4 1PU"
2026-01-01,1904334,Steak Pizza,Takeaway/sandwich shop,Unit 9,Clifton Parade,Bristol Avenue,Farington,PR25 4YU,South Ribble,AwaitingInspection,,FHRS,False,53.7037633,-2.6800259,"Unit 9, Clifton Parade, Bristol Avenue, Farington, PR25 4YU"
2026-01-01,1904407,Istanbul Kebab And Pizza Ltd / Chigao Pizza,Takeaway/sandwich shop,33 Worcester Road,Bromsgrove,Worcestershire,,B61 7DN,Bromsgrove,AwaitingInspection,,FHRS,False,52.332427,-2.063512,"33 Worcester Road, Bromsgrove, Worcestershire, B61 7DN"
2026-01-01,1904422,Halal Fast Food,Takeaway/sandwich shop,4 Northfield Parade,Station Road,,Hayes,UB3 4JA,Hillingdon,AwaitingInspection,,FHRS,False,51.5009968,-0.4237903,"4 Northfield Parade, Station Road, Hayes, UB3 4JA"
2026-01-01,1904399,New Jade Palace,Takeaway/sandwich shop,8 Bridge Road,Southampton,,,SO19 7GQ,Southampton,AwaitingInspection,,FHRS,False,50.901392,-1.376553,"8 Bridge Road, Southampton, SO19 7GQ"
2026-01-01,1904432,LAWIN Kitchen,Takeaway/sandwich shop,314-316 High Street,Enfield,,,EN3 4HF,Enfield,AwaitingInspection,,FHRS,False,51.6480273,-0.0467586,"314-316 High Street, Enfield, EN3 4HF"
2026-01-01,907342,Leo's Coffee Stop @platform 1,Takeaway/sandwich shop,Enfield Chase Station,Windmill Hill,ENFIELD,,EN2 7AA,Enfield,5,2019-05-30,FHRS,False,51.653259,-0.091027,"Enfield Chase Station, Windmill Hill, ENFIELD, EN2 7AA"
2026-01-01,1904441,Swahili Kob Unit B2,Takeaway/sandwich shop,Commercial Premises,Eleys Industrial Estate,Nobel Road,Edmonton,N18 3BH,Enfield,AwaitingInspection,,FHRS,False,51.6206987,-0.0435275,"Commercial Premises, Eleys Industrial Estate, Nobel Road, Edmonton, N18 3BH"
2026-01-01,1904357,Antep27 Ltd,Takeaway/sandwich shop,128 High Street,,Hungerford,West Berkshire,RG17 0DL,West Berkshire,AwaitingInspection,,FHRS,False,51.4160857,-1.5146174,"128 High Street, Hungerford, West Berkshire, RG17 0DL"
2026-01-01,1904416,Souvlaki Place,Takeaway/sandwich shop,1A Belmont Road,Wallington,,,SM6 8TE,Sutton,AwaitingInspection,,FHRS,False,51.3619824,-0.1502835,"1A Belmont Road, Wallington, SM6 8TE"
2026-01-01,1904298,Leeds Top Pizza,Takeaway/sandwich shop,244 Roundhay Road,Leeds,,,LS8 5RL,Leeds,AwaitingInspection,,FHRS,False,53.817073,-1.5164,"244 Roundhay Road, Leeds, LS8 5RL"
2026-01-01,1904310,Sweet Street Leeds,Takeaway/sandwich shop,Unit 21,Unity Business Centre,26 Roundhay Road,Leeds,LS7 1AB,Leeds,AwaitingInspection,,FHRS,False,53.8086124,-1.5320819,"Unit 21, Unity Business Centre, 26 Roundhay Road, Leeds, LS7 1AB"
2026-01-01,1904404,Punjabi Kitchen,Takeaway/sandwich shop,12 Gilbert Road,Belvedere,Kent,,DA17 5DA,Bexley,AwaitingInspection,,FHRS,False,51.491457,0.146624,"12 Gilbert Road, Belvedere, Kent, DA17 5DA"
2026-01-03,1904477,Usta Pizza And Charcoal Grill,Takeaway/sandwich shop,111 High Street,Milton Regis,Sittingbourne,Kent,ME10 2AR,Swale,5,2025-12-18,FHRS,False,51.349203,0.732172,"111 High Street, Milton Regis, Sittingbourne, Kent, ME10 2AR"
2026-01-03,1904523,Grandad's Kitchen Ltd,Takeaway/sandwich shop,100 Abbey Street,Accrington,Lancashire,,BB5 1EE,Hyndburn,AwaitingInspection,,FHRS,False,53.7510411,-2.3613563,"100 Abbey Street, Accrington, Lancashire, BB5 1EE"
2026-01-03,1904520,Spice and Fire,Takeaway/sandwich shop,50 Whalley Road,Accrington,Lancashire,,BB5 1AR,Hyndburn,AwaitingInspection,,FHRS,False,53.7554251,-2.3640991,"50 Whalley Road, Accrington, Lancashire, BB5 1AR"
2026-01-03,1904543,Gupshup,Takeaway/sandwich shop,,,,,,Harrow,AwaitingInspection,,FHRS,False,,,
2026-01-03,1904542,Street Food Junction,Takeaway/sandwich shop,242A Northolt Road,Harrow,,,HA2 8DU,Harrow,AwaitingInspection,,FHRS,False,51.5646029,-0.353996,"242A Northolt Road, Harrow, HA2 8DU"
2026-01-03,1904548,Syria food,Takeaway/sandwich shop,Unit 36 South Harrow Market Northolt Road,Harrow,,,HA2 0EU,Harrow,AwaitingInspection,,FHRS,False,51.5651016,-0.3530113,"Unit 36 South Harrow Market Northolt Road, Harrow, HA2 0EU"
2026-01-03,1564135,Velo Bakery And Pizza,Takeaway/sandwich shop,London Road Garage,London Road,Thrupp,Stroud,GL5 2BN,Stroud,4,2025-11-28,FHRS,False,51.7249712,-2.1993496,"London Road Garage, London Road, Thrupp, Stroud, GL5 2BN"
2026-01-03,1904493,Papudom 4U,Takeaway/sandwich shop,39 Aldergate,,,Tamworth,B79 7DD,Tamworth,AwaitingInspection,,FHRS,False,52.634524,-1.697035,"39 Aldergate, Tamworth, B79 7DD"
2026-01-03,1401267,Andover Kebab And Pizza House,Takeaway/sandwich shop,39 London Street,Andover,Hampshire,,SP10 2NU,Test Valley,3,2024-06-28,FHRS,False,51.206365,-1.477629,"39 London Street, Andover, Hampshire, SP10 2NU"
2026-01-03,1904606,TBC,Takeaway/sandwich shop,Lansdales House,Lansdales Road,High Wycombe,Buckinghamshire,HP11 2PB,Buckinghamshire,AwaitingInspection,,FHRS,False,51.6319883,-0.7614777,"Lansdales House, Lansdales Road, High Wycombe, Buckinghamshire, HP11 2PB"
2026-01-03,1904505,My-Style,Takeaway/sandwich shop,,,,,,Reigate and Banstead,AwaitingInspection,,FHRS,False,,,
2026-01-03,1904526,D Flame & Grill,Takeaway/sandwich shop,,134 Bradshawgate,Bolton,,BL2 1AY,Bolton,AwaitingInspection,,FHRS,False,53.576344,-2.425756,"134 Bradshawgate, Bolton, BL2 1AY"
2026-01-03,1904484,Athena B Fish And Chips,Takeaway/sandwich shop,27 Station Road,Portslade,,,BN41 1GB,Brighton and Hove,AwaitingInspection,,FHRS,False,50.833752,-0.207325,"27 Station Road, Portslade, BN41 1GB"
2026-01-03,1904482,Fuel Kitchen,Takeaway/sandwich shop,2 The Parade,Valley Drive,Brighton,,BN1 5FQ,Brighton and Hove,AwaitingInspection,,FHRS,False,50.856617,-0.168782,"2 The Parade, Valley Drive, Brighton, BN1 5FQ"
2026-01-03,1904592,A1 Spice,Takeaway/sandwich shop,Unit 3 Genoa Building,20 North Street,,Barking,IG11 8AW,Barking and Dagenham,AwaitingInspection,,FHRS,False,51.5368661,0.0766505,"Unit 3 Genoa Building, 20 North Street, Barking, IG11 8AW"
2026-01-03,1904584,Punjabi Cooking Studio LTD,Takeaway/sandwich shop,,Unit 6a Barking Business Centre,,Thames Road,IG11 0JP,Barking and Dagenham,AwaitingInspection,,FHRS,False,51.5253705,0.1048944,"Unit 6a Barking Business Centre, Thames Road, IG11 0JP"
2026-01-03,1904564,Golden Sunrise,Takeaway/sandwich shop,137 Mount Road,Wallasey,Wirral,,CH45 9JS,Wirral,AwaitingInspection,,FHRS,True,53.4347047,-3.0534464,"137 Mount Road, Wallasey, Wirral, CH45 9JS"
2026-01-05,1904612,Moonhouse,Takeaway/sandwich shop,56 Woodgrange Road,Forest Gate,London,,E7 0QH,Newham,AwaitingInspection,,FHRS,False,51.548599,0.02514,"56 Woodgrange Road, Forest Gate, London, E7 0QH"
2026-01-06,1904728,Sawston Pizza,Takeaway/sandwich shop,56 High Street,,Sawston,Cambridgeshire,CB22 3BG,South Cambridgeshire,AwaitingInspection,,FHRS,False,52.1223162,0.1697525,"56 High Street, Sawston, Cambridgeshire, CB22 3BG"
2026-01-06,1904643,India2cardiff,Takeaway/sandwich shop,58 Clearwater Way,Cyncoed,Cardiff,,CF23 6DJ,Caerdydd,AwaitingInspection,,FHRS,False,51.5145921,-3.1693104,"58 Clearwater Way, Cyncoed, Cardiff, CF23 6DJ"
2026-01-06,1904646,ORIENT EXPRESS,Takeaway/sandwich shop,18 Mackintosh Place,Roath,Cardiff,,CF24 4RQ,Caerdydd,AwaitingInspection,,FHRS,False,51.4930228,-3.1717685,"18 Mackintosh Place, Roath, Cardiff, CF24 4RQ"
2026-01-06,1904833,Cache At Home,Takeaway/sandwich shop,Business,256 - 258 Brixton Road,London,,SW9 6AQ,Lambeth,AwaitingInspection,,FHRS,False,51.4711026,-0.112972,"Business, 256 - 258 Brixton Road, London, SW9 6AQ"
2026-01-06,1899519,Mr Prep,Takeaway/sandwich shop,Unit 4,Hunt End Industrial Estate,Dunlop Road,Redditch,B97 5XP,Redditch,AwaitingInspection,,FHRS,False,52.2750367,-1.9511575,"Unit 4, Hunt End Industrial Estate, Dunlop Road, Redditch, B97 5XP"
2026-01-06,1904713,Subway,Takeaway/sandwich shop,SUBWAY,11 Bishop Hall Lane,Chelmsford,,CM1 1SH,Chelmsford,AwaitingInspection,,FHRS,False,51.7412292,0.4730923,"SUBWAY, 11 Bishop Hall Lane, Chelmsford, CM1 1SH"
2026-01-06,1904844,Munch N Go,Takeaway/sandwich shop,50A Moathouse Lane East,Wolverhampton,West Midlands,,WV11 3DD,Wolverhampton,AwaitingInspection,,FHRS,False,52.6081776,-2.0731065,"50A Moathouse Lane East, Wolverhampton, West Midlands, WV11 3DD"
2026-01-06,1904643,India2cardiff,Takeaway/sandwich shop,58 Clearwater Way,Cyncoed,Cardiff,,CF23 6DJ,Cardiff,AwaitingInspection,,FHRS,False,51.5145921,-3.1693104,"58 Clearwater Way, Cyncoed, Cardiff, CF23 6DJ"
2026-01-06,1904646,ORIENT EXPRESS,Takeaway/sandwich shop,18 Mackintosh Place,Roath,Cardiff,,CF24 4RQ,Cardiff,AwaitingInspection,,FHRS,False,51.4930228,-3.1717685,"18 Mackintosh Place, Roath, Cardiff, CF24 4RQ"
2026-01-06,1337730,Boss Pizza,Takeaway/sandwich shop,,54 Kilbowie Road,Clydebank,,G81 1TH,West Dunbartonshire,Awaiting Inspection,2025-02-03,FHIS,False,55.9012687,-4.4053813,"54 Kilbowie Road, Clydebank, G81 1TH"
2026-01-06,1904764,Pixi's Caribbean,Takeaway/sandwich shop,,109 Bridge Street,,,WA1 2HR,Warrington,AwaitingInspection,,FHRS,False,53.3869123,-2.591938,"109 Bridge Street, WA1 2HR"
2026-01-06,1904825,Bertie's Shirts,Takeaway/sandwich shop,,10 Wellington Street,Gateshead,,NE8 2AJ,Gateshead,AwaitingInspection,,FHRS,False,54.9654027,-1.6061019,"10 Wellington Street, Gateshead, NE8 2AJ"
2026-01-06,1904824,Chippy Chappy,Takeaway/sandwich shop,,7,Kingsway North,Team Valley,NE11 0EN,Gateshead,AwaitingInspection,,FHRS,False,,,"7, Kingsway North, Team Valley, NE11 0EN"
2026-01-06,1904827,Dr Drinks,Takeaway/sandwich shop,,,Metro Centre,Whickham,NE11 9YZ,Gateshead,AwaitingInspection,,FHRS,False,54.958263,-1.6667191,"Metro Centre, Whickham, NE11 9YZ"
2026-01-06,1904829,P Dragon,Takeaway/sandwich shop,,Unit 3 Whickham Industrial Estate,Swalwell,Whickham,NE16 3DA,Gateshead,AwaitingInspection,,FHRS,False,54.9523277282715,-1.68808698654175,"Unit 3 Whickham Industrial Estate, Swalwell, Whickham, NE16 3DA"
2026-01-06,1904810,Kims Bulgogi,Takeaway/sandwich shop,11 St Stephen Street,Edinburgh,,,EH3 5AN,Edinburgh (City of),Awaiting Inspection,2026-01-05,FHIS,False,55.957658,-3.207436,"11 St Stephen Street, Edinburgh, EH3 5AN"
2026-01-06,1904800,Shawarma Al Sultan,Takeaway/sandwich shop,79 Dalry Road,Edinburgh,,,EH11 2AA,Edinburgh (City of),Awaiting Inspection,2025-12-23,FHIS,False,55.943855,-3.218487,"79 Dalry Road, Edinburgh, EH11 2AA"
2026-01-06,1904834,Mac Flames Macclesfield,Takeaway/sandwich shop,55 Sunderland Street,Macclesfield,,Cheshire,SK11 6HN,Cheshire East,AwaitingInspection,,FHRS,False,53.2572983,-2.1227552,"55 Sunderland Street, Macclesfield, Cheshire, SK11 6HN"
2026-01-06,1904719,Hungry Hub,Takeaway/sandwich shop,55 Upper High Street,Epsom,Surrey,,KT17 4RA,Epsom and Ewell,AwaitingInspection,,FHRS,False,51.334622,-0.26123,"55 Upper High Street, Epsom, Surrey, KT17 4RA"
2026-01-06,1904717,Siva Chicken Shop,Takeaway/sandwich shop,Sandies Flowers,27 Pound Lane,Epsom,Surrey,KT19 8RY,Epsom and Ewell,AwaitingInspection,,FHRS,False,51.3401556,-0.2688517,"Sandies Flowers, 27 Pound Lane, Epsom, Surrey, KT19 8RY"
2026-01-06,1904662,Charcoal Kitchen,Takeaway/sandwich shop,Unit A 9 Mount Avenue,Bletchley,Milton Keynes,,MK1 1LS,Milton Keynes,AwaitingInspection,,FHRS,False,,,"Unit A 9 Mount Avenue, Bletchley, Milton Keynes, MK1 1LS"
2026-01-06,1904674,Chilli chilli chilli limited,Takeaway/sandwich shop,Borough Market,8,Southwark Street,London,SE1 1TL,Southwark,AwaitingInspection,,FHRS,False,51.505093,-0.090093,"Borough Market, 8, Southwark Street, London, SE1 1TL"
2026-01-06,1904671,La tua pasta ltd,Takeaway/sandwich shop,Borough Market,8,Southwark Street,London,SE1 1TL,Southwark,AwaitingInspection,,FHRS,False,51.505093,-0.090093,"Borough Market, 8, Southwark Street, London, SE1 1TL"
2026-01-06,1904664,Patty bros,Takeaway/sandwich shop,4 At Unit 10 The Aylesham Centre,,Rye Lane,London,SE15 5EW,Southwark,AwaitingInspection,,FHRS,False,51.4723656,-0.0694128,"4 At Unit 10 The Aylesham Centre, Rye Lane, London, SE15 5EW"
2026-01-06,1904669,Royal mahal,Takeaway/sandwich shop,,145,Ormside Street,,SE15 1TF,Southwark,AwaitingInspection,,FHRS,False,51.4838768,-0.0560141,"145, Ormside Street, SE15 1TF"
2026-01-06,1904670,The cinnamon tree bakery,Takeaway/sandwich shop,Green Market Borough Market,8,Southwark Street,London,SE1 9AL,Southwark,AwaitingInspection,,FHRS,False,51.505428,-0.090252,"Green Market Borough Market, 8, Southwark Street, London, SE1 9AL"
2026-01-06,1615219,The merge,Takeaway/sandwich shop,Arches 247a And 248,1-9,Pelier Street,London,SE17 3JG,Southwark,3,2025-09-11,FHRS,False,51.4840717,-0.0958303,"Arches 247a And 248, 1-9, Pelier Street, London, SE17 3JG"
2026-01-06,1904679,Hastings Spice,Takeaway/sandwich shop,51 Bohemia Road,St Leonards-on-sea,East Sussex,,TN37 6RE,Hastings,AwaitingInspection,,FHRS,False,50.863421,0.559057,"51 Bohemia Road, St Leonards-on-sea, East Sussex, TN37 6RE"
2026-01-06,1904629,Gills Silverlink Ltd,Takeaway/sandwich shop,12B New York Way,New York Industrial Park,North Shields,Tyne And Wear,NE27 0QF,North Tyneside,5,2025-12-17,FHRS,False,55.0209259,-1.4929698,"12B New York Way, New York Industrial Park, North Shields, Tyne And Wear, NE27 0QF"
2026-01-06,1904628,Souvlaki Time,Takeaway/sandwich shop,2B Duke Street,Whitley Bay,Tyne And Wear,,NE26 3PP,North Tyneside,AwaitingInspection,,FHRS,True,55.043432,-1.451968,"2B Duke Street, Whitley Bay, Tyne And Wear, NE26 3PP"
2026-01-06,1904815,Smash City,Takeaway/sandwich shop,,217 Bobbers Mill Road,,Nottingham,NG7 5JP,Nottingham City,AwaitingInspection,,FHRS,False,52.965246,-1.179151,"217 Bobbers Mill Road, Nottingham, NG7 5JP"
2026-01-06,1742715,Subway,Takeaway/sandwich shop,67 Western Road,Brighton,,,BN1 2HA,Brighton and Hove,5,2024-10-25,FHRS,False,50.824135,-0.149564,"67 Western Road, Brighton, BN1 2HA"
2026-01-06,1904811,Copper Kadai,Takeaway/sandwich shop,3 Neeld Parade,Wembley Hill Road,Wembley,,HA9 6QU,Brent,5,2025-12-03,FHRS,False,51.5534997,-0.2862828,"3 Neeld Parade, Wembley Hill Road, Wembley, HA9 6QU"
2026-01-06,1851247,Milano Pizzeria,Takeaway/sandwich shop,Milano Pizzeria 13 Millgate,,,THIRSK,YO7 1AA,North Yorkshire,1,2025-10-29,FHRS,False,54.2335887,-1.3422771,"Milano Pizzeria 13 Millgate, THIRSK, YO7 1AA"
2026-01-06,1904639,Hooked Fish & Chips,Takeaway/sandwich shop,166 Rhuddlan Road,,Rhyl,,LL18 2RF,Denbighshire,AwaitingInspection,,FHRS,False,53.3064925,-3.4686699,"166 Rhuddlan Road, Rhyl, LL18 2RF"
2026-01-06,1699962,Mr. Hot Wings,Takeaway/sandwich shop,178 Upper Wickham Lane,Welling,Kent,,DA16 3EB,Bexley,3,2025-12-08,FHRS,False,51.4684600830078,0.110067002475262,"178 Upper Wickham Lane, Welling, Kent, DA16 3EB"
2026-01-06,1904639,Hooked Fish & Chips,Takeaway/sandwich shop,166 Rhuddlan Road,,Rhyl,,LL18 2RF,Sir Ddinbych,AwaitingInspection,,FHRS,False,53.3064925,-3.4686699,"166 Rhuddlan Road, Rhyl, LL18 2RF"
2026-01-06,1904773,Bamboo Kitchen,Takeaway/sandwich shop,24 Wellington Road,Oxton,Wirral,,CH43 2JE,Wirral,2,2025-10-30,FHRS,False,53.3836608,-3.0521611,"24 Wellington Road, Oxton, Wirral, CH43 2JE"
2026-01-07,1905101,Merrie England,Takeaway/sandwich shop,Bus Station,Wade Street,Halifax,Calderdale,HX1 1SN,Calderdale,AwaitingInspection,,FHRS,False,53.724665,-1.8584893,"Bus Station, Wade Street, Halifax, Calderdale, HX1 1SN"
2026-01-07,1904879,Lahori Nashta&takeaway,Takeaway/sandwich shop,Lahori Nashta and Takeaway,10B Union Street,Heckmondwike,,WF16 0HH,Kirklees,AwaitingInspection,,FHRS,False,53.7073647,-1.6779675,"Lahori Nashta and Takeaway, 10B Union Street, Heckmondwike, WF16 0HH"
2026-01-07,1904983,BOMBAY PIZZA,Takeaway/sandwich shop,Unit M209 Hawley Wharf,Water Lane,,London,NW1 8JZ,Camden,AwaitingInspection,,FHRS,False,51.541834,-0.1439796,"Unit M209 Hawley Wharf, Water Lane, London, NW1 8JZ"
2026-01-07,1904971,FLIP & ROLL,Takeaway/sandwich shop,,29 Endell Street,,London,WC2H 9BA,Camden,AwaitingInspection,,FHRS,False,51.5144564,-0.1247432,"29 Endell Street, London, WC2H 9BA"
2026-01-07,1904994,Grounded Burger Smash & Flame,Takeaway/sandwich shop,,11 Kentish Town Road,,London,NW1 8NH,Camden,AwaitingInspection,,FHRS,False,51.5397033,-0.1425385,"11 Kentish Town Road, London, NW1 8NH"
2026-01-07,1904972,Palestine House,Takeaway/sandwich shop,Palestine House,113 High Holborn,,London,WC1V 6JQ,Camden,AwaitingInspection,,FHRS,False,51.5178578,-0.1198181,"Palestine House, 113 High Holborn, London, WC1V 6JQ"
2026-01-07,1904992,POPULUS TEA,Takeaway/sandwich shop,,,,,,Camden,AwaitingInspection,,FHRS,False,,,
2026-01-07,1904951,Shepherds Chicken And Pizza,Takeaway/sandwich shop,36 Shepherds Lane,Dartford,Kent,,DA1 2NY,Dartford,AwaitingInspection,,FHRS,False,51.443914,0.200331,"36 Shepherds Lane, Dartford, Kent, DA1 2NY"
2026-01-07,1904944,The Hutch,Takeaway/sandwich shop,35 - 37 Eastern Esplanade,Canvey Island,Essex,,SS8 7DN,Castle Point,AwaitingInspection,,FHRS,False,51.512844,0.597704,"35 - 37 Eastern Esplanade, Canvey Island, Essex, SS8 7DN"
2026-01-07,1905040,Ali's Takeway,Takeaway/sandwich shop,27 Central Drive,,Spennymoor,United Kingdom,DL16 7DJ,Durham,AwaitingInspection,,FHRS,False,54.6893118,-1.6156683,"27 Central Drive, Spennymoor, United Kingdom, DL16 7DJ"
2026-01-07,1889577,Belmont Tandoori,Takeaway/sandwich shop,16 CHEVELEY PARK SHOPPING CENTRE,,BELMONT,,DH1 2AA,Durham,4,2025-10-16,FHRS,False,54.7857037,-1.5247869,"16 CHEVELEY PARK SHOPPING CENTRE, BELMONT, DH1 2AA"
2026-01-07,1905021,Best Kebab,Takeaway/sandwich shop,4 SOUTH STREET,,CROOK,,DL15 8NE,Durham,AwaitingInspection,,FHRS,False,54.7144819,-1.7452283,"4 SOUTH STREET, CROOK, DL15 8NE"
2026-01-07,696339,CHEEZY PIZZA,Takeaway/sandwich shop,8 HAIG TERRACE,DEAN BANK,FERRYHILL,,DL17 8NR,Durham,5,2025-12-16,FHRS,False,54.6873644,-1.56335,"8 HAIG TERRACE, DEAN BANK, FERRYHILL, DL17 8NR"
2026-01-07,1905034,Gilesgate tandoori,Takeaway/sandwich shop,39 MARSHALL TERRACE,,GILESGATE,,DH1 2HX,Durham,AwaitingInspection,,FHRS,False,54.7802346,-1.5457982,"39 MARSHALL TERRACE, GILESGATE, DH1 2HX"
2026-01-07,1905022,Lisa Buffet,Takeaway/sandwich shop,28 WOODLANDS AVENUE,,WHEATLEY HILL,,DH6 3LG,Durham,AwaitingInspection,,FHRS,False,54.7410984,-1.4162857,"28 WOODLANDS AVENUE, WHEATLEY HILL, DH6 3LG"
2026-01-07,1905037,LUCKY 8 Chinese Takeaway,Takeaway/sandwich shop,5 COWLEY STREET,,SHOTTON COLLIERY,,DH6 2LP,Durham,AwaitingInspection,,FHRS,False,54.7617744,-1.3866129,"5 COWLEY STREET, SHOTTON COLLIERY, DH6 2LP"
2026-01-07,1905011,Lumley Pizza,Takeaway/sandwich shop,UNIT 5A CASTLE PARADE FRONT STREET,,GREAT LUMLEY,,DH3 4JB,Durham,AwaitingInspection,,FHRS,True,54.8364921,-1.5477327,"UNIT 5A CASTLE PARADE FRONT STREET, GREAT LUMLEY, DH3 4JB"
2026-01-07,1905038,new century,Takeaway/sandwich shop,87 DURHAM ROAD,,BLACKHILL,,DH8 8RR,Durham,AwaitingInspection,,FHRS,False,54.8611347,-1.8495218,"87 DURHAM ROAD, BLACKHILL, DH8 8RR"
2026-01-07,1905023,Pizza Time,Takeaway/sandwich shop,1 DARLINGTON ROAD,,FERRYHILL,,DL17 8JP,Durham,AwaitingInspection,,FHRS,False,54.688261,-1.5578025,"1 DARLINGTON ROAD, FERRYHILL, DL17 8JP"
2026-01-07,1905039,Pizza Villa,Takeaway/sandwich shop,DANBY HOUSE THE VILLAS,,THORNLEY,,DH6 3EU,Durham,AwaitingInspection,,FHRS,False,54.7498341,-1.4395115,"DANBY HOUSE THE VILLAS, THORNLEY, DH6 3EU"
2026-01-07,1682978,Speedy Pepper,Takeaway/sandwich shop,64 FORE BONDGATE,,BISHOP AUCKLAND,,DL14 7PE,Durham,5,2025-10-14,FHRS,False,54.6655002,-1.6752412,"64 FORE BONDGATE, BISHOP AUCKLAND, DL14 7PE"
2026-01-07,1905027,The Chatterbox Sandwich Shop,Takeaway/sandwich shop,75 FRONT STREET,,COCKFIELD,,DL13 5DJ,Durham,AwaitingInspection,,FHRS,False,54.6130886,-1.8051768,"75 FRONT STREET, COCKFIELD, DL13 5DJ"
2026-01-07,1905043,The Coffee & Co.,Takeaway/sandwich shop,22 PENSHAW VIEW,,SACRISTON,,DH7 6UX,Durham,AwaitingInspection,,FHRS,False,54.8158889,-1.6191075,"22 PENSHAW VIEW, SACRISTON, DH7 6UX"
2026-01-07,1905019,Tindale Deli,Takeaway/sandwich shop,WORKING MENS CLUB AND INSTITUTE TINDALE CRESCENT,,BISHOP AUCKLAND,,DL14 9SS,Durham,5,2025-12-18,FHRS,False,,,"WORKING MENS CLUB AND INSTITUTE TINDALE CRESCENT, BISHOP AUCKLAND, DL14 9SS"
2026-01-07,1905146,Empanading,Takeaway/sandwich shop,within Mokka,2-6 Southway,Eccles,,M30 0LJ,Salford,AwaitingInspection,,FHRS,False,53.4831001,-2.337509,"within Mokka, 2-6 Southway, Eccles, M30 0LJ"
2026-01-07,1901104,Jade Palace,Takeaway/sandwich shop,1 Victoria Road,Roche,St Austell,Cornwall,PL26 8JF,Cornwall,4,2025-12-08,FHRS,False,50.408541,-4.832596,"1 Victoria Road, Roche, St Austell, Cornwall, PL26 8JF"
2026-01-07,1905144,Grill Cartel Acton,Takeaway/sandwich shop,Blue Star Hotel,51 - 53 Steyne Road,Acton,,W3 9NU,Ealing,AwaitingInspection,,FHRS,False,51.5093754,-0.272304,"Blue Star Hotel, 51 - 53 Steyne Road, Acton, W3 9NU"
2026-01-07,1904908,KALAVARA- kerala Home Kitchen,Takeaway/sandwich shop,,,,,,South Oxfordshire,AwaitingInspection,,FHRS,False,,,
2026-01-07,1905068,Bens fire and feast,Takeaway/sandwich shop,,112 Birley Spa Lane,Sheffield,,S12 4EJ,Sheffield,AwaitingInspection,,FHRS,False,53.347159,-1.378082,"112 Birley Spa Lane, Sheffield, S12 4EJ"
2026-01-07,1905069,Burritos y mas,Takeaway/sandwich shop,,663 Chesterfield Road,Sheffield,,S8 0RY,Sheffield,AwaitingInspection,,FHRS,False,53.3453219,-1.4782555,"663 Chesterfield Road, Sheffield, S8 0RY"
2026-01-07,1905067,Grab n Go,Takeaway/sandwich shop,,St. Marys Gate,Sheffield,,S2 4QA,Sheffield,AwaitingInspection,,FHRS,False,,,"St. Marys Gate, Sheffield, S2 4QA"
2026-01-07,1904871,Bengal Munchies,Takeaway/sandwich shop,3 Dalelands West,,Market Drayton,Shropshire,TF9 1DG,Shropshire,AwaitingInspection,,FHRS,True,52.8971523,-2.4970476,"3 Dalelands West, Market Drayton, Shropshire, TF9 1DG"
2026-01-07,1904853,Ikki Street Food,Takeaway/sandwich shop,Middlesex Street Market,Middlesex Street,London,,E1,Tower Hamlets,AwaitingInspection,,FHRS,False,51.518026,-0.057244,"Middlesex Street Market, Middlesex Street, London, E1"
2026-01-07,1905165,Anfield Grill and Pizza House,Takeaway/sandwich shop,116 Breckfield Road North,,Liverpool,,L5 4QZ,Liverpool,AwaitingInspection,,FHRS,False,53.425304,-2.9640973,"116 Breckfield Road North, Liverpool, L5 4QZ"
2026-01-07,1905160,Azeez Sweets,Takeaway/sandwich shop,46K Kiosk Lodge Lane,,Liverpool,,L8 0QL,Liverpool,AwaitingInspection,,FHRS,False,53.3963416,-2.94988,"46K Kiosk Lodge Lane, Liverpool, L8 0QL"
2026-01-07,1905167,Jumbo's,Takeaway/sandwich shop,204 Greenhill Road,,Liverpool,,L18 7HW,Liverpool,AwaitingInspection,,FHRS,False,53.3704551,-2.9017917,"204 Greenhill Road, Liverpool, L18 7HW"
2026-01-07,1905166,Lucky Star,Takeaway/sandwich shop,163 Walton Road,,Liverpool,,L4 4AH,Liverpool,AwaitingInspection,,FHRS,False,53.4355251,-2.9728485,"163 Walton Road, Liverpool, L4 4AH"
2026-01-07,1905163,Naples Pizza,Takeaway/sandwich shop,331 Aigburth Road,,Liverpool,,L17 0BL,Liverpool,AwaitingInspection,,FHRS,False,53.3723966,-2.933397,"331 Aigburth Road, Liverpool, L17 0BL"
2026-01-07,1905164,Papa Nicolo's,Takeaway/sandwich shop,166 Warbreck Moor,,Liverpool,,L9 0HZ,Liverpool,AwaitingInspection,,FHRS,False,53.4701102,-2.9554704,"166 Warbreck Moor, Liverpool, L9 0HZ"
2026-01-07,1905158,Preferred pizza,Takeaway/sandwich shop,69 Lisburn Lane,,Liverpool,,L13 9AF,Liverpool,AwaitingInspection,,FHRS,False,53.4279845,-2.9310023,"69 Lisburn Lane, Liverpool, L13 9AF"
2026-01-07,1905150,FLAMING GRILL,Takeaway/sandwich shop,,72 High Street,Talke,Kidsgrove,ST7 1PY,Newcastle-Under-Lyme,0,2025-11-06,FHRS,False,53.0713078,-2.2602515,"72 High Street, Talke, Kidsgrove, ST7 1PY"
2026-01-07,1905148,FRYDAYS,Takeaway/sandwich shop,,24 Lower Ash Road,Kidsgrove,Staffordshire,ST7 1DF,Newcastle-Under-Lyme,AwaitingInspection,,FHRS,False,53.082969,-2.252961,"24 Lower Ash Road, Kidsgrove, Staffordshire, ST7 1DF"
2026-01-08,1905254,Manor Kebab and Pizza,Takeaway/sandwich shop,155 Manor Road,Chigwell,Essex,,IG7 5QA,Epping Forest,AwaitingInspection,,FHRS,True,51.6127334,0.0900515,"155 Manor Road, Chigwell, Essex, IG7 5QA"
2026-01-08,1905251,Yo! To Go!,Takeaway/sandwich shop,77-79 High Street,Epping,Essex,,CM16 4BA,Epping Forest,5,2026-01-06,FHRS,False,51.696566,0.107276,"77-79 High Street, Epping, Essex, CM16 4BA"
2026-01-08,1905299,Greggs PLC,Takeaway/sandwich shop,23 The Hyde,Stevenage,Herts,,SG2 9SD,Stevenage,AwaitingInspection,,FHRS,False,51.892537,-0.169396,"23 The Hyde, Stevenage, Herts, SG2 9SD"
2026-01-08,1905262,Mias,Takeaway/sandwich shop,Cafe Shimla,56 - 58 Burghley Drive,Corby,,,North Northamptonshire,AwaitingInspection,,FHRS,False,52.4817536,-0.6951313,"Cafe Shimla, 56 - 58 Burghley Drive, Corby"
2026-01-08,1905255,Pizza Bono,Takeaway/sandwich shop,,184 SUTCLIFFE AVENUE,,Grimsby,DN33 1HA,North East Lincolnshire,AwaitingInspection,,FHRS,False,53.5483036,-0.1084871,"184 SUTCLIFFE AVENUE, Grimsby, DN33 1HA"
2026-01-08,1905214,Chipstable Coffee Co,Takeaway/sandwich shop,,,,,,Somerset,AwaitingInspection,,FHRS,False,,,
2026-01-08,1905264,Tick Tock Takeaway,Takeaway/sandwich shop,Moorlynch Vineyard,Spring Lane,Moorlinch,,TA7 9DD,Somerset,AwaitingInspection,,FHRS,False,51.1279831,-2.8585992,"Moorlynch Vineyard, Spring Lane, Moorlinch, TA7 9DD"
2026-01-08,1905326,BLISSÈ,Takeaway/sandwich shop,6 Station Avenue,,,Coventry,CV4 9HS,Coventry,AwaitingInspection,,FHRS,False,52.4005437,-1.595555,"6 Station Avenue, Coventry, CV4 9HS"
2026-01-08,1905324,Nutifafa kitchen,Takeaway/sandwich shop,31 Barras Green,,,Coventry,CV2 4LY,Coventry,AwaitingInspection,,FHRS,False,52.4156732,-1.4833847,"31 Barras Green, Coventry, CV2 4LY"
2026-01-08,1905315,Sultani Biryani and Samosa,Takeaway/sandwich shop,,,,,,Coventry,AwaitingInspection,,FHRS,False,,,
2026-01-08,1905192,Pizza gogo,Takeaway/sandwich shop,,118 High Street,,Yiewsley,UB7 7BB,Hillingdon,AwaitingInspection,,FHRS,False,51.513642,-0.472919,"118 High Street, Yiewsley, UB7 7BB"
2026-01-08,1897169,Le Snack,Takeaway/sandwich shop,4 Foundry Street,Wadebridge,Cornwall,,PL27 7NW,Cornwall,5,2026-01-06,FHRS,False,50.516028,-4.837209,"4 Foundry Street, Wadebridge, Cornwall, PL27 7NW"
2026-01-08,1905279,Moti Bite,Takeaway/sandwich shop,Unit 16c Estate 92,Barkerend Road,Bradford,,BD3 9BA,Bradford,AwaitingInspection,,FHRS,False,,,"Unit 16c Estate 92, Barkerend Road, Bradford, BD3 9BA"
2026-01-08,324803,Shake Street,Takeaway/sandwich shop,,4 Whitby Road,Bradford,,BD8 9JW,Bradford,AwaitingInspection,,FHRS,False,53.805272,-1.785256,"4 Whitby Road, Bradford, BD8 9JW"
2026-01-08,1905268,Vape Dawg,Takeaway/sandwich shop,,737-739 Little Horton Lane,Bradford,,BD5 9EH,Bradford,AwaitingInspection,,FHRS,False,53.7759971,-1.7718726,"737-739 Little Horton Lane, Bradford, BD5 9EH"
2026-01-08,90361,Bliss Kitchen,Takeaway/sandwich shop,,106 Yorkshire Street,Oldham,,OL1 1ST,Oldham,AwaitingInspection,,FHRS,False,53.5420617,-2.106299,"106 Yorkshire Street, Oldham, OL1 1ST"
2026-01-08,1905335,Locos,Takeaway/sandwich shop,Vanguard Business Park,Hamilton Street,Oldham,,OL4 1DA,Oldham,AwaitingInspection,,FHRS,False,53.5416462,-2.0983607,"Vanguard Business Park, Hamilton Street, Oldham, OL4 1DA"
2026-01-08,1899045,DollyMals Kitchen Limited,Takeaway/sandwich shop,,,,,,Torridge,AwaitingInspection,,FHRS,False,,,
2026-01-08,1905170,La Casa Pizzeria & Takeaway,Takeaway/sandwich shop,,67 High Street,Fraserburgh,Aberdeenshire,AB43 9ET,Aberdeenshire,Awaiting Inspection,2026-01-06,FHIS,False,57.693953,-2.008563,"67 High Street, Fraserburgh, Aberdeenshire, AB43 9ET"
2026-01-09,1905386,Phatladz,Takeaway/sandwich shop,,182a Davyhulme Road,Stretford,Manchester,M32 0AS,Trafford,AwaitingInspection,,FHRS,False,53.453022,-2.315783,"182a Davyhulme Road, Stretford, Manchester, M32 0AS"
2026-01-09,1905387,The Cake Co.,Takeaway/sandwich shop,,256 Upper Chorlton Road,Old Trafford,Manchester,M16 0BN,Trafford,AwaitingInspection,,FHRS,False,53.4509178,-2.271964,"256 Upper Chorlton Road, Old Trafford, Manchester, M16 0BN"
2026-01-09,1905546,Atidaan,Takeaway/sandwich shop,,,,,,Stevenage,AwaitingInspection,,FHRS,False,,,
2026-01-09,1905373,Mirchy,Takeaway/sandwich shop,The Curry Hut,18 Sculptor Place,Brighouse,Calderdale,HD6 2AR,Calderdale,AwaitingInspection,,FHRS,False,53.7051456,-1.7871456,"The Curry Hut, 18 Sculptor Place, Brighouse, Calderdale, HD6 2AR"
2026-01-09,1905530,Mr Fired Chiken & Pizza,Takeaway/sandwich shop,70A Unicorn Hill,Redditch,Worcestershire,,B97 4RA,Redditch,AwaitingInspection,,FHRS,False,52.3064379,-1.9449142,"70A Unicorn Hill, Redditch, Worcestershire, B97 4RA"
2026-01-09,1905529,Syds Fish & Chips - Syds Home Of The Battered Chip,Takeaway/sandwich shop,537 Evesham Road,Redditch,Worcestershire,,B97 5JP,Redditch,AwaitingInspection,,FHRS,False,52.278747,-1.938701,"537 Evesham Road, Redditch, Worcestershire, B97 5JP"
2026-01-09,1905505,MacJunk|DopeB|SpagB|Doner|Chihuahua|Caesar|Eggsp|YouV,Takeaway/sandwich shop,417 Beulah Hill,Upper Norwood,London,,SE19 3HB,Croydon,AwaitingInspection,,FHRS,False,51.4224166870117,-0.106284998357296,"417 Beulah Hill, Upper Norwood, London, SE19 3HB"
2026-01-09,631368,NEW FOREST PIZZA,Takeaway/sandwich shop,,,,,,New Forest,AwaitingInspection,,FHRS,False,,,
2026-01-09,1905522,Sarah Michell,Takeaway/sandwich shop,,,,,,Bromsgrove,AwaitingInspection,,FHRS,False,,,
2026-01-09,1905366,Stroud Grill,Takeaway/sandwich shop,,,,,,Stroud,AwaitingInspection,,FHRS,False,,,
2026-01-09,1905365,Wild Apothecary,Takeaway/sandwich shop,,,,,,Stroud,5,2025-10-14,FHRS,False,,,
2026-01-09,1893719,Cuisine Hub,Takeaway/sandwich shop,,126-127 High Street,Gorleston,Great Yarmouth Norfolk,NR31 6RE,Great Yarmouth,AwaitingInspection,,FHRS,False,52.5780763,1.7277329,"126-127 High Street, Gorleston, Great Yarmouth Norfolk, NR31 6RE"
2026-01-09,1905415,Shake Waffle & Roll,Takeaway/sandwich shop,,29 Broad Row,Great Yarmouth,Norfolk,NR30 1HT,Great Yarmouth,AwaitingInspection,,FHRS,False,52.6081181,1.7234902,"29 Broad Row, Great Yarmouth, Norfolk, NR30 1HT"
2026-01-09,1905412,Yummy Kebab,Takeaway/sandwich shop,,Beach Road,Hemsby,Great Yarmouth Norfolk,NR29 4HS,Great Yarmouth,AwaitingInspection,,FHRS,False,52.695743560791,1.70440495014191,"Beach Road, Hemsby, Great Yarmouth Norfolk, NR29 4HS"
2026-01-09,462253,De Pizza House,Takeaway/sandwich shop,Unit 3,Ox Close Avenue,Kimberworth Park,Rotherham,S61 3QY,Rotherham,AwaitingInspection,,FHRS,False,53.44368,-1.392271,"Unit 3, Ox Close Avenue, Kimberworth Park, Rotherham, S61 3QY"
2026-01-09,1474942,TreatHaus,Takeaway/sandwich shop,,22 Laughton Road,Dinnington,Sheffield,S25 2PS,Rotherham,AwaitingInspection,,FHRS,False,53.3678806,-1.2113184,"22 Laughton Road, Dinnington, Sheffield, S25 2PS"
2026-01-09,1905518,Tasty Bite,Takeaway/sandwich shop,,95A Newlands Road,,Grangemouth,FK3 8NT,Falkirk,Awaiting Inspection,,FHIS,False,56.007178,-3.728063,"95A Newlands Road, Grangemouth, FK3 8NT"
2026-01-09,1905426,Delhi Akash,Takeaway/sandwich shop,50 Presidents Court,Hoover Drive,Laindon,Basildon,SS15 6LF,Basildon,AwaitingInspection,,FHRS,True,51.5722111,0.4076688,"50 Presidents Court, Hoover Drive, Laindon, Basildon, SS15 6LF"
2026-01-09,1905421,KINGFISH,Takeaway/sandwich shop,Unit 3,Silva Island Way,Wickford,Essex,SS12 9NR,Basildon,AwaitingInspection,,FHRS,False,51.6020131,0.5358655,"Unit 3, Silva Island Way, Wickford, Essex, SS12 9NR"
2026-01-09,1905423,Pink Chilliz,Takeaway/sandwich shop,7 Station Gate,Station Approach,Laindon,Basildon,SS15 6UA,Basildon,AwaitingInspection,,FHRS,False,51.5681686401367,0.423979014158249,"7 Station Gate, Station Approach, Laindon, Basildon, SS15 6UA"
2026-01-09,1905433,Tasty Fried Chicken also trading as Chicken & Kebab House / Pizza Hub / Grill Hub / Chicken Hub / Smash & Grab / Dessert Hub / Peking House,Takeaway/sandwich shop,,9 Chalvedon Square,Pitsea,Basildon,SS13 3QX,Basildon,AwaitingInspection,,FHRS,False,51.57271,0.500667,"9 Chalvedon Square, Pitsea, Basildon, SS13 3QX"
2026-01-09,1905534,Domino's Pizza,Takeaway/sandwich shop,,32 Old Church Road,Clevedon,,BS21 6NN,North Somerset,5,2024-01-19,FHRS,False,51.435856,-2.854928,"32 Old Church Road, Clevedon, BS21 6NN"
2026-01-09,532721,CHICKEN COTTAGE,Takeaway/sandwich shop,2 Neeld Parade,Wembley Hill Road,Wembley,,HA9 6QU,Brent,5,2023-03-03,FHRS,False,51.55359,-0.286387,"2 Neeld Parade, Wembley Hill Road, Wembley, HA9 6QU"
2026-01-09,1905417,Royal Pan,Takeaway/sandwich shop,Unit 10,513 Kingsbury Road,London,,NW9 9EG,Brent,AwaitingInspection,,FHRS,True,51.5849547,-0.2782716,"Unit 10, 513 Kingsbury Road, London, NW9 9EG"
2026-01-09,533703,Taim Food and Coffee,Takeaway/sandwich shop,Front,51 Dudden Hill Lane,London,,NW10 1BD,Brent,AwaitingInspection,,FHRS,False,51.550686,-0.240874,"Front, 51 Dudden Hill Lane, London, NW10 1BD"
2026-01-09,1905512,The Grill Bros,Takeaway/sandwich shop,7 The Parade,Crayford Way,Crayford,Dartford,DA1 4JA,Bexley,AwaitingInspection,,FHRS,False,51.452037,0.179491,"7 The Parade, Crayford Way, Crayford, Dartford, DA1 4JA"
2026-01-09,1905515,New Canton,Takeaway/sandwich shop,76A Belville Street,Greenock,,,PA15 4SY,Inverclyde,Awaiting Inspection,,FHIS,False,55.9417691,-4.7380727,"76A Belville Street, Greenock, PA15 4SY"
2026-01-09,1905488,Buddha Bowl,Takeaway/sandwich shop,,4 The Crescent,Carlisle,,CA1 1QN,Cumberland,AwaitingInspection,,FHRS,False,54.892162,-2.9321832,"4 The Crescent, Carlisle, CA1 1QN"
2026-01-09,1718410,Grabby Patty's,Takeaway/sandwich shop,,51 Parkside,Carlisle,,CA3 9SF,Cumberland,AwaitingInspection,,FHRS,False,54.9101849,-2.9482624,"51 Parkside, Carlisle, CA3 9SF"
2026-01-09,375189,Hanabi Sushi,Takeaway/sandwich shop,5 Croft Terrace,Victoria Road,Carlisle,,CA1 2SN,Cumberland,5,2025-11-26,FHRS,False,54.891734,-2.902629,"5 Croft Terrace, Victoria Road, Carlisle, CA1 2SN"
2026-01-09,301489,King Cod,Takeaway/sandwich shop,,7 Scotland Road,Carlisle,,CA3 9HR,Cumberland,5,2025-12-05,FHRS,False,54.9040956,-2.9373739,"7 Scotland Road, Carlisle, CA3 9HR"
2026-01-09,1014962,Pancho's Takeaway,Takeaway/sandwich shop,47 Carlisle Market,Scotch Street,Carlisle,,CA3 8QX,Cumberland,AwaitingInspection,,FHRS,False,54.8956718444824,-2.93709897994995,"47 Carlisle Market, Scotch Street, Carlisle, CA3 8QX"
2026-01-10,1905825,Epice a mama,Takeaway/sandwich shop,,,,,,Colchester,AwaitingInspection,,FHRS,False,,,
2026-01-10,1905799,New Garden Takeaway,Takeaway/sandwich shop,221 Chesterfield Road South,,Mansfield,Nottinghamshire,NG19 7EQ,Mansfield,AwaitingInspection,,FHRS,False,53.1544534,-1.2097714,"221 Chesterfield Road South, Mansfield, Nottinghamshire, NG19 7EQ"
2026-01-10,1905742,Cobras Tuck Shop,Takeaway/sandwich shop,Recreation Ground Albert Road,,Stow Cum Quy,Cambridgeshire,,South Cambridgeshire,AwaitingInspection,,FHRS,False,,,"Recreation Ground Albert Road, Stow Cum Quy, Cambridgeshire"
2026-01-10,1905770,Scoopaholic,Takeaway/sandwich shop,5 Crichton Street,Dundee,,,DD1 3AP,Dundee City,Pass,2025-12-31,FHIS,False,56.459886,-2.970337,"5 Crichton Street, Dundee, DD1 3AP"
2026-01-10,1905982,Plazza,Takeaway/sandwich shop,3 The Broadway Friern Barnet Road,,,,N11 3DT,Barnet,AwaitingInspection,,FHRS,False,51.6137773,-0.1525846,"3 The Broadway Friern Barnet Road, N11 3DT"
2026-01-10,1905991,SUSHI HINOKI,Takeaway/sandwich shop,31 The Market Place Falloden Way,,,,NW11 6JY,Barnet,AwaitingInspection,,FHRS,False,,,"31 The Market Place Falloden Way, NW11 6JY"
2026-01-10,1905690,Monkey Bite,Takeaway/sandwich shop,Kiosk 2 Crate Food Hall 2A Selborne Walk,,Walthamstow,,E17 7JR,Waltham Forest,5,2026-01-06,FHRS,False,51.5838104,-0.0241228,"Kiosk 2 Crate Food Hall 2A Selborne Walk, Walthamstow, E17 7JR"
2026-01-10,1905968,Only Fruits,Takeaway/sandwich shop,12 - 13 New Market Walk,,Merthyr Tydfil,,CF47 8EL,Merthyr Tudful,AwaitingInspection,,FHRS,False,51.7451515197754,-3.38019299507141,"12 - 13 New Market Walk, Merthyr Tydfil, CF47 8EL"
2026-01-10,1905750,Donner Express,Takeaway/sandwich shop,210 Green Lane Road,Leicester,,,LE5 4PA,Leicester City,AwaitingInspection,,FHRS,False,52.637381,-1.098468,"210 Green Lane Road, Leicester, LE5 4PA"
2026-01-10,1905749,Nacho Man Ltd,Takeaway/sandwich shop,Ground Floor Shop,258 Humberstone Road,Leicester,,LE5 0EG,Leicester City,AwaitingInspection,,FHRS,False,,,"Ground Floor Shop, 258 Humberstone Road, Leicester, LE5 0EG"
2026-01-10,1905826,Rooster Fried Chicken 804,Takeaway/sandwich shop,Unit 2,Kingsway Local Centre,Thatcham Avenue Kingsway,Quedgeley,GL2 2GT,Gloucester City,AwaitingInspection,,FHRS,False,51.820196,-2.2677173,"Unit 2, Kingsway Local Centre, Thatcham Avenue Kingsway, Quedgeley, GL2 2GT"
2026-01-10,1905911,Alba Kebab,Takeaway/sandwich shop,,59-61 Academy Street,Inverness,Highland,IV1 1LU,Highland,Awaiting Inspection,,FHIS,False,57.4799207,-4.226616,"59-61 Academy Street, Inverness, Highland, IV1 1LU"
2026-01-10,1905907,Bake to Basics,Takeaway/sandwich shop,Creagan Idara 6 Kilvaxter,,Kilmuir,Portree,IV51 9YR,Highland,Awaiting Inspection,,FHIS,False,,,"Creagan Idara 6 Kilvaxter, Kilmuir, Portree, IV51 9YR"
2026-01-10,1905893,Cafe Skye & Mumbai Takeaway,Takeaway/sandwich shop,,Ford Road,Broadford,,IV49 9AB,Highland,Awaiting Inspection,,FHIS,False,,,"Ford Road, Broadford, IV49 9AB"
2026-01-10,1905906,Indian Rasol,Takeaway/sandwich shop,,44 Castle Heather Crescent,Inverness,Highland,IV2 4BF,Highland,Awaiting Inspection,,FHIS,False,57.4574925,-4.2051963,"44 Castle Heather Crescent, Inverness, Highland, IV2 4BF"
2026-01-10,1905902,Kusina ni Luna,Takeaway/sandwich shop,,89 Camanachd Crescent,Fort William,Highland,PH33 6XL,Highland,Awaiting Inspection,,FHIS,False,56.8234306,-5.0991652,"89 Camanachd Crescent, Fort William, Highland, PH33 6XL"
2026-01-10,1905820,After Hours Apron,Takeaway/sandwich shop,,,,,,Harrow,AwaitingInspection,,FHRS,False,,,
2026-01-10,1905863,Mr Cod,Takeaway/sandwich shop,130 Victoria Road,Old Town,Swindon,,SN1 3BU,Swindon,5,2025-12-08,FHRS,False,51.555026,-1.777784,"130 Victoria Road, Old Town, Swindon, SN1 3BU"
2026-01-10,1905653,Wataburger,Takeaway/sandwich shop,,,685 Oldpark Road,Belfast,BT14 6QY,Belfast City,AwaitingInspection,,FHRS,False,54.626293,-5.964681,"685 Oldpark Road, Belfast, BT14 6QY"
2026-01-10,357985,Greggs,Takeaway/sandwich shop,139A High Street,Penge,London,,SE20 7DS,Bromley,5,2025-10-07,FHRS,False,51.414994,-0.052317,"139A High Street, Penge, London, SE20 7DS"
2026-01-10,357428,Greggs,Takeaway/sandwich shop,15 High Street,,Bromley,,BR1 1LF,Bromley,5,2023-11-27,FHRS,False,51.4007065,0.0171432,"15 High Street, Bromley, BR1 1LF"
2026-01-10,1776657,Greggs,Takeaway/sandwich shop,65 High Street,,West Wickham,,BR4 0LS,Bromley,5,2024-12-19,FHRS,False,51.3762005,-0.0181169,"65 High Street, West Wickham, BR4 0LS"
2026-01-10,1437706,Greggs,Takeaway/sandwich shop,Unit 18 Nugent Shopping Park Cray Avenue,,Orpington,,BR5 3RP,Bromley,5,2025-06-13,FHRS,False,51.3929616,0.1126963,"Unit 18 Nugent Shopping Park Cray Avenue, Orpington, BR5 3RP"
2026-01-10,1905876,OJAS,Takeaway/sandwich shop,,,,,,Bromley,AwaitingInspection,,FHRS,False,,,
2026-01-10,339501,Porcellis,Takeaway/sandwich shop,,7 Team Valley Shopping Village,Team Valley,Gateshead,NE11 0EN,Gateshead,5,2025-09-17,FHRS,False,54.933654,-1.618891,"7 Team Valley Shopping Village, Team Valley, Gateshead, NE11 0EN"
2026-01-10,738795,Papa John's Pizza,Takeaway/sandwich shop,,32a Eastway,Hackney,London,E9 5JB,Hackney,5,2025-01-15,FHRS,False,51.545092,-0.029791,"32a Eastway, Hackney, London, E9 5JB"
2026-01-10,1905957,Smashology LTD,Takeaway/sandwich shop,,78 Dalston Lane London,Hackney,London,,Hackney,AwaitingInspection,,FHRS,False,,,"78 Dalston Lane London, Hackney, London"
2026-01-10,1905676,D Isly Artisan,Takeaway/sandwich shop,,,,,,Watford,AwaitingInspection,,FHRS,False,,,
2026-01-10,1905677,Dolphina Gymnastics Club,Takeaway/sandwich shop,,,,,,Watford,AwaitingInspection,,FHRS,False,,,
2026-01-10,1895765,Andover Kebab And Pizza House,Takeaway/sandwich shop,39 London Street,Andover,Hampshire,,SP10 2NU,Test Valley,AwaitingInspection,,FHRS,False,51.206365,-1.477629,"39 London Street, Andover, Hampshire, SP10 2NU"
2026-01-10,1905706,Eagles Fish and Chips Takeaway,Takeaway/sandwich shop,,56 Main Ridge East,,Boston,PE21 6ST,Boston,AwaitingInspection,,FHRS,False,52.9782778,-0.017622,"56 Main Ridge East, Boston, PE21 6ST"
2026-01-10,1905762,Bites N' Delights,Takeaway/sandwich shop,Unit 6 Derby Shopping Centre,Cannon Street,Bolton,,BL3 5BP,Bolton,AwaitingInspection,,FHRS,False,53.5711224,-2.4423724,"Unit 6 Derby Shopping Centre, Cannon Street, Bolton, BL3 5BP"
2026-01-10,1905763,Sundays,Takeaway/sandwich shop,,100 Market Street,Westhoughton,Bolton,BL5 3AZ,Bolton,AwaitingInspection,,FHRS,False,53.5491171,-2.5250795,"100 Market Street, Westhoughton, Bolton, BL5 3AZ"
2026-01-10,1905714,Radgie's,Takeaway/sandwich shop,89 Victoria Road,Darlington,,,DL1 5JQ,Darlington,AwaitingInspection,,FHRS,False,54.5216695,-1.5518304,"89 Victoria Road, Darlington, DL1 5JQ"
2026-01-10,1905625,Urban Kitchen,Takeaway/sandwich shop,,89 Keptie Street,Arbroath,,DD11 3AZ,Angus,Awaiting Inspection,,FHIS,False,56.559848,-2.593055,"89 Keptie Street, Arbroath, DD11 3AZ"
2026-01-10,1905670,42 Smith Street,Takeaway/sandwich shop,Ayr,South Ayrshire,,,KA7 1TF,South Ayrshire,Awaiting Inspection,2025-12-10,FHIS,False,,,"Ayr, South Ayrshire, KA7 1TF"
2026-01-10,1905673,Blue Lagoon Fish And Chips,Takeaway/sandwich shop,105 Main Street,Prestwick,South Ayrshire,,KA9 1JS,South Ayrshire,Awaiting Inspection,2025-12-23,FHIS,False,55.4991139,-4.6106575,"105 Main Street, Prestwick, South Ayrshire, KA9 1JS"
2026-01-10,1905668,Smash Epress Ltd,Takeaway/sandwich shop,148 Hillfoot Road,Ayr,South Ayrshire,,KA7 3LB,South Ayrshire,Awaiting Inspection,2025-12-10,FHIS,False,55.4528402,-4.6014134,"148 Hillfoot Road, Ayr, South Ayrshire, KA7 3LB"
2026-01-10,1905968,Only Fruits,Takeaway/sandwich shop,12 - 13 New Market Walk,,Merthyr Tydfil,,CF47 8EL,Merthyr Tydfil,AwaitingInspection,,FHRS,False,51.7451515197754,-3.38019299507141,"12 - 13 New Market Walk, Merthyr Tydfil, CF47 8EL"
2026-01-10,1865879,Tynings Fish & Chips & Chinese Takeaway,Takeaway/sandwich shop,Tynings Fish And Chip Shop,505 Bath Road,Saltford,Bath And North East Somerset,BS31 3HQ,Bath and North East Somerset,5,2026-01-08,FHRS,False,51.4017137,-2.4562216,"Tynings Fish And Chip Shop, 505 Bath Road, Saltford, Bath And North East Somerset, BS31 3HQ"
2026-01-10,1905792,Hoylands Haven,Takeaway/sandwich shop,Unit 2,11-13 Cumberland Road,,Hoyland,S74 9PQ,Barnsley,AwaitingInspection,,FHRS,False,53.5059436,-1.4384922,"Unit 2, 11-13 Cumberland Road, Hoyland, S74 9PQ"
2026-01-10,1020157,Papa Johns Pizza,Takeaway/sandwich shop,Unit A,2 Upper New Street,,Barnsley,S70 1LP,Barnsley,AwaitingInspection,,FHRS,False,53.5492820739746,-1.48097002506256,"Unit A, 2 Upper New Street, Barnsley, S70 1LP"
2026-01-11,1906005,Bahar-E-Hyderabad,Takeaway/sandwich shop,137 Plashet Road,Plaistow,London,,E13 0RA,Newham,AwaitingInspection,,FHRS,False,51.5376432,0.0290049,"137 Plashet Road, Plaistow, London, E13 0RA"
2026-01-11,1906002,Buns @ The Abbey Tap,Takeaway/sandwich shop,The Abbey Tap,10 - 14 Broadway,Stratford,London,E15 4QS,Newham,AwaitingInspection,,FHRS,False,51.5402807,7.9E-05,"The Abbey Tap, 10 - 14 Broadway, Stratford, London, E15 4QS"
2026-01-11,1906013,Chotpotiwala,Takeaway/sandwich shop,66 Green Street,Forest Gate,London,,E7 8JG,Newham,AwaitingInspection,,FHRS,False,51.5447462,0.0316716,"66 Green Street, Forest Gate, London, E7 8JG"
2026-01-11,1906016,FryDaddy,Takeaway/sandwich shop,Unit S,34 Plashet Grove,East Ham,London,E6 1AE,Newham,AwaitingInspection,,FHRS,False,51.5368296,0.0360016,"Unit S, 34 Plashet Grove, East Ham, London, E6 1AE"
2026-01-12,1906017,Munchy Chicken,Takeaway/sandwich shop,166 Hamlet Court Road,Westcliff-on-sea,Essex,,SS0 7LJ,Southend-On-Sea,AwaitingInspection,,FHRS,True,51.5409912,0.6960088,"166 Hamlet Court Road, Westcliff-on-sea, Essex, SS0 7LJ"
2026-01-12,1891232,Sutton Burger & Burrito,Takeaway/sandwich shop,86 Sutton Road,Southend-on-sea,Essex,,SS2 5EW,Southend-On-Sea,5,2025-12-17,FHRS,False,51.5423856,0.7189812,"86 Sutton Road, Southend-on-sea, Essex, SS2 5EW"
2026-01-13,1906082,Chamwiches,Takeaway/sandwich shop,Ipswich Road,,Cardiff,,CF23 9AQ,Caerdydd,AwaitingInspection,,FHRS,False,,,"Ipswich Road, Cardiff, CF23 9AQ"
2026-01-13,1906069,The Cozy Pot,Takeaway/sandwich shop,Cathays Community Centre 36 - 38 Cathays Terrace,Cathays,Cardiff,,CF24 4HX,Caerdydd,AwaitingInspection,,FHRS,False,51.4916511,-3.1807014,"Cathays Community Centre 36 - 38 Cathays Terrace, Cathays, Cardiff, CF24 4HX"
2026-01-13,1906186,Mei’s fusion Food,Takeaway/sandwich shop,,,,,,Gwynedd,AwaitingInspection,,FHRS,False,,,
2026-01-13,1906183,Ty Cod Nefyn,Takeaway/sandwich shop,Stryd Fawr Nefyn Pwllheli,,,,LL53 6HD,Gwynedd,AwaitingInspection,,FHRS,False,52.93504365,-4.520276,"Stryd Fawr Nefyn Pwllheli, LL53 6HD"
2026-01-13,1906169,Greggs,Takeaway/sandwich shop,2a Herron Retail Units,Glanhwfa Road,Llangefni,Isle Of Anglesey,LL77 7FE,Ynys Môn,5,2025-12-12,FHRS,False,53.2496691,-4.3127092,"2a Herron Retail Units, Glanhwfa Road, Llangefni, Isle Of Anglesey, LL77 7FE"
2026-01-13,1906292,Lazzy Coffee,Takeaway/sandwich shop,17 Eckersley Road,Chelmsford,Essex,,CM1 1SL,Chelmsford,AwaitingInspection,,FHRS,False,51.7375923,0.4779632,"17 Eckersley Road, Chelmsford, Essex, CM1 1SL"
2026-01-13,1906030,Impact-Now,Takeaway/sandwich shop,254 Wellingborough Road,Northampton,NN1 4SJ,,NN1 4SJ,West Northamptonshire,AwaitingInspection,,FHRS,False,52.2532539367676,-0.87432998418808,"254 Wellingborough Road, Northampton, NN1 4SJ, NN1 4SJ"
2026-01-13,1906029,United African Association,Takeaway/sandwich shop,254 Wellingborough Road,Northampton,NN1 4SJ,,NN1 4SJ,West Northamptonshire,AwaitingInspection,,FHRS,False,52.2532539367676,-0.87432998418808,"254 Wellingborough Road, Northampton, NN1 4SJ, NN1 4SJ"
2026-01-13,1890470,Dragon City,Takeaway/sandwich shop,222 Sprowston Road,Norwich,,,NR3 4HT,Norwich City,AwaitingInspection,,FHRS,False,52.646651,1.302969,"222 Sprowston Road, Norwich, NR3 4HT"
2026-01-13,1906145,Cars & Coffee,Takeaway/sandwich shop,30a Jubilee Road,Corporation South,Newtownards,Down,BT23 4YH,Ards and North Down,AwaitingInspection,,FHRS,False,54.5846539,-5.706939,"30a Jubilee Road, Corporation South, Newtownards, Down, BT23 4YH"
2026-01-13,1906175,Supreme Spuds,Takeaway/sandwich shop,Unit 4c Freeman Street Market,Freeman Street,,Grimsby,DN32 7DS,North East Lincolnshire,AwaitingInspection,,FHRS,False,,,"Unit 4c Freeman Street Market, Freeman Street, Grimsby, DN32 7DS"
2026-01-13,1906115,The Potters Wheel,Takeaway/sandwich shop,,,,,,Sunderland,AwaitingInspection,,FHRS,False,,,
2026-01-13,1906111,Today Shawarma,Takeaway/sandwich shop,The Valley,5A Victoria Road,Concord,Washington,NE37 2SY,Sunderland,AwaitingInspection,,FHRS,False,54.9126491,-1.5234349,"The Valley, 5A Victoria Road, Concord, Washington, NE37 2SY"
2026-01-13,1906082,Chamwiches,Takeaway/sandwich shop,Ipswich Road,,Cardiff,,CF23 9AQ,Cardiff,AwaitingInspection,,FHRS,False,,,"Ipswich Road, Cardiff, CF23 9AQ"
2026-01-13,1906069,The Cozy Pot,Takeaway/sandwich shop,Cathays Community Centre 36 - 38 Cathays Terrace,Cathays,Cardiff,,CF24 4HX,Cardiff,AwaitingInspection,,FHRS,False,51.4916511,-3.1807014,"Cathays Community Centre 36 - 38 Cathays Terrace, Cathays, Cardiff, CF24 4HX"
2026-01-13,1906222,Chahalo Bristol,Takeaway/sandwich shop,,12 Park Row,City Centre,Bristol,BS1 5LJ,Bristol,AwaitingInspection,,FHRS,False,51.455302,-2.600691,"12 Park Row, City Centre, Bristol, BS1 5LJ"
2026-01-13,1906221,The Codfather,Takeaway/sandwich shop,,14 West Town Lane,Brislington,Bristol,BS4 5BN,Bristol,AwaitingInspection,,FHRS,False,51.4318085,-2.5468455,"14 West Town Lane, Brislington, Bristol, BS4 5BN"
2026-01-13,1906169,Greggs,Takeaway/sandwich shop,2a Herron Retail Units,Glanhwfa Road,Llangefni,Isle Of Anglesey,LL77 7FE,Anglesey,5,2025-12-12,FHRS,False,53.2496691,-4.3127092,"2a Herron Retail Units, Glanhwfa Road, Llangefni, Isle Of Anglesey, LL77 7FE"
2026-01-13,1906304,Anayas,Takeaway/sandwich shop,,1795 Paisley Road West,Glasgow,,G52 3SS,Glasgow City,Awaiting Inspection,2026-01-09,FHIS,False,55.8454466,-4.3424063,"1795 Paisley Road West, Glasgow, G52 3SS"
2026-01-13,1906308,Keek's,Takeaway/sandwich shop,,183 Fordneuk Street,Glasgow,,G40 3AH,Glasgow City,Awaiting Inspection,2026-01-12,FHIS,False,55.849486,-4.218836,"183 Fordneuk Street, Glasgow, G40 3AH"
2026-01-13,1906305,Raja's Pizza Bar,Takeaway/sandwich shop,,470 Paisley Road,Glasgow,,G5 8RE,Glasgow City,Awaiting Inspection,2026-01-09,FHIS,False,55.853961,-4.277841,"470 Paisley Road, Glasgow, G5 8RE"
2026-01-13,1906302,YO! To Go,Takeaway/sandwich shop,Tesco Store Unit 9,1201 Maryhill Road,Glasgow,,G20 9SH,Glasgow City,Pass,2026-01-08,FHIS,False,55.887041,-4.286288,"Tesco Store Unit 9, 1201 Maryhill Road, Glasgow, G20 9SH"
2026-01-13,1906236,Hylton Pizza Felling,Takeaway/sandwich shop,,51 High Street,Felling Central,Felling,NE10 9LU,Gateshead,AwaitingInspection,,FHRS,False,54.9507469,-1.5706831,"51 High Street, Felling Central, Felling, NE10 9LU"
2026-01-13,1906238,Nates,Takeaway/sandwich shop,,1 Albion Street,Windy Nook,Felling,NE10 9SJ,Gateshead,AwaitingInspection,,FHRS,False,54.9430368,-1.5758228,"1 Albion Street, Windy Nook, Felling, NE10 9SJ"
2026-01-13,1906240,The Chippy Chappy,Takeaway/sandwich shop,7 Team Valley Shopping Village,Kingsway North,Team Valley,Gateshead,NE11 0EN,Gateshead,AwaitingInspection,,FHRS,False,,,"7 Team Valley Shopping Village, Kingsway North, Team Valley, Gateshead, NE11 0EN"
2026-01-13,1906103,IB2 Food Limited T/A Caprinos Pizza,Takeaway/sandwich shop,48 Aldwick Road,,Bognor Regis,West Sussex,PO21 2PN,Arun,AwaitingInspection,,FHRS,False,50.7814597,-0.6851381,"48 Aldwick Road, Bognor Regis, West Sussex, PO21 2PN"
2026-01-13,1906201,CHILLI PEPPER,Takeaway/sandwich shop,257 Bromley Road,London,,,SE6 2RA,Lewisham,AwaitingInspection,,FHRS,False,51.432845,-0.016929,"257 Bromley Road, London, SE6 2RA"
2026-01-13,1906213,PERFECT FRIED CHICKEN,Takeaway/sandwich shop,341 New Cross Road,London,,,SE14 6AT,Lewisham,AwaitingInspection,,FHRS,False,51.476016,-0.035477,"341 New Cross Road, London, SE14 6AT"
2026-01-13,1906206,The Chinese Experience Takeaway,Takeaway/sandwich shop,The Chinese Experience Ground Floor Unit,390 Brockley Road,Crofton Park,London,SE4 2BY,Lewisham,4,2024-11-20,FHRS,False,51.4540759,-0.0379662,"The Chinese Experience Ground Floor Unit, 390 Brockley Road, Crofton Park, London, SE4 2BY"
2026-01-13,1906054,Old Town Kitchen,Takeaway/sandwich shop,Street Record East Street,,Llantwit Major,Vale Of Glamorgan,,Bro Morgannwg,AwaitingInspection,,FHRS,False,51.40839,-3.48531,"Street Record East Street, Llantwit Major, Vale Of Glamorgan"
2026-01-13,1906054,Old Town Kitchen,Takeaway/sandwich shop,Street Record East Street,,Llantwit Major,Vale Of Glamorgan,,Vale of Glamorgan,AwaitingInspection,,FHRS,False,51.40839,-3.48531,"Street Record East Street, Llantwit Major, Vale Of Glamorgan"
2026-01-13,1900174,Taverham Fish Bar,Takeaway/sandwich shop,13B Victoria Road,Taverham,Norfolk,,NR8 6NU,Broadland,5,2026-01-07,FHRS,False,52.6807674,1.2015141,"13B Victoria Road, Taverham, Norfolk, NR8 6NU"
2026-01-13,1906285,Ceylon Pearl,Takeaway/sandwich shop,,34 Beech Avenue,,Nottingham,NG7 7LL,Nottingham City,AwaitingInspection,,FHRS,False,52.971899,-1.161067,"34 Beech Avenue, Nottingham, NG7 7LL"
2026-01-13,1906287,Clifton Food Court CFC,Takeaway/sandwich shop,,29-31 Sunninghill Drive,,Nottingham,NG11 8FT,Nottingham City,AwaitingInspection,,FHRS,False,52.9104368,-1.1800801,"29-31 Sunninghill Drive, Nottingham, NG11 8FT"
2026-01-13,1739282,Jojos Bubble Tea,Takeaway/sandwich shop,11 The Pavements,,,Chesterfield,S40 1PA,Chesterfield,5,2026-01-07,FHRS,False,53.2347132,-1.4295081,"11 The Pavements, Chesterfield, S40 1PA"
2026-01-13,1906186,Mei’s fusion Food,Takeaway/sandwich shop,,,,,,Gwynedd,AwaitingInspection,,FHRS,False,,,
2026-01-13,1906183,Ty Cod Nefyn,Takeaway/sandwich shop,Stryd Fawr Nefyn Pwllheli,,,,LL53 6HD,Gwynedd,AwaitingInspection,,FHRS,False,52.93504365,-4.520276,"Stryd Fawr Nefyn Pwllheli, LL53 6HD"
2026-01-13,1906087,Moto Hospitality Ltd - Greggs (Northbound),Takeaway/sandwich shop,Moto Hospitality Ltd,Winchester Services Northbound,Shroner Wood,Winchester,SO21 1PP,Winchester City,AwaitingInspection,,FHRS,False,51.116483,-1.254184,"Moto Hospitality Ltd, Winchester Services Northbound, Shroner Wood, Winchester, SO21 1PP"
2026-01-13,1906297,Go Burgers,Takeaway/sandwich shop,Queens Market Sussex Street,,Rhyl,Denbighshire,LL18 1SE,Denbighshire,AwaitingInspection,,FHRS,False,53.321458,-3.4920498,"Queens Market Sussex Street, Rhyl, Denbighshire, LL18 1SE"
2026-01-13,1906297,Go Burgers,Takeaway/sandwich shop,Queens Market Sussex Street,,Rhyl,Denbighshire,LL18 1SE,Sir Ddinbych,AwaitingInspection,,FHRS,False,53.321458,-3.4920498,"Queens Market Sussex Street, Rhyl, Denbighshire, LL18 1SE"
2026-01-14,1905375,Cravies,Takeaway/sandwich shop,3A Wards End,Halifax,Calderdale,,HX1 1DD,Calderdale,AwaitingInspection,,FHRS,True,53.7210441,-1.859547,"3A Wards End, Halifax, Calderdale, HX1 1DD"
2026-01-14,816360,Starbucks (Platform B & C),Takeaway/sandwich shop,Waterloo East Railway Station,Sandell Street,London,,SE1 7LY,Lambeth,AwaitingInspection,,FHRS,True,51.503156,-0.113271,"Waterloo East Railway Station, Sandell Street, London, SE1 7LY"
2026-01-14,1906441,Longoz,Takeaway/sandwich shop,44 Chapel Hill,Huddersfield,,,HD1 3EB,Kirklees,AwaitingInspection,,FHRS,False,53.641787,-1.785209,"44 Chapel Hill, Huddersfield, HD1 3EB"
2026-01-14,1906496,Kings Fish And Chips Pizza House,Takeaway/sandwich shop,Unit 5,Quartz Way,Sittingbourne,Kent,ME10 5AB,Swale,AwaitingInspection,,FHRS,False,51.350243,0.716881,"Unit 5, Quartz Way, Sittingbourne, Kent, ME10 5AB"
2026-01-14,1906612,Cups'N'Cakes,Takeaway/sandwich shop,3 Beeches Road,Bloxwich,Walsall,West Midlands,WS3 1HB,Walsall,AwaitingInspection,,FHRS,False,52.605442,-1.990904,"3 Beeches Road, Bloxwich, Walsall, West Midlands, WS3 1HB"
2026-01-14,1906607,Pizza House,Takeaway/sandwich shop,95 Butts Road,Walsall,West Midlands,,WS4 2BW,Walsall,AwaitingInspection,,FHRS,False,52.59235,-1.972971,"95 Butts Road, Walsall, West Midlands, WS4 2BW"
2026-01-14,1906604,Sprinkle Street Brownhills,Takeaway/sandwich shop,1 Church Road,Brownhills,Walsall,West Midlands,WS8 6AA,Walsall,AwaitingInspection,,FHRS,False,52.6474453,-1.93324,"1 Church Road, Brownhills, Walsall, West Midlands, WS8 6AA"
2026-01-14,1906602,Timmys,Takeaway/sandwich shop,12 Cresswell Crescent,Bloxwich,Walsall,West Midlands,WS3 2UW,Walsall,AwaitingInspection,,FHRS,False,52.620022,-2.02034,"12 Cresswell Crescent, Bloxwich, Walsall, West Midlands, WS3 2UW"
2026-01-14,1906434,Taste Of Delhi,Takeaway/sandwich shop,14 Goldthorn Hill,Wolverhampton,West Midlands,,WV2 3HU,Wolverhampton,AwaitingInspection,,FHRS,False,52.5671768,-2.1236802,"14 Goldthorn Hill, Wolverhampton, West Midlands, WV2 3HU"
2026-01-14,1906437,Wood Cross Fish And Chips,Takeaway/sandwich shop,119 Woodcross Lane,Wolverhampton,West Midlands,,WV14 9RU,Wolverhampton,AwaitingInspection,,FHRS,False,52.550243,-2.105254,"119 Woodcross Lane, Wolverhampton, West Midlands, WV14 9RU"
2026-01-14,1906481,Hong Kong,Takeaway/sandwich shop,,112a Baddeley Green Lane,Baddeley Green,Stoke-On-Trent,ST2 7HA,Stoke-On-Trent,AwaitingInspection,,FHRS,False,53.054264,-2.140124,"112a Baddeley Green Lane, Baddeley Green, Stoke-On-Trent, ST2 7HA"
2026-01-14,1906480,Meir Pizza and Grill,Takeaway/sandwich shop,Unit 2,90 Sandon Road,Meir,Stoke-On-Trent,ST3 7DQ,Stoke-On-Trent,AwaitingInspection,,FHRS,False,52.9743851,-2.1064774,"Unit 2, 90 Sandon Road, Meir, Stoke-On-Trent, ST3 7DQ"
2026-01-14,304283,Best kebab,Takeaway/sandwich shop,25 HIGH STREET,,WEST CORNFORTH,,DL17 9HN,Durham,5,2025-12-04,FHRS,False,54.7021681,-1.521873,"25 HIGH STREET, WEST CORNFORTH, DL17 9HN"
2026-01-14,1906468,Dough Balls Southside,Takeaway/sandwich shop,685 Clarkston Road,Netherlee,,East Renfrewshire,G44 3SE,East Renfrewshire,Awaiting Inspection,2025-12-12,FHIS,False,55.8018247,-4.2703746,"685 Clarkston Road, Netherlee, East Renfrewshire, G44 3SE"
2026-01-14,1906507,Happy Tokyo,Takeaway/sandwich shop,Morrisons,Sproughton Road,Ipswich,Suffolk,IP1 5AQ,Ipswich,AwaitingInspection,,FHRS,False,,,"Morrisons, Sproughton Road, Ipswich, Suffolk, IP1 5AQ"
2026-01-14,1884975,Ya Beirut,Takeaway/sandwich shop,213 Uxbridge Road,West Ealing,,,W13 9AA,Ealing,0,2025-12-10,FHRS,False,51.510992,-0.318004,"213 Uxbridge Road, West Ealing, W13 9AA"
2026-01-14,1906553,Yo! To Go! @ Tesco Ealing Broadway Centre,Takeaway/sandwich shop,20 Ealing Broadway Centre,The Broadway,Ealing,,W5 5JY,Ealing,AwaitingInspection,,FHRS,False,51.5128,-0.303007,"20 Ealing Broadway Centre, The Broadway, Ealing, W5 5JY"
2026-01-14,1906463,Cheeseo,Takeaway/sandwich shop,Stoppards,48 Front Street,Arnold,Nottinghamshire,NG5 7EL,Gedling,AwaitingInspection,,FHRS,False,53.00206,-1.128861,"Stoppards, 48 Front Street, Arnold, Nottinghamshire, NG5 7EL"
2026-01-14,1401267,Andover Kebab And Pizza House,Takeaway/sandwich shop,39 London Street,Andover,Hampshire,,SP10 2NU,Test Valley,3,2024-06-28,FHRS,False,51.206365,-1.477629,"39 London Street, Andover, Hampshire, SP10 2NU"
2026-01-14,1906311,Chef Shack,Takeaway/sandwich shop,,38 High Street,Stone,,ST15 8AW,Stafford,AwaitingInspection,,FHRS,False,52.9020237,-2.147458,"38 High Street, Stone, ST15 8AW"
2026-01-14,1906326,Capel Grill & Pizza,Takeaway/sandwich shop,Capel Grill and Pizza 40 The Street,Capel St Mary,IPSWICH,Suffolk,IP9 2EP,Babergh,AwaitingInspection,,FHRS,False,,,"Capel Grill and Pizza 40 The Street, Capel St Mary, IPSWICH, Suffolk, IP9 2EP"
2026-01-14,1906325,Direct Pizza & Kebab House,Takeaway/sandwich shop,41 North Street,SUDBURY,Suffolk,,CO10 1RD,Babergh,AwaitingInspection,,FHRS,False,52.04133,0.729308,"41 North Street, SUDBURY, Suffolk, CO10 1RD"
2026-01-14,1906514,GREGGS@LONDIS SERVICE STATION,Takeaway/sandwich shop,126 Congleton Road,Biddulph,Staffordshire,,ST8 6QL,Staffordshire Moorlands,AwaitingInspection,,FHRS,False,53.1218959,-2.169123,"126 Congleton Road, Biddulph, Staffordshire, ST8 6QL"
2026-01-14,778392,Cake Hub,Takeaway/sandwich shop,,20 Queen Victoria Street,Rochdale,Lancashire,OL11 2HE,Rochdale,AwaitingInspection,,FHRS,False,53.601235,-2.146676,"20 Queen Victoria Street, Rochdale, Lancashire, OL11 2HE"
2026-01-14,730202,Vindaloo Village,Takeaway/sandwich shop,,289A Oldham Road,Middleton,Manchester,M24 2DW,Rochdale,AwaitingInspection,,FHRS,False,53.550648,-2.185697,"289A Oldham Road, Middleton, Manchester, M24 2DW"
2026-01-14,1906526,Fatbros Takeaway,Takeaway/sandwich shop,1 The Parade,Hough Lane,Bramley,Leeds,LS13 3RB,Leeds,AwaitingInspection,,FHRS,False,53.808595,-1.632319,"1 The Parade, Hough Lane, Bramley, Leeds, LS13 3RB"
2026-01-14,1906527,Leo Kitchen,Takeaway/sandwich shop,319 Hunslet Road,Hunslet,Leeds,,LS10 1NJ,Leeds,AwaitingInspection,,FHRS,False,53.783032,-1.529115,"319 Hunslet Road, Hunslet, Leeds, LS10 1NJ"
2026-01-14,1906373,MK Worldtakeout Ltd,Takeaway/sandwich shop,Jamesfield Centre,,Newburgh,Cupar,KY14 6EW,Perth and Kinross,Awaiting Inspection,2026-01-08,FHIS,False,56.3412124,-3.2928711,"Jamesfield Centre, Newburgh, Cupar, KY14 6EW"
2026-01-14,192925,Pizza Plus,Takeaway/sandwich shop,,142 New Bridge Road,Kingston Upon Hull,,HU9 2NU,Hull City,AwaitingInspection,,FHRS,False,53.7551765441895,-0.306825995445251,"142 New Bridge Road, Kingston Upon Hull, HU9 2NU"
2026-01-14,1906317,Moreton Shawarma,Takeaway/sandwich shop,221 Hoylake Road,,Moreton,Wirral,CH46 0SJ,Wirral,AwaitingInspection,,FHRS,False,53.4010362,-3.112325,"221 Hoylake Road, Moreton, Wirral, CH46 0SJ"
2026-01-14,1906485,N/B Victoria Kebab House,Takeaway/sandwich shop,109-111 Victoria Road,New Brighton,Wirral,,CH45 2JB,Wirral,AwaitingInspection,,FHRS,True,53.4381257,-3.041813,"109-111 Victoria Road, New Brighton, Wirral, CH45 2JB"
2026-01-14,1906321,Best Pizza & Kebabs,Takeaway/sandwich shop,150A Station Road,Beeston,Nottinghamshire,,NG9 2AY,Broxtowe,AwaitingInspection,,FHRS,False,52.923715,-1.211025,"150A Station Road, Beeston, Nottinghamshire, NG9 2AY"
2026-01-15,1907191,Pizza Square,Takeaway/sandwich shop,21 High Street,Sutton On Sea,Mablethorpe,,LN12 2EY,East Lindsey,5,2025-11-10,FHRS,False,53.3126313,0.2808598,"21 High Street, Sutton On Sea, Mablethorpe, LN12 2EY"
2026-01-15,1907192,Salts Fish and Chip Shop Limited,Takeaway/sandwich shop,21 Wainfleet Road,Skegness,,,PE25 3QT,East Lindsey,5,2025-11-18,FHRS,False,53.143976,0.331728,"21 Wainfleet Road, Skegness, PE25 3QT"
2026-01-15,1907136,Coco Macaron,Takeaway/sandwich shop,,,,,,Stevenage,AwaitingInspection,,FHRS,False,,,
2026-01-15,1907134,Fairyland Art Dessert,Takeaway/sandwich shop,,,,,,Stevenage,AwaitingInspection,,FHRS,False,,,
2026-01-15,1907138,Merano Pizza,Takeaway/sandwich shop,Muslim Community Centre,Vardon Road,Stevenage,Herts,SG1 5PZ,Stevenage,AwaitingInspection,,FHRS,False,,,"Muslim Community Centre, Vardon Road, Stevenage, Herts, SG1 5PZ"
2026-01-15,1907135,Samo't Sari,Takeaway/sandwich shop,,,,,,Stevenage,AwaitingInspection,,FHRS,False,,,
2026-01-15,1907057,Slice Street,Takeaway/sandwich shop,1A High Street,Swanley,Kent,,BR8 8AE,Sevenoaks,AwaitingInspection,,FHRS,False,51.395246,0.178041,"1A High Street, Swanley, Kent, BR8 8AE"
2026-01-15,1906688,CHINOS,Takeaway/sandwich shop,,3b Village Centre Kingswells Avenue,,,AB15 8TG,Aberdeen City,Awaiting Inspection,1999-04-01,FHIS,False,57.1562637,-2.2244056,"3b Village Centre Kingswells Avenue, AB15 8TG"
2026-01-15,1906690,MIXED KITCHEN,Takeaway/sandwich shop,,24 John Street,Aberdeen,Aberdeen City,AB25 1BT,Aberdeen City,Awaiting Inspection,1999-04-01,FHIS,False,57.151559,-2.10195,"24 John Street, Aberdeen, Aberdeen City, AB25 1BT"
2026-01-15,1906686,Oversea Takeaway,Takeaway/sandwich shop,,34 South Mount Street,Rosemount,Aberdeen,AB25 2TB,Aberdeen City,Awaiting Inspection,1999-04-01,FHIS,False,57.1496124267578,-2.111083984375,"34 South Mount Street, Rosemount, Aberdeen, AB25 2TB"
2026-01-15,1906699,Pan Chinese Food,Takeaway/sandwich shop,,105 Rousay Drive,Aberdeen,,AB156LT,Aberdeen City,Awaiting Inspection,1999-04-01,FHIS,False,57.1500939,-2.1723056,"105 Rousay Drive, Aberdeen, AB156LT"
2026-01-15,1906730,BAP,Takeaway/sandwich shop,,85 Neilston Road,Paisley,Renfrewshire,PA2 6ES,Renfrewshire,Awaiting Inspection,,FHIS,False,55.833425,-4.422652,"85 Neilston Road, Paisley, Renfrewshire, PA2 6ES"
2026-01-15,1906726,Fire Broz,Takeaway/sandwich shop,,21 Broomlands Street,Paisley,Renfrewshire,PA1 2LT,Renfrewshire,Awaiting Inspection,2026-01-08,FHIS,False,55.84336,-4.439276,"21 Broomlands Street, Paisley, Renfrewshire, PA1 2LT"
2026-01-15,1906725,Ham n Eggz,Takeaway/sandwich shop,,21 Maxwellton Street,Paisley,Renfrewshire,PA1 2UF,Renfrewshire,Awaiting Inspection,,FHIS,False,55.841577,-4.439484,"21 Maxwellton Street, Paisley, Renfrewshire, PA1 2UF"
2026-01-15,1906640,Baldock Grill,Takeaway/sandwich shop,4 High Street,,Baldock,Hertfordshire,SG7 6AR,North Hertfordshire,5,2026-01-07,FHRS,False,51.989291,-0.188726,"4 High Street, Baldock, Hertfordshire, SG7 6AR"
2026-01-15,1562818,McDonalds Shop,Takeaway/sandwich shop,,,872-874 Shore Road,Newtownabbey,BT36 7DQ,Belfast City,1,2025-12-10,FHRS,False,54.6467624,-5.9204023,"872-874 Shore Road, Newtownabbey, BT36 7DQ"
2026-01-15,1906980,Burger and Masala House Limited also T/as Burger and Masala House,Takeaway/sandwich shop,Unit 1,Dark Lane,Manchester,,M12 6FA,Manchester,AwaitingInspection,,FHRS,False,53.474661,-2.219344,"Unit 1, Dark Lane, Manchester, M12 6FA"
2026-01-15,1906894,Burgerplus Food Brand LTD also T/as Hot And Spicy Kitchen,Takeaway/sandwich shop,,15 Broughton Street,Manchester,,M8 8LZ,Manchester,AwaitingInspection,,FHRS,False,53.495434,-2.2397329,"15 Broughton Street, Manchester, M8 8LZ"
2026-01-15,1906910,Carnivore Kitchen,Takeaway/sandwich shop,,42 HIGHER ARDWICK,MANCHESTER,,M12 6DA,Manchester,AwaitingInspection,,FHRS,False,53.4715947,-2.2173934,"42 HIGHER ARDWICK, MANCHESTER, M12 6DA"
2026-01-15,1906991,Dark Kitchen,Takeaway/sandwich shop,UNIT 5 RAYNESWAY,BROUGHTON STREET,MANCHESTER,,M8 8NN,Manchester,AwaitingInspection,,FHRS,False,53.4949859,-2.2367894,"UNIT 5 RAYNESWAY, BROUGHTON STREET, MANCHESTER, M8 8NN"
2026-01-15,1906844,Dessert District,Takeaway/sandwich shop,Unit 1,1 Dark Lane,Manchester,,M12 6FA,Manchester,AwaitingInspection,,FHRS,False,53.474661,-2.219344,"Unit 1, 1 Dark Lane, Manchester, M12 6FA"
2026-01-15,1906959,DIRTY GRAMS,Takeaway/sandwich shop,Unit 1,1 Dark Lane,Manchester,,M12 6FA,Manchester,AwaitingInspection,,FHRS,False,53.474661,-2.219344,"Unit 1, 1 Dark Lane, Manchester, M12 6FA"
2026-01-15,1906934,Drip tenders,Takeaway/sandwich shop,,42 Higher Ardwick,Manchester,,M12 6DA,Manchester,AwaitingInspection,,FHRS,False,53.4715947,-2.2173934,"42 Higher Ardwick, Manchester, M12 6DA"
2026-01-15,1819289,Endurance n Whoopi Catering Services,Takeaway/sandwich shop,,215-217 Moston Lane,Manchester,,M9 4HE,Manchester,4,2024-08-29,FHRS,False,53.5136932,-2.2039611,"215-217 Moston Lane, Manchester, M9 4HE"
2026-01-15,1906774,FLAMIN KING,Takeaway/sandwich shop,,92 Broadway,Manchester,,M40 3WQ,Manchester,AwaitingInspection,,FHRS,False,53.5167134,-2.1694556,"92 Broadway, Manchester, M40 3WQ"
2026-01-15,1906839,Food Heaven MCR LTD t/a Burger Boi,Takeaway/sandwich shop,,Morrisons,19-25 Piccadilly,Manchester,M1 1LU,Manchester,AwaitingInspection,,FHRS,False,53.4815664,-2.2365603,"Morrisons, 19-25 Piccadilly, Manchester, M1 1LU"
2026-01-15,1906970,Founder coffee Co also T/as Founder,Takeaway/sandwich shop,,4 Ledson Road,Manchester,,M23 9GB,Manchester,AwaitingInspection,,FHRS,False,53.39279,-2.29239,"4 Ledson Road, Manchester, M23 9GB"
2026-01-15,1906896,Fryin also T/as Fryin limited,Takeaway/sandwich shop,,42 Higher Ardwick,Manchester,,M12 6DA,Manchester,AwaitingInspection,,FHRS,False,53.4715947,-2.2173934,"42 Higher Ardwick, Manchester, M12 6DA"
2026-01-15,1906979,Govin,Takeaway/sandwich shop,,129 Oxford Road,Manchester,,M1 7DY,Manchester,AwaitingInspection,,FHRS,False,53.470471,-2.237064,"129 Oxford Road, Manchester, M1 7DY"
2026-01-15,1906981,Grab & Grill,Takeaway/sandwich shop,,133 Wilbraham Road,Manchester,,M14 7DS,Manchester,AwaitingInspection,,FHRS,False,53.44344,-2.234023,"133 Wilbraham Road, Manchester, M14 7DS"
2026-01-15,1906791,Hollinwood Chippy,Takeaway/sandwich shop,,387 HOLLINWOOD AVENUE,MANCHESTER,,M40 0JQ,Manchester,AwaitingInspection,,FHRS,False,53.5245362,-2.1736951,"387 HOLLINWOOD AVENUE, MANCHESTER, M40 0JQ"
2026-01-15,1906922,Hong Kong Boy Takeaway,Takeaway/sandwich shop,Kitchen no 7 Ghost Kitchen,58-60 Higher Ardwick,Manchester,,M12 6DA,Manchester,AwaitingInspection,,FHRS,False,53.4715471,-2.2188695,"Kitchen no 7 Ghost Kitchen, 58-60 Higher Ardwick, Manchester, M12 6DA"
2026-01-15,1906864,jp lab,Takeaway/sandwich shop,Universal Building,37-49 Devonshire Street North,Manchester,,M12 6JR,Manchester,AwaitingInspection,,FHRS,False,53.4712194,-2.2161712,"Universal Building, 37-49 Devonshire Street North, Manchester, M12 6JR"
2026-01-15,1906806,Just suya,Takeaway/sandwich shop,,2 Hulme Hall Lane,Manchester,,M40 8AZ,Manchester,2,2025-11-04,FHRS,False,53.4955884,-2.2103559,"2 Hulme Hall Lane, Manchester, M40 8AZ"
2026-01-15,1906879,Kansas Fried chicken,Takeaway/sandwich shop,,424 WILBRAHAM ROAD,MANCHESTER,,M21 0AS,Manchester,AwaitingInspection,,FHRS,False,53.4426319,-2.2752386,"424 WILBRAHAM ROAD, MANCHESTER, M21 0AS"
2026-01-15,1906884,Layr,Takeaway/sandwich shop,,23 Radium Street,Manchester,,M4 6AY,Manchester,AwaitingInspection,,FHRS,False,53.4852145,-2.2257511,"23 Radium Street, Manchester, M4 6AY"
2026-01-15,1906836,Lucky Wonton,Takeaway/sandwich shop,,42 Higher Ardwick,Manchester,,M12 6DA,Manchester,AwaitingInspection,,FHRS,False,53.4715947,-2.2173934,"42 Higher Ardwick, Manchester, M12 6DA"
2026-01-15,1906997,Makizu,Takeaway/sandwich shop,,6 BURNSALL WALK,MANCHESTER,,M22 1SG,Manchester,AwaitingInspection,,FHRS,False,53.3768505,-2.2801641,"6 BURNSALL WALK, MANCHESTER, M22 1SG"
2026-01-15,1906860,Moss Side and Hulme Community Development Trust,Takeaway/sandwich shop,Windrush Millennium Centre,70 Alexandra Road,Manchester,,M16 7WD,Manchester,AwaitingInspection,,FHRS,False,53.4567396,-2.2527541,"Windrush Millennium Centre, 70 Alexandra Road, Manchester, M16 7WD"
2026-01-15,1906783,MR & MRS DESSERTS,Takeaway/sandwich shop,,42 Higher Ardwick,Manchester,,M12 6DA,Manchester,AwaitingInspection,,FHRS,False,53.4715947,-2.2173934,"42 Higher Ardwick, Manchester, M12 6DA"
2026-01-15,1906911,My Treats,Takeaway/sandwich shop,,150 Cheetham Hill Road,Manchester,,M8 8PZ,Manchester,AwaitingInspection,,FHRS,False,53.494132,-2.2390774,"150 Cheetham Hill Road, Manchester, M8 8PZ"
2026-01-15,1906853,Noodles house,Takeaway/sandwich shop,,58-60 Higher Ardwick,Manchester,,M12 6DA,Manchester,AwaitingInspection,,FHRS,False,53.4715471,-2.2188695,"58-60 Higher Ardwick, Manchester, M12 6DA"
2026-01-15,1906808,Pattersons,Takeaway/sandwich shop,,11 BARING STREET,MANCHESTER,,M1 2PZ,Manchester,AwaitingInspection,,FHRS,False,53.4751184,-2.2276011,"11 BARING STREET, MANCHESTER, M1 2PZ"
2026-01-15,1814893,Peri Peri Heaven also T/as Creamy Deluxe,Takeaway/sandwich shop,Unit 3b,42 HIgher Ardwick,Manchester,,M12 6DA,Manchester,5,2025-05-06,FHRS,False,53.4715947,-2.2173934,"Unit 3b, 42 HIgher Ardwick, Manchester, M12 6DA"
2026-01-15,1906948,Quaso Cat,Takeaway/sandwich shop,Universal Building,37-49 Devonshire Street North,Manchester,,M12 6JR,Manchester,AwaitingInspection,,FHRS,False,53.4712194,-2.2161712,"Universal Building, 37-49 Devonshire Street North, Manchester, M12 6JR"
2026-01-15,1906949,Raju Gari Biryani also t/a The Nawab's Bowl,Takeaway/sandwich shop,Unit D Aldow Enterprise Park,Blackett Street,Manchester,,M12 6AE,Manchester,AwaitingInspection,,FHRS,False,53.4764066,-2.2193763,"Unit D Aldow Enterprise Park, Blackett Street, Manchester, M12 6AE"
2026-01-15,1906872,RETRO FRIED CHICKEN,Takeaway/sandwich shop,,245 CHARLESTOWN ROAD,MANCHESTER,,M9 7BD,Manchester,AwaitingInspection,,FHRS,False,53.5236805,-2.1924251,"245 CHARLESTOWN ROAD, MANCHESTER, M9 7BD"
2026-01-15,1906939,Starlight Kitchen,Takeaway/sandwich shop,,42 HIGHER ARDWICK,MANCHESTER,,M12 6DA,Manchester,AwaitingInspection,,FHRS,False,53.4715947,-2.2173934,"42 HIGHER ARDWICK, MANCHESTER, M12 6DA"
2026-01-15,1906845,Super Bite Burger,Takeaway/sandwich shop,Unit 1,1 Dark Lane,Manchester,,M12 6FA,Manchester,AwaitingInspection,,FHRS,False,53.474661,-2.219344,"Unit 1, 1 Dark Lane, Manchester, M12 6FA"
2026-01-15,1906843,Taste Mahal,Takeaway/sandwich shop,Unit 1,1 Dark Lane,Manchester,,M12 6FA,Manchester,AwaitingInspection,,FHRS,False,53.474661,-2.219344,"Unit 1, 1 Dark Lane, Manchester, M12 6FA"
2026-01-15,1906886,The Kebab Lab,Takeaway/sandwich shop,,69 Thomas Street,Manchester,,M4 1LQ,Manchester,AwaitingInspection,,FHRS,False,53.483624,-2.235631,"69 Thomas Street, Manchester, M4 1LQ"
2026-01-15,1906967,The Sushi Co,Takeaway/sandwich shop,Unit 1,Dark Lane,Manchester,,M12 6FA,Manchester,AwaitingInspection,,FHRS,False,53.474661,-2.219344,"Unit 1, Dark Lane, Manchester, M12 6FA"
2026-01-15,1906943,Tokyo Noodle also T/as Wanago and Sushi by Hanzala,Takeaway/sandwich shop,,16 ALBERT ROAD,MANCHESTER,,M19 3PJ,Manchester,AwaitingInspection,,FHRS,False,53.4442482,-2.1934513,"16 ALBERT ROAD, MANCHESTER, M19 3PJ"
2026-01-15,1818212,Top taste Chinese take away,Takeaway/sandwich shop,,267 Nuthurst Road,Manchester,,M40 3PU,Manchester,4,2024-06-17,FHRS,False,53.515286,-2.162153,"267 Nuthurst Road, Manchester, M40 3PU"
2026-01-15,1761965,Univeron Foods,Takeaway/sandwich shop,Unit 35,1 Dark Lane,Manchester,,M12 6FA,Manchester,AwaitingInspection,,FHRS,False,53.474661,-2.219344,"Unit 35, 1 Dark Lane, Manchester, M12 6FA"
2026-01-15,1906780,Urbn kitchen,Takeaway/sandwich shop,,27 Spark Road,Manchester,,M23 1DQ,Manchester,AwaitingInspection,,FHRS,False,53.399926,-2.287521,"27 Spark Road, Manchester, M23 1DQ"
2026-01-15,1906881,Vendora Brands Ltd,Takeaway/sandwich shop,Unit 1,Dark Lane,Manchester,,M12 6FA,Manchester,AwaitingInspection,,FHRS,False,53.474661,-2.219344,"Unit 1, Dark Lane, Manchester, M12 6FA"
2026-01-15,1906852,Wheelie-Bean,Takeaway/sandwich shop,,,,,,Manchester,AwaitingInspection,,FHRS,False,,,
2026-01-15,1906816,Wingstop UK,Takeaway/sandwich shop,Unit D,Aldow Enterprise Park Blackett Street,Manchester,,M12 6AE,Manchester,AwaitingInspection,,FHRS,False,53.4764066,-2.2193763,"Unit D, Aldow Enterprise Park Blackett Street, Manchester, M12 6AE"
2026-01-15,1906825,Yeast Craft Pizza,Takeaway/sandwich shop,,,,,,Manchester,AwaitingInspection,,FHRS,False,,,
2026-01-15,1907180,Aladdin's,Takeaway/sandwich shop,11  Bloomfield Road,,,Tipton,DY4 9EU,Sandwell,AwaitingInspection,,FHRS,False,52.5401792,-2.0714901,"11  Bloomfield Road, Tipton, DY4 9EU"
2026-01-15,1907183,Max Meals,Takeaway/sandwich shop,51  Wheatsheaf Road,,,Oldbury,B69 1SL,Sandwell,AwaitingInspection,,FHRS,False,52.5046063,-2.0542981,"51  Wheatsheaf Road, Oldbury, B69 1SL"
2026-01-15,1907167,The Chatni Club,Takeaway/sandwich shop,,,,,,Coventry,AwaitingInspection,,FHRS,False,,,
2026-01-15,1907148,V-Slice&Burger,Takeaway/sandwich shop,Broomfield Road,,,Coventry,CV5 6JW,Coventry,AwaitingInspection,,FHRS,False,52.4034669,-1.52916955,"Broomfield Road, Coventry, CV5 6JW"
2026-01-15,1907147,Winglogy,Takeaway/sandwich shop,Broomfield Road,,,Coventry,CV5 6JW,Coventry,AwaitingInspection,,FHRS,False,52.4034669,-1.52916955,"Broomfield Road, Coventry, CV5 6JW"
2026-01-15,1867073,Charcoal Grill,Takeaway/sandwich shop,50 Broadwater Road,,Worthing,West Sussex,BN14 8AG,Worthing,5,2025-10-20,FHRS,False,50.8216689,-0.3726281,"50 Broadwater Road, Worthing, West Sussex, BN14 8AG"
2026-01-15,1906740,Fry r tuck,Takeaway/sandwich shop,8 Coleraine Street,,Kilrea,Londonderry,BT51 5QD,Causeway Coast and Glens,AwaitingInspection,,FHRS,False,54.9521713256836,-6.55605316162109,"8 Coleraine Street, Kilrea, Londonderry, BT51 5QD"
2026-01-15,1906734,Roasted Coffee Limavady,Takeaway/sandwich shop,53-55 Main Street,Newtown Limavady Alias Rathbrady Beg,Limavady,Londonderry,BT49 0EP,Causeway Coast and Glens,AwaitingInspection,,FHRS,False,55.051716,-6.951788,"53-55 Main Street, Newtown Limavady Alias Rathbrady Beg, Limavady, Londonderry, BT49 0EP"
2026-01-15,1907006,Buddy's Pizza And Grill,Takeaway/sandwich shop,Unit C3,Blockhouse Close,Worcester,,WR1 2BU,Worcester City,AwaitingInspection,,FHRS,False,52.1907958984375,-2.21491694450378,"Unit C3, Blockhouse Close, Worcester, WR1 2BU"
2026-01-15,1860477,Lobon Morees Tring,Takeaway/sandwich shop,Unit 45 Silk Mill Industrial Estate,Brook Street,Tring,Hertfordshire,HP23 5EF,Dacorum,AwaitingInspection,,FHRS,False,51.7980469,-0.6594646,"Unit 45 Silk Mill Industrial Estate, Brook Street, Tring, Hertfordshire, HP23 5EF"
2026-01-15,1882325,Let's Heal Sandwich & Coffee Bar,Takeaway/sandwich shop,,141 Quarry Street,Hamilton,South Lanarkshire,ML3 7DR,South Lanarkshire,Awaiting Inspection,,FHIS,False,55.7733625,-4.0370658,"141 Quarry Street, Hamilton, South Lanarkshire, ML3 7DR"
2026-01-15,1906651,ShangHai,Takeaway/sandwich shop,,253 Glasgow Road,Hamilton,South Lanarkshire,ML3 0QG,South Lanarkshire,Awaiting Inspection,,FHIS,False,55.7834713,-4.0736983,"253 Glasgow Road, Hamilton, South Lanarkshire, ML3 0QG"
2026-01-15,1907039,Midnight Cravings,Takeaway/sandwich shop,,2 Allerton Road,Bradford,,BD8 0BJ,Bradford,AwaitingInspection,,FHRS,False,53.7990985,-1.7931543,"2 Allerton Road, Bradford, BD8 0BJ"
2026-01-15,563997,Food Station,Takeaway/sandwich shop,81 Middle Street South,Driffield,East Riding Of Yorkshire,,YO25 6QE,East Riding of Yorkshire,AwaitingInspection,,FHRS,False,54.00303,-0.436212,"81 Middle Street South, Driffield, East Riding Of Yorkshire, YO25 6QE"
2026-01-15,1906714,Zax,Takeaway/sandwich shop,117 Pasture Road,Goole,East Riding of Yorkshire,,DN14 6DP,East Riding of Yorkshire,AwaitingInspection,,FHRS,False,53.7074044,-0.8747396,"117 Pasture Road, Goole, East Riding of Yorkshire, DN14 6DP"
2026-01-15,1907024,Golden Jian,Takeaway/sandwich shop,Kingston Library,Fairfield Road,Kingston Upon Thames,,KT1 2PS,Kingston-Upon-Thames,AwaitingInspection,,FHRS,False,51.4093748,-0.3002368,"Kingston Library, Fairfield Road, Kingston Upon Thames, KT1 2PS"
2026-01-15,1907022,Hamilton Nursing Home,Takeaway/sandwich shop,24 Langley Avenue,Surbiton,,,KT6 6QW,Kingston-Upon-Thames,AwaitingInspection,,FHRS,False,51.3833213,-0.3052363,"24 Langley Avenue, Surbiton, KT6 6QW"
2026-01-15,1907013,K Korean Takeaway,Takeaway/sandwich shop,310 Ewell Road,Surbiton,,,KT6 7AL,Kingston-Upon-Thames,AwaitingInspection,,FHRS,False,51.3841778,-0.2924901,"310 Ewell Road, Surbiton, KT6 7AL"
2026-01-15,1907027,Veritas,Takeaway/sandwich shop,,,,,,Kingston-Upon-Thames,AwaitingInspection,,FHRS,False,,,
2026-01-15,1907071,Clouda,Takeaway/sandwich shop,,33 Pepper Street,London,,E14 9RP,Tower Hamlets,AwaitingInspection,,FHRS,False,51.4962553,-0.0185026,"33 Pepper Street, London, E14 9RP"
2026-01-15,1907069,Sips&Slices,Takeaway/sandwich shop,,325 Bethnal Green Road,London,,E2 6AH,Tower Hamlets,AwaitingInspection,,FHRS,False,51.5266874,-0.0639357,"325 Bethnal Green Road, London, E2 6AH"
2026-01-15,1906704,Taste of Home,Takeaway/sandwich shop,Unit 1 Bridge Road,Wellington,Telford,Shrophire,TF1 1EA,Telford and Wrekin Council,AwaitingInspection,,FHRS,False,52.7022492,-2.522309,"Unit 1 Bridge Road, Wellington, Telford, Shrophire, TF1 1EA"
2026-01-15,1802430,Filiz Kitchen,Takeaway/sandwich shop,24 Gardiner View,Oadby,Leicestershire,,LE2 4UT,Oadby and Wigston,5,2025-09-30,FHRS,False,52.5851461,-1.0643178,"24 Gardiner View, Oadby, Leicestershire, LE2 4UT"
2026-01-15,1907094,Global Wall Heath,Takeaway/sandwich shop,2 High Street,Wall Heath,Kingswinford,,DY6 0HA,Dudley,AwaitingInspection,,FHRS,False,52.504657,-2.178098,"2 High Street, Wall Heath, Kingswinford, DY6 0HA"
2026-01-15,1907091,Hong Kong Express,Takeaway/sandwich shop,88 Watsons Green Road,Dudley,,,DY2 7LG,Dudley,AwaitingInspection,,FHRS,False,52.508899,-2.066949,"88 Watsons Green Road, Dudley, DY2 7LG"
2026-01-15,1906675,Fry Chiks,Takeaway/sandwich shop,,24 Westgate,Guisborough,,TS14 6BA,Redcar and Cleveland,AwaitingInspection,,FHRS,False,54.5355651,-1.0531359,"24 Westgate, Guisborough, TS14 6BA"
2026-01-15,1907122,Braziella,Takeaway/sandwich shop,,,,,,Wirral,5,2025-12-11,FHRS,False,,,
2026-01-15,1907113,Burger bar,Takeaway/sandwich shop,135 Wallasey Village,,Wallasey Village,Wirral,CH45 3LF,Wirral,5,2026-01-06,FHRS,False,53.4238863,-3.0654179,"135 Wallasey Village, Wallasey Village, Wirral, CH45 3LF"
2026-01-15,1907124,MsSlice,Takeaway/sandwich shop,167 Bridge Street,,Birkenhead,Wirral,CH41 1AY,Wirral,AwaitingInspection,,FHRS,True,53.3966095,-3.0197341,"167 Bridge Street, Birkenhead, Wirral, CH41 1AY"
2026-01-15,1907103,Popeyes 2 pizzeria,Takeaway/sandwich shop,25 Poulton Road,,Seacombe,Wirral,CH44 6LB,Wirral,5,2026-01-10,FHRS,False,53.4121635,-3.0265509,"25 Poulton Road, Seacombe, Wirral, CH44 6LB"
2026-01-15,1907126,Ranchers,Takeaway/sandwich shop,226 Bebington Road,,Rock Ferry,Wirral,CH42 4QF,Wirral,AwaitingInspection,,FHRS,True,53.3649692,-3.0162343,"226 Bebington Road, Rock Ferry, Wirral, CH42 4QF"
2026-01-15,1907178,Smash Yard,Takeaway/sandwich shop,324 Woodchruch Road,Prenton,Wirral,,CH42 8PQ,Wirral,AwaitingInspection,,FHRS,False,53.3739361,-3.0448118,"324 Woodchruch Road, Prenton, Wirral, CH42 8PQ"
2026-01-15,1907111,YUM!,Takeaway/sandwich shop,11 - 13 Trafalgar Road,,Egremont,Wirral,CH44 0DZ,Wirral,AwaitingInspection,,FHRS,True,53.4217602,-3.0311158,"11 - 13 Trafalgar Road, Egremont, Wirral, CH44 0DZ"
2026-01-15,1907128,ZEZU,Takeaway/sandwich shop,243 Rake Lane,,New Brighton,Wirral,CH45 5DJ,Wirral,AwaitingInspection,,FHRS,True,53.4316041,-3.042919,"243 Rake Lane, New Brighton, Wirral, CH45 5DJ"
2026-01-15,1040673,TANGS DYNASTY,Takeaway/sandwich shop,1 Greyhound Court,Newcastle Road,Madeley,Newcastle Under Lyme,CW3 9EA,Newcastle-Under-Lyme,0,2025-12-10,FHRS,False,53.0014637,-2.3394612,"1 Greyhound Court, Newcastle Road, Madeley, Newcastle Under Lyme, CW3 9EA"
2026-01-16,1907735,BIG MOO,Takeaway/sandwich shop,1 Thornton Road,Thornton Heath,,,CR7 6BD,Croydon,AwaitingInspection,,FHRS,False,51.3923835754395,-0.116466000676155,"1 Thornton Road, Thornton Heath, CR7 6BD"
2026-01-16,1907600,Five Akhis,Takeaway/sandwich shop,38 HERSCHEL STREET,,SLOUGH,,SL1 1PB,Slough,AwaitingInspection,,FHRS,False,51.5070933,-0.590488,"38 HERSCHEL STREET, SLOUGH, SL1 1PB"
2026-01-16,1907605,Vathana Mahal,Takeaway/sandwich shop,19-21 ELMSHOTT LANE,,SLOUGH,,SL1 5QS,Slough,AwaitingInspection,,FHRS,False,51.5184183,-0.6449214,"19-21 ELMSHOTT LANE, SLOUGH, SL1 5QS"
2026-01-16,1907589,Royal Shawarma,Takeaway/sandwich shop,,180 York Road,Hartlepool,,TS26 9EA,Hartlepool,AwaitingInspection,,FHRS,False,54.681357,-1.216326,"180 York Road, Hartlepool, TS26 9EA"
2026-01-16,1907198,Farmhouse Pizza,Takeaway/sandwich shop,,435 Oxford Road,Reading,,RG30 1HD,Reading,2,2025-12-03,FHRS,False,51.457086,-0.997893,"435 Oxford Road, Reading, RG30 1HD"
2026-01-16,1907196,Hao Chi Oriental,Takeaway/sandwich shop,,115 Wokingham Road,Reading,,RG6 1LH,Reading,AwaitingInspection,,FHRS,False,51.448554,-0.936805,"115 Wokingham Road, Reading, RG6 1LH"
2026-01-16,1907197,Smokeez Pizza & Grill,Takeaway/sandwich shop,,357 Oxford Road,Reading,,RG30 1AY,Reading,AwaitingInspection,,FHRS,False,51.4562188,-0.994137,"357 Oxford Road, Reading, RG30 1AY"
2026-01-16,1907276,Smokin Buns,Takeaway/sandwich shop,18 Wote Street,Basingstoke,Hampshire,,RG21 7NW,Basingstoke and Deane,AwaitingInspection,,FHRS,False,51.2635222,-1.0867103,"18 Wote Street, Basingstoke, Hampshire, RG21 7NW"
2026-01-16,1907336,Dish'd,Takeaway/sandwich shop,,9 Mount Avenue,Bletchley,Milton Keynes,MK1 1LS,Milton Keynes,AwaitingInspection,,FHRS,False,52.0075196,-0.717424,"9 Mount Avenue, Bletchley, Milton Keynes, MK1 1LS"
2026-01-16,1907313,Sushi Papa,Takeaway/sandwich shop,2-3 Tickford Arcade,St John Street,Newport Pagnell,Milton Keynes,MK16 8HY,Milton Keynes,AwaitingInspection,,FHRS,False,52.0863512,-0.7220989,"2-3 Tickford Arcade, St John Street, Newport Pagnell, Milton Keynes, MK16 8HY"
2026-01-16,1907697,Cyprus Grill,Takeaway/sandwich shop,19 Clarence Street,Staines-upon-Thames,,,TW18 4SU,Spelthorne,5,2025-12-16,FHRS,False,51.433765,-0.514283,"19 Clarence Street, Staines-upon-Thames, TW18 4SU"
2026-01-16,1907696,Pizza GoGo,Takeaway/sandwich shop,95 Clare Road,Stanwell,Staines-upon-Thames,,TW19 7QP,Spelthorne,5,2025-12-16,FHRS,False,51.451317,-0.476424,"95 Clare Road, Stanwell, Staines-upon-Thames, TW19 7QP"
2026-01-16,1907290,Ezi kitchen Limited,Takeaway/sandwich shop,,,,,,Plymouth City,AwaitingInspection,,FHRS,False,,,
2026-01-16,1907288,Greek Boys,Takeaway/sandwich shop,,41 Regent Street,Plymouth,,PL4 8BB,Plymouth City,AwaitingInspection,,FHRS,False,50.373734,-4.132471,"41 Regent Street, Plymouth, PL4 8BB"
2026-01-16,1907298,Jawhar,Takeaway/sandwich shop,,62 Devonport Road,Plymouth,,PL3 4DF,Plymouth City,AwaitingInspection,,FHRS,False,50.380419,-4.16684,"62 Devonport Road, Plymouth, PL3 4DF"
2026-01-16,1907289,Lebneaz - Wraps,Takeaway/sandwich shop,,47 Bretonside,Plymouth,,PL4 0BB,Plymouth City,AwaitingInspection,,FHRS,False,50.370888,-4.134594,"47 Bretonside, Plymouth, PL4 0BB"
2026-01-16,1907297,Uni Food,Takeaway/sandwich shop,,35 Mutley Plain,Plymouth,,PL4 6JG,Plymouth City,AwaitingInspection,,FHRS,False,50.381016,-4.133122,"35 Mutley Plain, Plymouth, PL4 6JG"
2026-01-16,588289,Geeza Pizza,Takeaway/sandwich shop,Firth Road,Houstoun Industrial Estate,Livingston,,,West Lothian,Awaiting Inspection,2025-12-08,FHIS,False,55.90652335,-3.50799615,"Firth Road, Houstoun Industrial Estate, Livingston"
2026-01-16,1907752,Oriental Village,Takeaway/sandwich shop,Uphall Station Road,,Pumpherston,,EH53 0PB,West Lothian,Awaiting Inspection,2026-01-15,FHIS,False,55.9087961,-3.49483595,"Uphall Station Road, Pumpherston, EH53 0PB"
2026-01-16,1907743,Raj Mahaal,Takeaway/sandwich shop,Hopetoun Street,,Bathgate,,EH48 4EU,West Lothian,Awaiting Inspection,2025-12-15,FHIS,False,55.90295215,-3.64023255,"Hopetoun Street, Bathgate, EH48 4EU"
2026-01-16,1907654,FAT CAT FUSION,Takeaway/sandwich shop,50 St Georges Street,Birmingham,,,B19 3QU,Birmingham,AwaitingInspection,,FHRS,False,52.4896097,-1.901941,"50 St Georges Street, Birmingham, B19 3QU"
2026-01-16,1907639,Flavoureat,Takeaway/sandwich shop,586 College Road,Kingstanding,Birmingham,,B44 0HU,Birmingham,AwaitingInspection,,FHRS,False,52.5399418,-1.8707767,"586 College Road, Kingstanding, Birmingham, B44 0HU"
2026-01-16,1907650,plaice in Harborne,Takeaway/sandwich shop,293A Northfield Road,Harborne,Birmingham,,B17 0TG,Birmingham,AwaitingInspection,,FHRS,False,52.447854,-1.9666,"293A Northfield Road, Harborne, Birmingham, B17 0TG"
2026-01-16,1907657,Uk bobby cafee ltd,Takeaway/sandwich shop,212  Ladypool Road,Birmingham,,,B12 8JT,Birmingham,AwaitingInspection,,FHRS,False,52.4565563,-1.8763633,"212  Ladypool Road, Birmingham, B12 8JT"
2026-01-16,936868,Chicago Pizza and Grill,Takeaway/sandwich shop,377 Sheffield Road,Whittington Moor,,Chesterfield,S41 8LL,Chesterfield,AwaitingInspection,,FHRS,False,53.2572401,-1.4276852,"377 Sheffield Road, Whittington Moor, Chesterfield, S41 8LL"
2026-01-16,1902070,Jennys Pizza Burger House,Takeaway/sandwich shop,7 Devonia House,The Maltings,Weston-Super-Mare,,BS22 6JB,North Somerset,AwaitingInspection,,FHRS,True,51.3607191,-2.926973,"7 Devonia House, The Maltings, Weston-Super-Mare, BS22 6JB"
2026-01-16,1902069,Shore,Takeaway/sandwich shop,,,,,,North Somerset,AwaitingInspection,,FHRS,False,,,
2026-01-16,1907311,Mr Dunki,Takeaway/sandwich shop,1A Burley Street,Burley,Leeds,,LS3 1LD,Leeds,AwaitingInspection,,FHRS,False,53.8000497,-1.5591416,"1A Burley Street, Burley, Leeds, LS3 1LD"
2026-01-16,1907371,Cafe Ceylon Lincoln,Takeaway/sandwich shop,,41 High Street,Lincoln,Lincolnshire,LN5 8AS,Lincoln City,AwaitingInspection,,FHRS,False,53.2176028,-0.5457674,"41 High Street, Lincoln, Lincolnshire, LN5 8AS"
2026-01-16,1199087,Chicken Q,Takeaway/sandwich shop,225 Skellow Road,Skellow,Doncaster,,DN6 8JL,Doncaster,4,2025-07-09,FHRS,False,53.58641,-1.197049,"225 Skellow Road, Skellow, Doncaster, DN6 8JL"
2026-01-16,1907518,Clay Pot Spice,Takeaway/sandwich shop,81 Abbey Road,Dunscroft,Doncaster,,DN7 4LE,Doncaster,1,2025-11-19,FHRS,False,53.5816723,-1.0150105,"81 Abbey Road, Dunscroft, Doncaster, DN7 4LE"
2026-01-16,1907508,Dixy Chicken,Takeaway/sandwich shop,12 Silver Street,Thorne,Doncaster,,DN8 5DP,Doncaster,3,2025-11-19,FHRS,False,,,"12 Silver Street, Thorne, Doncaster, DN8 5DP"
2026-01-16,1907488,Donnie Road Fish Bar,Takeaway/sandwich shop,88 Doncaster Road,Mexborough,Doncaster,,S64 0NA,Doncaster,5,2025-07-11,FHRS,False,53.493724,-1.273759,"88 Doncaster Road, Mexborough, Doncaster, S64 0NA"
2026-01-16,1907543,Fish Bits Express Ltd,Takeaway/sandwich shop,11 - 11A Central Terrace Edlington Lane,Edlington,Doncaster,,DN12 1DH,Doncaster,AwaitingInspection,,FHRS,False,53.4825621,-1.1898349,"11 - 11A Central Terrace Edlington Lane, Edlington, Doncaster, DN12 1DH"
2026-01-16,1907393,Fresh,Takeaway/sandwich shop,16 King Avenue,New Rossington,Doncaster,,DN11 0PG,Doncaster,3,2025-02-04,FHRS,False,53.47885,-1.08072,"16 King Avenue, New Rossington, Doncaster, DN11 0PG"
2026-01-16,1907509,Mozza Prime,Takeaway/sandwich shop,13 St Davids Drive,Cusworth,Doncaster,,DN5 8NG,Doncaster,2,2025-12-03,FHRS,False,53.536333,-1.17049,"13 St Davids Drive, Cusworth, Doncaster, DN5 8NG"
2026-01-16,1907437,Oceans Takeaway,Takeaway/sandwich shop,1A Cusworth Lane,Scawsby,Doncaster,,DN5 8JJ,Doncaster,5,2025-07-17,FHRS,False,53.534392,-1.165398,"1A Cusworth Lane, Scawsby, Doncaster, DN5 8JJ"
2026-01-16,1907522,Pizza Range Express,Takeaway/sandwich shop,138 Warmsworth Road,Balby,Doncaster,,DN4 0RS,Doncaster,5,2025-09-02,FHRS,False,53.503436,-1.161769,"138 Warmsworth Road, Balby, Doncaster, DN4 0RS"
2026-01-16,1907513,Pui Kadij,Takeaway/sandwich shop,62 Hexthorpe Road,Hexthorpe,Doncaster,,DN4 0AJ,Doncaster,4,2025-12-11,FHRS,False,53.518146,-1.147091,"62 Hexthorpe Road, Hexthorpe, Doncaster, DN4 0AJ"
2026-01-16,1907425,Quick Bite Cafe,Takeaway/sandwich shop,Unit 3 Yarborough Terrace,Bentley,Doncaster,,DN5 9SL,Doncaster,1,2025-10-17,FHRS,False,53.5327753,-1.143075,"Unit 3 Yarborough Terrace, Bentley, Doncaster, DN5 9SL"
2026-01-16,875334,Roberts Golden Cod,Takeaway/sandwich shop,Roberts Golden Cod Hayfield Lane,Auckley,Doncaster,,DN9 3NB,Doncaster,5,2018-07-30,FHRS,False,,,"Roberts Golden Cod Hayfield Lane, Auckley, Doncaster, DN9 3NB"
2026-01-16,1907478,Subway @ Jet Smalley Garages,Takeaway/sandwich shop,Petrol Filling Station Selby Road,Thorne,Doncaster,,DN8 4JD,Doncaster,3,2025-05-19,FHRS,False,53.6163538,-0.9746185,"Petrol Filling Station Selby Road, Thorne, Doncaster, DN8 4JD"
2026-01-16,1907541,Taste Chinese Takeaway,Takeaway/sandwich shop,35 King Street,Thorne,Doncaster,,DN8 5AU,Doncaster,AwaitingInspection,,FHRS,False,53.612322,-0.963957,"35 King Street, Thorne, Doncaster, DN8 5AU"
2026-01-16,1907484,The Golden Grill,Takeaway/sandwich shop,72 High Street,Bentley,Doncaster,,DN5 0AT,Doncaster,2,2024-07-03,FHRS,False,53.5451959,-1.1473724,"72 High Street, Bentley, Doncaster, DN5 0AT"
2026-01-16,1907503,The New Lonsdale Chip Shop,Takeaway/sandwich shop,41 Sandringham Road,Intake,Doncaster,,DN2 5HY,Doncaster,5,2024-10-07,FHRS,False,53.526027,-1.106188,"41 Sandringham Road, Intake, Doncaster, DN2 5HY"
2026-01-16,1907411,Zesty Grill & Pizza,Takeaway/sandwich shop,44 Hexthorpe Road,Hexthorpe,Doncaster,,DN4 0BG,Doncaster,1,2025-10-16,FHRS,False,53.518749,-1.144696,"44 Hexthorpe Road, Hexthorpe, Doncaster, DN4 0BG"
2026-01-16,1907624,Dip N Dunk,Takeaway/sandwich shop,10A Bramhall Lane,Cale Green,Stockport,,SK2 6HR,Stockport,AwaitingInspection,,FHRS,False,53.397801,-2.153629,"10A Bramhall Lane, Cale Green, Stockport, SK2 6HR"
2026-01-16,906841,Gulshan,Takeaway/sandwich shop,10 Stockport Road,Marple,Stockport,,SK6 6BJ,Stockport,5,2022-10-27,FHRS,False,53.394774,-2.061421,"10 Stockport Road, Marple, Stockport, SK6 6BJ"
2026-01-16,1907631,Hurry Eats,Takeaway/sandwich shop,21 Middle Hillgate,Stockport,,,SK1 3AY,Stockport,AwaitingInspection,,FHRS,False,53.40739,-2.154852,"21 Middle Hillgate, Stockport, SK1 3AY"
2026-01-16,1907627,Kikuni Sushi,Takeaway/sandwich shop,Unit 16,School Street Industrial Estate,School Street,Hazel Grove,SK7 4RA,Stockport,AwaitingInspection,,FHRS,False,53.376249,-2.1188581,"Unit 16, School Street Industrial Estate, School Street, Hazel Grove, SK7 4RA"
2026-01-16,1907616,Pizza Magic,Takeaway/sandwich shop,2C Compstall Road,Romiley,Stockport,,SK6 4DS,Stockport,AwaitingInspection,,FHRS,False,53.413777,-2.087792,"2C Compstall Road, Romiley, Stockport, SK6 4DS"
2026-01-16,1907618,Smashed,Takeaway/sandwich shop,257 London Road,Hazel Grove,Stockport,,SK7 4PL,Stockport,AwaitingInspection,,FHRS,False,53.3790991,-2.118681,"257 London Road, Hazel Grove, Stockport, SK7 4PL"
2026-01-17,1907782,Dumpling,Takeaway/sandwich shop,150 Cheapside,London,,,EC2V 6ET,City of London Corporation,AwaitingInspection,,FHRS,False,51.51512,-0.096765,"150 Cheapside, London, EC2V 6ET"
2026-01-17,1907786,Shams Kaffe,Takeaway/sandwich shop,44 Moorfields,London,,,EC2Y 9AL,City of London Corporation,AwaitingInspection,,FHRS,False,51.519187,-0.088638,"44 Moorfields, London, EC2Y 9AL"
2026-01-17,1908242,Subway South,Takeaway/sandwich shop,Welcome Break,Fleet Service Area,Fleet Services,Fleet,GU51 1AA,Hart,5,2024-10-14,FHRS,False,51.2966299,-0.8553356,"Welcome Break, Fleet Service Area, Fleet Services, Fleet, GU51 1AA"
2026-01-17,52262,The Chicken Shop,Takeaway/sandwich shop,64 Bryn Street,Ashton-In-Makerfield,Wigan,,WN4 9AU,Wigan,3,2025-07-23,FHRS,False,53.487406,-2.638871,"64 Bryn Street, Ashton-In-Makerfield, Wigan, WN4 9AU"
2026-01-17,1908190,Burger Home Swansea,Takeaway/sandwich shop,,85 Broughton Avenue,,Blaenymaes,SA5 5LN,Swansea,AwaitingInspection,,FHRS,False,51.6538349,-3.9750001,"85 Broughton Avenue, Blaenymaes, SA5 5LN"
2026-01-17,1908189,Crazy Baker Mansel Street,Takeaway/sandwich shop,,1 Mansel Street,,City Centre,SA1 5SE,Swansea,AwaitingInspection,,FHRS,False,51.6211099,-3.947618,"1 Mansel Street, City Centre, SA1 5SE"
2026-01-17,1908182,Eastern Express,Takeaway/sandwich shop,,78 Port Tennant Road,,Port Tennant,SA1 8JF,Swansea,AwaitingInspection,,FHRS,False,51.6222959,-3.9245094,"78 Port Tennant Road, Port Tennant, SA1 8JF"
2026-01-17,1908192,Ephesus Pizzeria,Takeaway/sandwich shop,,63 High Street,,Gorseinon,SA4 4BP,Swansea,AwaitingInspection,,FHRS,False,51.669017,-4.039604,"63 High Street, Gorseinon, SA4 4BP"
2026-01-17,1908191,Greggs PLC,Takeaway/sandwich shop,,254 Oxford Street,,City Centre,SA1 3BN,Swansea,AwaitingInspection,,FHRS,False,51.6198035,-3.9459407,"254 Oxford Street, City Centre, SA1 3BN"
2026-01-17,1908198,Panku Streetfood,Takeaway/sandwich shop,Asda,Heron Way,,Morriston,SA6 8PS,Swansea,AwaitingInspection,,FHRS,False,51.6642807,-3.9166157,"Asda, Heron Way, Morriston, SA6 8PS"
2026-01-17,1907919,Pizza Hot 4 You Eastbourne,Takeaway/sandwich shop,2 Susans Road,Eastbourne,East Sussex,,BN21 3HA,Eastbourne,1,2025-09-11,FHRS,False,50.768288,0.289593,"2 Susans Road, Eastbourne, East Sussex, BN21 3HA"
2026-01-17,1907971,Huyton Kebab House,Takeaway/sandwich shop,3 Swanside Parade,Pilch Lane,Roby,Knowsley,L14 7QH,Knowsley,AwaitingInspection,,FHRS,False,53.4159665,-2.8817365,"3 Swanside Parade, Pilch Lane, Roby, Knowsley, L14 7QH"
2026-01-17,1908013,Bodanskis,Takeaway/sandwich shop,Bodanski,33 Foundry Street,Dewsbury,,WF13 1QP,Kirklees,5,2026-01-08,FHRS,False,53.6930671,-1.6291189,"Bodanski, 33 Foundry Street, Dewsbury, WF13 1QP"
2026-01-17,1908014,Maughans Bakery,Takeaway/sandwich shop,8 Sunny Bank Road,Mirfield,,,WF14 0NW,Kirklees,AwaitingInspection,,FHRS,False,53.689054,-1.693205,"8 Sunny Bank Road, Mirfield, WF14 0NW"
2026-01-17,1907867,Ayaan's Tandoori,Takeaway/sandwich shop,246 Station Road,Shotts,North Lanarkshire,,ML7 4AQ,North Lanarkshire,Awaiting Inspection,,FHIS,False,55.8198653,-3.8081025,"246 Station Road, Shotts, North Lanarkshire, ML7 4AQ"
2026-01-17,1907869,Bettys Diner,Takeaway/sandwich shop,Westfield Road,Newhouse Industrial Estate,Newhouse,,ML1 5TX,North Lanarkshire,Awaiting Inspection,,FHIS,False,,,"Westfield Road, Newhouse Industrial Estate, Newhouse, ML1 5TX"
2026-01-17,1907865,Bite 2 Eat,Takeaway/sandwich shop,13a Berwick Street,Shawhead,Coatbridge,,ML5 4NH,North Lanarkshire,Awaiting Inspection,,FHIS,False,55.8458290100098,-4.01901721954346,"13a Berwick Street, Shawhead, Coatbridge, ML5 4NH"
2026-01-17,1907866,Don's Deli,Takeaway/sandwich shop,66 Mansfield Road,Orbiston,Bellshill,,ML4 3AQ,North Lanarkshire,Awaiting Inspection,,FHIS,False,55.8139189,-4.0301184,"66 Mansfield Road, Orbiston, Bellshill, ML4 3AQ"
2026-01-17,614123,Fireaway Pizza,Takeaway/sandwich shop,Unit 12 15 St Maurices Roundabout,Cumbernauld,G68 9FW,,,North Lanarkshire,Pass,2025-11-26,FHIS,False,,,"Unit 12 15 St Maurices Roundabout, Cumbernauld, G68 9FW"
2026-01-17,1907868,Sizzler,Takeaway/sandwich shop,2 Larch Road,Abronhill,Cumbernauld,,G67 3AZ,North Lanarkshire,Awaiting Inspection,,FHIS,False,55.9593381,-3.9543288,"2 Larch Road, Abronhill, Cumbernauld, G67 3AZ"
2026-01-17,1907850,Arize,Takeaway/sandwich shop,,,,,,Leicester City,AwaitingInspection,,FHRS,False,,,
2026-01-17,1907839,Bright Panipuri,Takeaway/sandwich shop,First Floor Flat,144 Checketts Road,Leicester,,LE4 5EQ,Leicester City,AwaitingInspection,,FHRS,False,52.6578909,-1.1168157,"First Floor Flat, 144 Checketts Road, Leicester, LE4 5EQ"
2026-01-17,1907851,Chaatstop,Takeaway/sandwich shop,1-3 Herbert Avenue,Leicester,,,LE4 5DW,Leicester City,AwaitingInspection,,FHRS,True,52.6550762,-1.1191195,"1-3 Herbert Avenue, Leicester, LE4 5DW"
2026-01-17,1907846,Flavouroo Foods,Takeaway/sandwich shop,Leicester Banks Sports Club,Banks Road,Leicester,,LE2 8HA,Leicester City,AwaitingInspection,,FHRS,False,,,"Leicester Banks Sports Club, Banks Road, Leicester, LE2 8HA"
2026-01-17,1907845,KB Kakes Bakehouse,Takeaway/sandwich shop,Unit 21,Maidstone Road,Leicester,,LE2 0UB,Leicester City,AwaitingInspection,,FHRS,False,52.6356101,-1.1175045,"Unit 21, Maidstone Road, Leicester, LE2 0UB"
2026-01-17,1908106,Food of Bengal,Takeaway/sandwich shop,,,,,,Harrow,AwaitingInspection,,FHRS,False,,,
2026-01-17,1908301,M.A.K.HALAL Stoke on Trent,Takeaway/sandwich shop,,30 Stoke Road,Shelton,Stoke-On-Trent,ST4 2QX,Stoke-On-Trent,AwaitingInspection,,FHRS,False,53.012289,-2.183673,"30 Stoke Road, Shelton, Stoke-On-Trent, ST4 2QX"
2026-01-17,1907798,Lumley Fish Bar,Takeaway/sandwich shop,5 WINDSOR TERRACE,,GREAT LUMLEY,,DH3 4JR,Durham,4,2026-01-14,FHRS,False,54.8377475,-1.5396533,"5 WINDSOR TERRACE, GREAT LUMLEY, DH3 4JR"
2026-01-17,1907807,ABBEY GRILL,Takeaway/sandwich shop,11A Wilton Road,,Abbey Wood,Greenwich,SE2 9RH,Greenwich,5,2026-01-07,FHRS,False,51.49015,0.1211327,"11A Wilton Road, Abbey Wood, Greenwich, SE2 9RH"
2026-01-17,1907810,Katsu Shoku,Takeaway/sandwich shop,754 Sidcup Road,,Eltham,Greenwich,SE9 3NS,Greenwich,AwaitingInspection,,FHRS,False,51.4341617,0.0650887,"754 Sidcup Road, Eltham, Greenwich, SE9 3NS"
2026-01-17,1908068,Bao Up LTD,Takeaway/sandwich shop,,145 Garrioch Road,Glasgow,,G20 8RH,Glasgow City,Awaiting Inspection,2026-01-13,FHIS,False,55.885927,-4.28819,"145 Garrioch Road, Glasgow, G20 8RH"
2026-01-17,1908065,Chillies,Takeaway/sandwich shop,,1783 Paisley Road West,Glasgow,,G52 3SS,Glasgow City,Improvement Required,2026-01-12,FHIS,False,55.845461,-4.342329,"1783 Paisley Road West, Glasgow, G52 3SS"
2026-01-17,1908071,The Fisherman,Takeaway/sandwich shop,,1499 Dumbarton Road,Glasgow,,G14 9XL,Glasgow City,Awaiting Inspection,2026-01-14,FHIS,False,55.877967,-4.348571,"1499 Dumbarton Road, Glasgow, G14 9XL"
2026-01-17,1907983,Canoe Express,Takeaway/sandwich shop,51 Wakefield Road,Normanton,,,WF6 1AG,Wakefield,AwaitingInspection,,FHRS,False,53.696918,-1.422573,"51 Wakefield Road, Normanton, WF6 1AG"
2026-01-17,1907995,Oriando's,Takeaway/sandwich shop,Kirkhamgate Fisheries,189 Batley Road,Kirkhamgate,Wakefield,WF2 0SH,Wakefield,AwaitingInspection,,FHRS,False,,,"Kirkhamgate Fisheries, 189 Batley Road, Kirkhamgate, Wakefield, WF2 0SH"
2026-01-17,1907987,Pie & Pastry,Takeaway/sandwich shop,19 Tithe Barn Street,Horbury,Wakefield,,WF4 6LJ,Wakefield,AwaitingInspection,,FHRS,False,53.661235,-1.557878,"19 Tithe Barn Street, Horbury, Wakefield, WF4 6LJ"
2026-01-17,1907982,Wakefield Pizzeria & Kebab House,Takeaway/sandwich shop,2A Dewsbury Road,Wakefield,,,WF2 9BS,Wakefield,AwaitingInspection,,FHRS,False,53.679374,-1.514102,"2A Dewsbury Road, Wakefield, WF2 9BS"
2026-01-17,1899973,Beat Your Hunger,Takeaway/sandwich shop,Town Wall,Dennison Road,Bodmin,Cornwall,PL31 2LS,Cornwall,5,2026-01-15,FHRS,False,50.4718753,-4.7265301,"Town Wall, Dennison Road, Bodmin, Cornwall, PL31 2LS"
