date_added,FHRSID,BusinessName,BusinessType,AddressLine1,AddressLine2,AddressLine3,AddressLine4,PostCode,LocalAuthorityName,RatingValue,RatingDate,SchemeType,NewRatingPending,Latitude,Longitude,AddressSingleLine
2026-01-01,1904400,Spice Boom,Takeaway/sandwich shop,Aniseed,31A High Street,Edenbridge,Kent,TN8 5AD,Sevenoaks,AwaitingInspection,,FHRS,False,51.1975665,0.0653264,"Aniseed, 31A High Street, Edenbridge, Kent, TN8 5AD"
2026-01-01,1904409,Oh My Doh Redditch,Takeaway/sandwich shop,Unit 1,Walford Walk,Kingfisher Shopping Centre,Redditch,B97 4HJ,Redditch,AwaitingInspection,,FHRS,False,52.3050688,-1.9405936,"Unit 1, Walford Walk, Kingfisher Shopping Centre, Redditch, B97 4HJ"
2026-01-01,1904343,M1 Pizza & Grill,Takeaway/sandwich shop,20 Bedford Road,Brogborough,Bedford,,MK43 0XY,Central Bedfordshire,AwaitingInspection,,FHRS,False,52.034056,-0.598573,"20 Bedford Road, Brogborough, Bedford, MK43 0XY"
2026-01-01,1904322,Bite & Bliss,Takeaway/sandwich shop,14 Chapel Street,,Guildford,Surrey,GU1 1UL,Guildford,AwaitingInspection,,FHRS,False,,,"14 Chapel Street, Guildford, Surrey, GU1 1UL"
2026-01-01,1904363,Funky Grill,Takeaway/sandwich shop,3 Wolverhampton Road,Bloxwich,Walsall,West Midlands,WS3 2EY,Walsall,AwaitingInspection,,FHRS,False,52.618244,-2.005303,"3 Wolverhampton Road, Bloxwich, Walsall, West Midlands, WS3 2EY"
2026-01-01,1904372,Shelfield Fish Bar,Takeaway/sandwich shop,77 Lichfield Road,Shelfield,Walsall,West Midlands,WS4 1PU,Walsall,1,2025-11-22,FHRS,False,52.617155,-1.950698,"77 Lichfield Road, Shelfield, Walsall, West Midlands, WS4 1PU"
2026-01-01,1904334,Steak Pizza,Takeaway/sandwich shop,Unit 9,Clifton Parade,Bristol Avenue,Farington,PR25 4YU,South Ribble,AwaitingInspection,,FHRS,False,53.7037633,-2.6800259,"Unit 9, Clifton Parade, Bristol Avenue, Farington, PR25 4YU"
2026-01-01,1904407,Istanbul Kebab And Pizza Ltd / Chigao Pizza,Takeaway/sandwich shop,33 Worcester Road,Bromsgrove,Worcestershire,,B61 7DN,Bromsgrove,AwaitingInspection,,FHRS,False,52.332427,-2.063512,"33 Worcester Road, Bromsgrove, Worcestershire, B61 7DN"
2026-01-01,1904422,Halal Fast Food,Takeaway/sandwich shop,4 Northfield Parade,Station Road,,Hayes,UB3 4JA,Hillingdon,AwaitingInspection,,FHRS,False,51.5009968,-0.4237903,"4 Northfield Parade, Station Road, Hayes, UB3 4JA"
2026-01-01,1904399,New Jade Palace,Takeaway/sandwich shop,8 Bridge Road,Southampton,,,SO19 7GQ,Southampton,AwaitingInspection,,FHRS,False,50.901392,-1.376553,"8 Bridge Road, Southampton, SO19 7GQ"
2026-01-01,1904432,LAWIN Kitchen,Takeaway/sandwich shop,314-316 High Street,Enfield,,,EN3 4HF,Enfield,AwaitingInspection,,FHRS,False,51.6480273,-0.0467586,"314-316 High Street, Enfield, EN3 4HF"
2026-01-01,907342,Leo's Coffee Stop @platform 1,Takeaway/sandwich shop,Enfield Chase Station,Windmill Hill,ENFIELD,,EN2 7AA,Enfield,5,2019-05-30,FHRS,False,51.653259,-0.091027,"Enfield Chase Station, Windmill Hill, ENFIELD, EN2 7AA"
2026-01-01,1904441,Swahili Kob Unit B2,Takeaway/sandwich shop,Commercial Premises,Eleys Industrial Estate,Nobel Road,Edmonton,N18 3BH,Enfield,AwaitingInspection,,FHRS,False,51.6206987,-0.0435275,"Commercial Premises, Eleys Industrial Estate, Nobel Road, Edmonton, N18 3BH"
2026-01-01,1904357,Antep27 Ltd,Takeaway/sandwich shop,128 High Street,,Hungerford,West Berkshire,RG17 0DL,West Berkshire,AwaitingInspection,,FHRS,False,51.4160857,-1.5146174,"128 High Street, Hungerford, West Berkshire, RG17 0DL"
2026-01-01,1904416,Souvlaki Place,Takeaway/sandwich shop,1A Belmont Road,Wallington,,,SM6 8TE,Sutton,AwaitingInspection,,FHRS,False,51.3619824,-0.1502835,"1A Belmont Road, Wallington, SM6 8TE"
2026-01-01,1904298,Leeds Top Pizza,Takeaway/sandwich shop,244 Roundhay Road,Leeds,,,LS8 5RL,Leeds,AwaitingInspection,,FHRS,False,53.817073,-1.5164,"244 Roundhay Road, Leeds, LS8 5RL"
2026-01-01,1904310,Sweet Street Leeds,Takeaway/sandwich shop,Unit 21,Unity Business Centre,26 Roundhay Road,Leeds,LS7 1AB,Leeds,AwaitingInspection,,FHRS,False,53.8086124,-1.5320819,"Unit 21, Unity Business Centre, 26 Roundhay Road, Leeds, LS7 1AB"
2026-01-01,1904404,Punjabi Kitchen,Takeaway/sandwich shop,12 Gilbert Road,Belvedere,Kent,,DA17 5DA,Bexley,AwaitingInspection,,FHRS,False,51.491457,0.146624,"12 Gilbert Road, Belvedere, Kent, DA17 5DA"
2026-01-03,1904477,Usta Pizza And Charcoal Grill,Takeaway/sandwich shop,111 High Street,Milton Regis,Sittingbourne,Kent,ME10 2AR,Swale,5,2025-12-18,FHRS,False,51.349203,0.732172,"111 High Street, Milton Regis, Sittingbourne, Kent, ME10 2AR"
2026-01-03,1904523,Grandad's Kitchen Ltd,Takeaway/sandwich shop,100 Abbey Street,Accrington,Lancashire,,BB5 1EE,Hyndburn,AwaitingInspection,,FHRS,False,53.7510411,-2.3613563,"100 Abbey Street, Accrington, Lancashire, BB5 1EE"
2026-01-03,1904520,Spice and Fire,Takeaway/sandwich shop,50 Whalley Road,Accrington,Lancashire,,BB5 1AR,Hyndburn,AwaitingInspection,,FHRS,False,53.7554251,-2.3640991,"50 Whalley Road, Accrington, Lancashire, BB5 1AR"
2026-01-03,1904543,Gupshup,Takeaway/sandwich shop,,,,,,Harrow,AwaitingInspection,,FHRS,False,,,
2026-01-03,1904542,Street Food Junction,Takeaway/sandwich shop,242A Northolt Road,Harrow,,,HA2 8DU,Harrow,AwaitingInspection,,FHRS,False,51.5646029,-0.353996,"242A Northolt Road, Harrow, HA2 8DU"
2026-01-03,1904548,Syria food,Takeaway/sandwich shop,Unit 36 South Harrow Market Northolt Road,Harrow,,,HA2 0EU,Harrow,AwaitingInspection,,FHRS,False,51.5651016,-0.3530113,"Unit 36 South Harrow Market Northolt Road, Harrow, HA2 0EU"
2026-01-03,1564135,Velo Bakery And Pizza,Takeaway/sandwich shop,London Road Garage,London Road,Thrupp,Stroud,GL5 2BN,Stroud,4,2025-11-28,FHRS,False,51.7249712,-2.1993496,"London Road Garage, London Road, Thrupp, Stroud, GL5 2BN"
2026-01-03,1904493,Papudom 4U,Takeaway/sandwich shop,39 Aldergate,,,Tamworth,B79 7DD,Tamworth,AwaitingInspection,,FHRS,False,52.634524,-1.697035,"39 Aldergate, Tamworth, B79 7DD"
2026-01-03,1401267,Andover Kebab And Pizza House,Takeaway/sandwich shop,39 London Street,Andover,Hampshire,,SP10 2NU,Test Valley,3,2024-06-28,FHRS,False,51.206365,-1.477629,"39 London Street, Andover, Hampshire, SP10 2NU"
2026-01-03,1904606,TBC,Takeaway/sandwich shop,Lansdales House,Lansdales Road,High Wycombe,Buckinghamshire,HP11 2PB,Buckinghamshire,AwaitingInspection,,FHRS,False,51.6319883,-0.7614777,"Lansdales House, Lansdales Road, High Wycombe, Buckinghamshire, HP11 2PB"
2026-01-03,1904505,My-Style,Takeaway/sandwich shop,,,,,,Reigate and Banstead,AwaitingInspection,,FHRS,False,,,
2026-01-03,1904526,D Flame & Grill,Takeaway/sandwich shop,,134 Bradshawgate,Bolton,,BL2 1AY,Bolton,AwaitingInspection,,FHRS,False,53.576344,-2.425756,"134 Bradshawgate, Bolton, BL2 1AY"
2026-01-03,1904484,Athena B Fish And Chips,Takeaway/sandwich shop,27 Station Road,Portslade,,,BN41 1GB,Brighton and Hove,AwaitingInspection,,FHRS,False,50.833752,-0.207325,"27 Station Road, Portslade, BN41 1GB"
2026-01-03,1904482,Fuel Kitchen,Takeaway/sandwich shop,2 The Parade,Valley Drive,Brighton,,BN1 5FQ,Brighton and Hove,AwaitingInspection,,FHRS,False,50.856617,-0.168782,"2 The Parade, Valley Drive, Brighton, BN1 5FQ"
2026-01-03,1904592,A1 Spice,Takeaway/sandwich shop,Unit 3 Genoa Building,20 North Street,,Barking,IG11 8AW,Barking and Dagenham,AwaitingInspection,,FHRS,False,51.5368661,0.0766505,"Unit 3 Genoa Building, 20 North Street, Barking, IG11 8AW"
2026-01-03,1904584,Punjabi Cooking Studio LTD,Takeaway/sandwich shop,,Unit 6a Barking Business Centre,,Thames Road,IG11 0JP,Barking and Dagenham,AwaitingInspection,,FHRS,False,51.5253705,0.1048944,"Unit 6a Barking Business Centre, Thames Road, IG11 0JP"
2026-01-03,1904564,Golden Sunrise,Takeaway/sandwich shop,137 Mount Road,Wallasey,Wirral,,CH45 9JS,Wirral,AwaitingInspection,,FHRS,True,53.4347047,-3.0534464,"137 Mount Road, Wallasey, Wirral, CH45 9JS"
2026-01-05,1904612,Moonhouse,Takeaway/sandwich shop,56 Woodgrange Road,Forest Gate,London,,E7 0QH,Newham,AwaitingInspection,,FHRS,False,51.548599,0.02514,"56 Woodgrange Road, Forest Gate, London, E7 0QH"
2026-01-06,1904728,Sawston Pizza,Takeaway/sandwich shop,56 High Street,,Sawston,Cambridgeshire,CB22 3BG,South Cambridgeshire,AwaitingInspection,,FHRS,False,52.1223162,0.1697525,"56 High Street, Sawston, Cambridgeshire, CB22 3BG"
2026-01-06,1904643,India2cardiff,Takeaway/sandwich shop,58 Clearwater Way,Cyncoed,Cardiff,,CF23 6DJ,Caerdydd,AwaitingInspection,,FHRS,False,51.5145921,-3.1693104,"58 Clearwater Way, Cyncoed, Cardiff, CF23 6DJ"
2026-01-06,1904646,ORIENT EXPRESS,Takeaway/sandwich shop,18 Mackintosh Place,Roath,Cardiff,,CF24 4RQ,Caerdydd,AwaitingInspection,,FHRS,False,51.4930228,-3.1717685,"18 Mackintosh Place, Roath, Cardiff, CF24 4RQ"
2026-01-06,1904833,Cache At Home,Takeaway/sandwich shop,Business,256 - 258 Brixton Road,London,,SW9 6AQ,Lambeth,AwaitingInspection,,FHRS,False,51.4711026,-0.112972,"Business, 256 - 258 Brixton Road, London, SW9 6AQ"
2026-01-06,1899519,Mr Prep,Takeaway/sandwich shop,Unit 4,Hunt End Industrial Estate,Dunlop Road,Redditch,B97 5XP,Redditch,AwaitingInspection,,FHRS,False,52.2750367,-1.9511575,"Unit 4, Hunt End Industrial Estate, Dunlop Road, Redditch, B97 5XP"
2026-01-06,1904713,Subway,Takeaway/sandwich shop,SUBWAY,11 Bishop Hall Lane,Chelmsford,,CM1 1SH,Chelmsford,AwaitingInspection,,FHRS,False,51.7412292,0.4730923,"SUBWAY, 11 Bishop Hall Lane, Chelmsford, CM1 1SH"
2026-01-06,1904844,Munch N Go,Takeaway/sandwich shop,50A Moathouse Lane East,Wolverhampton,West Midlands,,WV11 3DD,Wolverhampton,AwaitingInspection,,FHRS,False,52.6081776,-2.0731065,"50A Moathouse Lane East, Wolverhampton, West Midlands, WV11 3DD"
2026-01-06,1904643,India2cardiff,Takeaway/sandwich shop,58 Clearwater Way,Cyncoed,Cardiff,,CF23 6DJ,Cardiff,AwaitingInspection,,FHRS,False,51.5145921,-3.1693104,"58 Clearwater Way, Cyncoed, Cardiff, CF23 6DJ"
2026-01-06,1904646,ORIENT EXPRESS,Takeaway/sandwich shop,18 Mackintosh Place,Roath,Cardiff,,CF24 4RQ,Cardiff,AwaitingInspection,,FHRS,False,51.4930228,-3.1717685,"18 Mackintosh Place, Roath, Cardiff, CF24 4RQ"
2026-01-06,1337730,Boss Pizza,Takeaway/sandwich shop,,54 Kilbowie Road,Clydebank,,G81 1TH,West Dunbartonshire,Awaiting Inspection,2025-02-03,FHIS,False,55.9012687,-4.4053813,"54 Kilbowie Road, Clydebank, G81 1TH"
2026-01-06,1904764,Pixi's Caribbean,Takeaway/sandwich shop,,109 Bridge Street,,,WA1 2HR,Warrington,AwaitingInspection,,FHRS,False,53.3869123,-2.591938,"109 Bridge Street, WA1 2HR"
2026-01-06,1904825,Bertie's Shirts,Takeaway/sandwich shop,,10 Wellington Street,Gateshead,,NE8 2AJ,Gateshead,AwaitingInspection,,FHRS,False,54.9654027,-1.6061019,"10 Wellington Street, Gateshead, NE8 2AJ"
2026-01-06,1904824,Chippy Chappy,Takeaway/sandwich shop,,7,Kingsway North,Team Valley,NE11 0EN,Gateshead,AwaitingInspection,,FHRS,False,,,"7, Kingsway North, Team Valley, NE11 0EN"
2026-01-06,1904827,Dr Drinks,Takeaway/sandwich shop,,,Metro Centre,Whickham,NE11 9YZ,Gateshead,AwaitingInspection,,FHRS,False,54.958263,-1.6667191,"Metro Centre, Whickham, NE11 9YZ"
2026-01-06,1904829,P Dragon,Takeaway/sandwich shop,,Unit 3 Whickham Industrial Estate,Swalwell,Whickham,NE16 3DA,Gateshead,AwaitingInspection,,FHRS,False,54.9523277282715,-1.68808698654175,"Unit 3 Whickham Industrial Estate, Swalwell, Whickham, NE16 3DA"
2026-01-06,1904810,Kims Bulgogi,Takeaway/sandwich shop,11 St Stephen Street,Edinburgh,,,EH3 5AN,Edinburgh (City of),Awaiting Inspection,2026-01-05,FHIS,False,55.957658,-3.207436,"11 St Stephen Street, Edinburgh, EH3 5AN"
2026-01-06,1904800,Shawarma Al Sultan,Takeaway/sandwich shop,79 Dalry Road,Edinburgh,,,EH11 2AA,Edinburgh (City of),Awaiting Inspection,2025-12-23,FHIS,False,55.943855,-3.218487,"79 Dalry Road, Edinburgh, EH11 2AA"
2026-01-06,1904834,Mac Flames Macclesfield,Takeaway/sandwich shop,55 Sunderland Street,Macclesfield,,Cheshire,SK11 6HN,Cheshire East,AwaitingInspection,,FHRS,False,53.2572983,-2.1227552,"55 Sunderland Street, Macclesfield, Cheshire, SK11 6HN"
2026-01-06,1904719,Hungry Hub,Takeaway/sandwich shop,55 Upper High Street,Epsom,Surrey,,KT17 4RA,Epsom and Ewell,AwaitingInspection,,FHRS,False,51.334622,-0.26123,"55 Upper High Street, Epsom, Surrey, KT17 4RA"
2026-01-06,1904717,Siva Chicken Shop,Takeaway/sandwich shop,Sandies Flowers,27 Pound Lane,Epsom,Surrey,KT19 8RY,Epsom and Ewell,AwaitingInspection,,FHRS,False,51.3401556,-0.2688517,"Sandies Flowers, 27 Pound Lane, Epsom, Surrey, KT19 8RY"
2026-01-06,1904662,Charcoal Kitchen,Takeaway/sandwich shop,Unit A 9 Mount Avenue,Bletchley,Milton Keynes,,MK1 1LS,Milton Keynes,AwaitingInspection,,FHRS,False,,,"Unit A 9 Mount Avenue, Bletchley, Milton Keynes, MK1 1LS"
2026-01-06,1904674,Chilli chilli chilli limited,Takeaway/sandwich shop,Borough Market,8,Southwark Street,London,SE1 1TL,Southwark,AwaitingInspection,,FHRS,False,51.505093,-0.090093,"Borough Market, 8, Southwark Street, London, SE1 1TL"
2026-01-06,1904671,La tua pasta ltd,Takeaway/sandwich shop,Borough Market,8,Southwark Street,London,SE1 1TL,Southwark,AwaitingInspection,,FHRS,False,51.505093,-0.090093,"Borough Market, 8, Southwark Street, London, SE1 1TL"
2026-01-06,1904664,Patty bros,Takeaway/sandwich shop,4 At Unit 10 The Aylesham Centre,,Rye Lane,London,SE15 5EW,Southwark,AwaitingInspection,,FHRS,False,51.4723656,-0.0694128,"4 At Unit 10 The Aylesham Centre, Rye Lane, London, SE15 5EW"
2026-01-06,1904669,Royal mahal,Takeaway/sandwich shop,,145,Ormside Street,,SE15 1TF,Southwark,AwaitingInspection,,FHRS,False,51.4838768,-0.0560141,"145, Ormside Street, SE15 1TF"
2026-01-06,1904670,The cinnamon tree bakery,Takeaway/sandwich shop,Green Market Borough Market,8,Southwark Street,London,SE1 9AL,Southwark,AwaitingInspection,,FHRS,False,51.505428,-0.090252,"Green Market Borough Market, 8, Southwark Street, London, SE1 9AL"
2026-01-06,1615219,The merge,Takeaway/sandwich shop,Arches 247a And 248,1-9,Pelier Street,London,SE17 3JG,Southwark,3,2025-09-11,FHRS,False,51.4840717,-0.0958303,"Arches 247a And 248, 1-9, Pelier Street, London, SE17 3JG"
2026-01-06,1904679,Hastings Spice,Takeaway/sandwich shop,51 Bohemia Road,St Leonards-on-sea,East Sussex,,TN37 6RE,Hastings,AwaitingInspection,,FHRS,False,50.863421,0.559057,"51 Bohemia Road, St Leonards-on-sea, East Sussex, TN37 6RE"
2026-01-06,1904629,Gills Silverlink Ltd,Takeaway/sandwich shop,12B New York Way,New York Industrial Park,North Shields,Tyne And Wear,NE27 0QF,North Tyneside,5,2025-12-17,FHRS,False,55.0209259,-1.4929698,"12B New York Way, New York Industrial Park, North Shields, Tyne And Wear, NE27 0QF"
2026-01-06,1904628,Souvlaki Time,Takeaway/sandwich shop,2B Duke Street,Whitley Bay,Tyne And Wear,,NE26 3PP,North Tyneside,AwaitingInspection,,FHRS,True,55.043432,-1.451968,"2B Duke Street, Whitley Bay, Tyne And Wear, NE26 3PP"
2026-01-06,1904815,Smash City,Takeaway/sandwich shop,,217 Bobbers Mill Road,,Nottingham,NG7 5JP,Nottingham City,AwaitingInspection,,FHRS,False,52.965246,-1.179151,"217 Bobbers Mill Road, Nottingham, NG7 5JP"
2026-01-06,1742715,Subway,Takeaway/sandwich shop,67 Western Road,Brighton,,,BN1 2HA,Brighton and Hove,5,2024-10-25,FHRS,False,50.824135,-0.149564,"67 Western Road, Brighton, BN1 2HA"
2026-01-06,1904811,Copper Kadai,Takeaway/sandwich shop,3 Neeld Parade,Wembley Hill Road,Wembley,,HA9 6QU,Brent,5,2025-12-03,FHRS,False,51.5534997,-0.2862828,"3 Neeld Parade, Wembley Hill Road, Wembley, HA9 6QU"
2026-01-06,1851247,Milano Pizzeria,Takeaway/sandwich shop,Milano Pizzeria 13 Millgate,,,THIRSK,YO7 1AA,North Yorkshire,1,2025-10-29,FHRS,False,54.2335887,-1.3422771,"Milano Pizzeria 13 Millgate, THIRSK, YO7 1AA"
2026-01-06,1904639,Hooked Fish & Chips,Takeaway/sandwich shop,166 Rhuddlan Road,,Rhyl,,LL18 2RF,Denbighshire,AwaitingInspection,,FHRS,False,53.3064925,-3.4686699,"166 Rhuddlan Road, Rhyl, LL18 2RF"
2026-01-06,1699962,Mr. Hot Wings,Takeaway/sandwich shop,178 Upper Wickham Lane,Welling,Kent,,DA16 3EB,Bexley,3,2025-12-08,FHRS,False,51.4684600830078,0.110067002475262,"178 Upper Wickham Lane, Welling, Kent, DA16 3EB"
2026-01-06,1904639,Hooked Fish & Chips,Takeaway/sandwich shop,166 Rhuddlan Road,,Rhyl,,LL18 2RF,Sir Ddinbych,AwaitingInspection,,FHRS,False,53.3064925,-3.4686699,"166 Rhuddlan Road, Rhyl, LL18 2RF"
2026-01-06,1904773,Bamboo Kitchen,Takeaway/sandwich shop,24 Wellington Road,Oxton,Wirral,,CH43 2JE,Wirral,2,2025-10-30,FHRS,False,53.3836608,-3.0521611,"24 Wellington Road, Oxton, Wirral, CH43 2JE"
2026-01-07,1905101,Merrie England,Takeaway/sandwich shop,Bus Station,Wade Street,Halifax,Calderdale,HX1 1SN,Calderdale,AwaitingInspection,,FHRS,False,53.724665,-1.8584893,"Bus Station, Wade Street, Halifax, Calderdale, HX1 1SN"
2026-01-07,1904879,Lahori Nashta&takeaway,Takeaway/sandwich shop,Lahori Nashta and Takeaway,10B Union Street,Heckmondwike,,WF16 0HH,Kirklees,AwaitingInspection,,FHRS,False,53.7073647,-1.6779675,"Lahori Nashta and Takeaway, 10B Union Street, Heckmondwike, WF16 0HH"
2026-01-07,1904983,BOMBAY PIZZA,Takeaway/sandwich shop,Unit M209 Hawley Wharf,Water Lane,,London,NW1 8JZ,Camden,AwaitingInspection,,FHRS,False,51.541834,-0.1439796,"Unit M209 Hawley Wharf, Water Lane, London, NW1 8JZ"
2026-01-07,1904971,FLIP & ROLL,Takeaway/sandwich shop,,29 Endell Street,,London,WC2H 9BA,Camden,AwaitingInspection,,FHRS,False,51.5144564,-0.1247432,"29 Endell Street, London, WC2H 9BA"
2026-01-07,1904994,Grounded Burger Smash & Flame,Takeaway/sandwich shop,,11 Kentish Town Road,,London,NW1 8NH,Camden,AwaitingInspection,,FHRS,False,51.5397033,-0.1425385,"11 Kentish Town Road, London, NW1 8NH"
2026-01-07,1904972,Palestine House,Takeaway/sandwich shop,Palestine House,113 High Holborn,,London,WC1V 6JQ,Camden,AwaitingInspection,,FHRS,False,51.5178578,-0.1198181,"Palestine House, 113 High Holborn, London, WC1V 6JQ"
2026-01-07,1904992,POPULUS TEA,Takeaway/sandwich shop,,,,,,Camden,AwaitingInspection,,FHRS,False,,,
2026-01-07,1904951,Shepherds Chicken And Pizza,Takeaway/sandwich shop,36 Shepherds Lane,Dartford,Kent,,DA1 2NY,Dartford,AwaitingInspection,,FHRS,False,51.443914,0.200331,"36 Shepherds Lane, Dartford, Kent, DA1 2NY"
2026-01-07,1904944,The Hutch,Takeaway/sandwich shop,35 - 37 Eastern Esplanade,Canvey Island,Essex,,SS8 7DN,Castle Point,AwaitingInspection,,FHRS,False,51.512844,0.597704,"35 - 37 Eastern Esplanade, Canvey Island, Essex, SS8 7DN"
2026-01-07,1905040,Ali's Takeway,Takeaway/sandwich shop,27 Central Drive,,Spennymoor,United Kingdom,DL16 7DJ,Durham,AwaitingInspection,,FHRS,False,54.6893118,-1.6156683,"27 Central Drive, Spennymoor, United Kingdom, DL16 7DJ"
2026-01-07,1889577,Belmont Tandoori,Takeaway/sandwich shop,16 CHEVELEY PARK SHOPPING CENTRE,,BELMONT,,DH1 2AA,Durham,4,2025-10-16,FHRS,False,54.7857037,-1.5247869,"16 CHEVELEY PARK SHOPPING CENTRE, BELMONT, DH1 2AA"
2026-01-07,1905021,Best Kebab,Takeaway/sandwich shop,4 SOUTH STREET,,CROOK,,DL15 8NE,Durham,AwaitingInspection,,FHRS,False,54.7144819,-1.7452283,"4 SOUTH STREET, CROOK, DL15 8NE"
2026-01-07,696339,CHEEZY PIZZA,Takeaway/sandwich shop,8 HAIG TERRACE,DEAN BANK,FERRYHILL,,DL17 8NR,Durham,5,2025-12-16,FHRS,False,54.6873644,-1.56335,"8 HAIG TERRACE, DEAN BANK, FERRYHILL, DL17 8NR"
2026-01-07,1905034,Gilesgate tandoori,Takeaway/sandwich shop,39 MARSHALL TERRACE,,GILESGATE,,DH1 2HX,Durham,AwaitingInspection,,FHRS,False,54.7802346,-1.5457982,"39 MARSHALL TERRACE, GILESGATE, DH1 2HX"
2026-01-07,1905022,Lisa Buffet,Takeaway/sandwich shop,28 WOODLANDS AVENUE,,WHEATLEY HILL,,DH6 3LG,Durham,AwaitingInspection,,FHRS,False,54.7410984,-1.4162857,"28 WOODLANDS AVENUE, WHEATLEY HILL, DH6 3LG"
2026-01-07,1905037,LUCKY 8 Chinese Takeaway,Takeaway/sandwich shop,5 COWLEY STREET,,SHOTTON COLLIERY,,DH6 2LP,Durham,AwaitingInspection,,FHRS,False,54.7617744,-1.3866129,"5 COWLEY STREET, SHOTTON COLLIERY, DH6 2LP"
2026-01-07,1905011,Lumley Pizza,Takeaway/sandwich shop,UNIT 5A CASTLE PARADE FRONT STREET,,GREAT LUMLEY,,DH3 4JB,Durham,AwaitingInspection,,FHRS,True,54.8364921,-1.5477327,"UNIT 5A CASTLE PARADE FRONT STREET, GREAT LUMLEY, DH3 4JB"
2026-01-07,1905038,new century,Takeaway/sandwich shop,87 DURHAM ROAD,,BLACKHILL,,DH8 8RR,Durham,AwaitingInspection,,FHRS,False,54.8611347,-1.8495218,"87 DURHAM ROAD, BLACKHILL, DH8 8RR"
2026-01-07,1905023,Pizza Time,Takeaway/sandwich shop,1 DARLINGTON ROAD,,FERRYHILL,,DL17 8JP,Durham,AwaitingInspection,,FHRS,False,54.688261,-1.5578025,"1 DARLINGTON ROAD, FERRYHILL, DL17 8JP"
2026-01-07,1905039,Pizza Villa,Takeaway/sandwich shop,DANBY HOUSE THE VILLAS,,THORNLEY,,DH6 3EU,Durham,AwaitingInspection,,FHRS,False,54.7498341,-1.4395115,"DANBY HOUSE THE VILLAS, THORNLEY, DH6 3EU"
2026-01-07,1682978,Speedy Pepper,Takeaway/sandwich shop,64 FORE BONDGATE,,BISHOP AUCKLAND,,DL14 7PE,Durham,5,2025-10-14,FHRS,False,54.6655002,-1.6752412,"64 FORE BONDGATE, BISHOP AUCKLAND, DL14 7PE"
2026-01-07,1905027,The Chatterbox Sandwich Shop,Takeaway/sandwich shop,75 FRONT STREET,,COCKFIELD,,DL13 5DJ,Durham,AwaitingInspection,,FHRS,False,54.6130886,-1.8051768,"75 FRONT STREET, COCKFIELD, DL13 5DJ"
2026-01-07,1905043,The Coffee & Co.,Takeaway/sandwich shop,22 PENSHAW VIEW,,SACRISTON,,DH7 6UX,Durham,AwaitingInspection,,FHRS,False,54.8158889,-1.6191075,"22 PENSHAW VIEW, SACRISTON, DH7 6UX"
2026-01-07,1905019,Tindale Deli,Takeaway/sandwich shop,WORKING MENS CLUB AND INSTITUTE TINDALE CRESCENT,,BISHOP AUCKLAND,,DL14 9SS,Durham,5,2025-12-18,FHRS,False,,,"WORKING MENS CLUB AND INSTITUTE TINDALE CRESCENT, BISHOP AUCKLAND, DL14 9SS"
2026-01-07,1905146,Empanading,Takeaway/sandwich shop,within Mokka,2-6 Southway,Eccles,,M30 0LJ,Salford,AwaitingInspection,,FHRS,False,53.4831001,-2.337509,"within Mokka, 2-6 Southway, Eccles, M30 0LJ"
2026-01-07,1901104,Jade Palace,Takeaway/sandwich shop,1 Victoria Road,Roche,St Austell,Cornwall,PL26 8JF,Cornwall,4,2025-12-08,FHRS,False,50.408541,-4.832596,"1 Victoria Road, Roche, St Austell, Cornwall, PL26 8JF"
2026-01-07,1905144,Grill Cartel Acton,Takeaway/sandwich shop,Blue Star Hotel,51 - 53 Steyne Road,Acton,,W3 9NU,Ealing,AwaitingInspection,,FHRS,False,51.5093754,-0.272304,"Blue Star Hotel, 51 - 53 Steyne Road, Acton, W3 9NU"
2026-01-07,1904908,KALAVARA- kerala Home Kitchen,Takeaway/sandwich shop,,,,,,South Oxfordshire,AwaitingInspection,,FHRS,False,,,
2026-01-07,1905068,Bens fire and feast,Takeaway/sandwich shop,,112 Birley Spa Lane,Sheffield,,S12 4EJ,Sheffield,AwaitingInspection,,FHRS,False,53.347159,-1.378082,"112 Birley Spa Lane, Sheffield, S12 4EJ"
2026-01-07,1905069,Burritos y mas,Takeaway/sandwich shop,,663 Chesterfield Road,Sheffield,,S8 0RY,Sheffield,AwaitingInspection,,FHRS,False,53.3453219,-1.4782555,"663 Chesterfield Road, Sheffield, S8 0RY"
2026-01-07,1905067,Grab n Go,Takeaway/sandwich shop,,St. Marys Gate,Sheffield,,S2 4QA,Sheffield,AwaitingInspection,,FHRS,False,,,"St. Marys Gate, Sheffield, S2 4QA"
2026-01-07,1904871,Bengal Munchies,Takeaway/sandwich shop,3 Dalelands West,,Market Drayton,Shropshire,TF9 1DG,Shropshire,AwaitingInspection,,FHRS,True,52.8971523,-2.4970476,"3 Dalelands West, Market Drayton, Shropshire, TF9 1DG"
2026-01-07,1904853,Ikki Street Food,Takeaway/sandwich shop,Middlesex Street Market,Middlesex Street,London,,E1,Tower Hamlets,AwaitingInspection,,FHRS,False,51.518026,-0.057244,"Middlesex Street Market, Middlesex Street, London, E1"
2026-01-07,1905165,Anfield Grill and Pizza House,Takeaway/sandwich shop,116 Breckfield Road North,,Liverpool,,L5 4QZ,Liverpool,AwaitingInspection,,FHRS,False,53.425304,-2.9640973,"116 Breckfield Road North, Liverpool, L5 4QZ"
2026-01-07,1905160,Azeez Sweets,Takeaway/sandwich shop,46K Kiosk Lodge Lane,,Liverpool,,L8 0QL,Liverpool,AwaitingInspection,,FHRS,False,53.3963416,-2.94988,"46K Kiosk Lodge Lane, Liverpool, L8 0QL"
2026-01-07,1905167,Jumbo's,Takeaway/sandwich shop,204 Greenhill Road,,Liverpool,,L18 7HW,Liverpool,AwaitingInspection,,FHRS,False,53.3704551,-2.9017917,"204 Greenhill Road, Liverpool, L18 7HW"
2026-01-07,1905166,Lucky Star,Takeaway/sandwich shop,163 Walton Road,,Liverpool,,L4 4AH,Liverpool,AwaitingInspection,,FHRS,False,53.4355251,-2.9728485,"163 Walton Road, Liverpool, L4 4AH"
2026-01-07,1905163,Naples Pizza,Takeaway/sandwich shop,331 Aigburth Road,,Liverpool,,L17 0BL,Liverpool,AwaitingInspection,,FHRS,False,53.3723966,-2.933397,"331 Aigburth Road, Liverpool, L17 0BL"
2026-01-07,1905164,Papa Nicolo's,Takeaway/sandwich shop,166 Warbreck Moor,,Liverpool,,L9 0HZ,Liverpool,AwaitingInspection,,FHRS,False,53.4701102,-2.9554704,"166 Warbreck Moor, Liverpool, L9 0HZ"
2026-01-07,1905158,Preferred pizza,Takeaway/sandwich shop,69 Lisburn Lane,,Liverpool,,L13 9AF,Liverpool,AwaitingInspection,,FHRS,False,53.4279845,-2.9310023,"69 Lisburn Lane, Liverpool, L13 9AF"
2026-01-07,1905150,FLAMING GRILL,Takeaway/sandwich shop,,72 High Street,Talke,Kidsgrove,ST7 1PY,Newcastle-Under-Lyme,0,2025-11-06,FHRS,False,53.0713078,-2.2602515,"72 High Street, Talke, Kidsgrove, ST7 1PY"
2026-01-07,1905148,FRYDAYS,Takeaway/sandwich shop,,24 Lower Ash Road,Kidsgrove,Staffordshire,ST7 1DF,Newcastle-Under-Lyme,AwaitingInspection,,FHRS,False,53.082969,-2.252961,"24 Lower Ash Road, Kidsgrove, Staffordshire, ST7 1DF"
2026-01-08,1905254,Manor Kebab and Pizza,Takeaway/sandwich shop,155 Manor Road,Chigwell,Essex,,IG7 5QA,Epping Forest,AwaitingInspection,,FHRS,True,51.6127334,0.0900515,"155 Manor Road, Chigwell, Essex, IG7 5QA"
2026-01-08,1905251,Yo! To Go!,Takeaway/sandwich shop,77-79 High Street,Epping,Essex,,CM16 4BA,Epping Forest,5,2026-01-06,FHRS,False,51.696566,0.107276,"77-79 High Street, Epping, Essex, CM16 4BA"
2026-01-08,1905299,Greggs PLC,Takeaway/sandwich shop,23 The Hyde,Stevenage,Herts,,SG2 9SD,Stevenage,AwaitingInspection,,FHRS,False,51.892537,-0.169396,"23 The Hyde, Stevenage, Herts, SG2 9SD"
2026-01-08,1905262,Mias,Takeaway/sandwich shop,Cafe Shimla,56 - 58 Burghley Drive,Corby,,,North Northamptonshire,AwaitingInspection,,FHRS,False,52.4817536,-0.6951313,"Cafe Shimla, 56 - 58 Burghley Drive, Corby"
2026-01-08,1905255,Pizza Bono,Takeaway/sandwich shop,,184 SUTCLIFFE AVENUE,,Grimsby,DN33 1HA,North East Lincolnshire,AwaitingInspection,,FHRS,False,53.5483036,-0.1084871,"184 SUTCLIFFE AVENUE, Grimsby, DN33 1HA"
2026-01-08,1905214,Chipstable Coffee Co,Takeaway/sandwich shop,,,,,,Somerset,AwaitingInspection,,FHRS,False,,,
2026-01-08,1905264,Tick Tock Takeaway,Takeaway/sandwich shop,Moorlynch Vineyard,Spring Lane,Moorlinch,,TA7 9DD,Somerset,AwaitingInspection,,FHRS,False,51.1279831,-2.8585992,"Moorlynch Vineyard, Spring Lane, Moorlinch, TA7 9DD"
2026-01-08,1905326,BLISSÃˆ,Takeaway/sandwich shop,6 Station Avenue,,,Coventry,CV4 9HS,Coventry,AwaitingInspection,,FHRS,False,52.4005437,-1.595555,"6 Station Avenue, Coventry, CV4 9HS"
2026-01-08,1905324,Nutifafa kitchen,Takeaway/sandwich shop,31 Barras Green,,,Coventry,CV2 4LY,Coventry,AwaitingInspection,,FHRS,False,52.4156732,-1.4833847,"31 Barras Green, Coventry, CV2 4LY"
2026-01-08,1905315,Sultani Biryani and Samosa,Takeaway/sandwich shop,,,,,,Coventry,AwaitingInspection,,FHRS,False,,,
2026-01-08,1905192,Pizza gogo,Takeaway/sandwich shop,,118 High Street,,Yiewsley,UB7 7BB,Hillingdon,AwaitingInspection,,FHRS,False,51.513642,-0.472919,"118 High Street, Yiewsley, UB7 7BB"
2026-01-08,1897169,Le Snack,Takeaway/sandwich shop,4 Foundry Street,Wadebridge,Cornwall,,PL27 7NW,Cornwall,5,2026-01-06,FHRS,False,50.516028,-4.837209,"4 Foundry Street, Wadebridge, Cornwall, PL27 7NW"
2026-01-08,1905279,Moti Bite,Takeaway/sandwich shop,Unit 16c Estate 92,Barkerend Road,Bradford,,BD3 9BA,Bradford,AwaitingInspection,,FHRS,False,,,"Unit 16c Estate 92, Barkerend Road, Bradford, BD3 9BA"
2026-01-08,324803,Shake Street,Takeaway/sandwich shop,,4 Whitby Road,Bradford,,BD8 9JW,Bradford,AwaitingInspection,,FHRS,False,53.805272,-1.785256,"4 Whitby Road, Bradford, BD8 9JW"
2026-01-08,1905268,Vape Dawg,Takeaway/sandwich shop,,737-739 Little Horton Lane,Bradford,,BD5 9EH,Bradford,AwaitingInspection,,FHRS,False,53.7759971,-1.7718726,"737-739 Little Horton Lane, Bradford, BD5 9EH"
2026-01-08,90361,Bliss Kitchen,Takeaway/sandwich shop,,106 Yorkshire Street,Oldham,,OL1 1ST,Oldham,AwaitingInspection,,FHRS,False,53.5420617,-2.106299,"106 Yorkshire Street, Oldham, OL1 1ST"
2026-01-08,1905335,Locos,Takeaway/sandwich shop,Vanguard Business Park,Hamilton Street,Oldham,,OL4 1DA,Oldham,AwaitingInspection,,FHRS,False,53.5416462,-2.0983607,"Vanguard Business Park, Hamilton Street, Oldham, OL4 1DA"
2026-01-08,1899045,DollyMals Kitchen Limited,Takeaway/sandwich shop,,,,,,Torridge,AwaitingInspection,,FHRS,False,,,
2026-01-08,1905170,La Casa Pizzeria & Takeaway,Takeaway/sandwich shop,,67 High Street,Fraserburgh,Aberdeenshire,AB43 9ET,Aberdeenshire,Awaiting Inspection,2026-01-06,FHIS,False,57.693953,-2.008563,"67 High Street, Fraserburgh, Aberdeenshire, AB43 9ET"
