date_added,FHRSID,BusinessName,BusinessType,AddressLine1,AddressLine2,AddressLine3,AddressLine4,PostCode,LocalAuthorityName,RatingValue,RatingDate,SchemeType,NewRatingPending,Latitude,Longitude,AddressSingleLine
2025-11-05,1887741,Bread of Life Outreach,Restaurant/Cafe/Canteen,Bread Of Life Outreach,The Mint Methodist Church Centre,Exeter,,EX4 3AT,Exeter City,AwaitingInspection,,FHRS,False,,,"Bread Of Life Outreach, The Mint Methodist Church Centre, Exeter, EX4 3AT"
2025-11-05,1887742,Costa Coffee,Restaurant/Cafe/Canteen,Costa Coffee Sainsbury's,Alphington Road,Exeter,,EX2 8NH,Exeter City,AwaitingInspection,,FHRS,False,,,"Costa Coffee Sainsbury's, Alphington Road, Exeter, EX2 8NH"
2025-11-05,1887744,Situ,Restaurant/Cafe/Canteen,Unit 3,Ulysses House,Heron Road,Sowton Industrial Estate,EX2 7PH,Exeter City,AwaitingInspection,,FHRS,False,50.7192892,-3.4723372,"Unit 3, Ulysses House, Heron Road, Sowton Industrial Estate, EX2 7PH"
2025-11-05,1887687,Costa Coffee,Restaurant/Cafe/Canteen,51 William Hunter Way,Brentwood,Essex,,CM14 4WQ,Brentwood,AwaitingInspection,,FHRS,False,51.6221885681152,0.302621990442276,"51 William Hunter Way, Brentwood, Essex, CM14 4WQ"
2025-11-05,1887663,Middletons,Restaurant/Cafe/Canteen,Middletons Steak House And Grill,2 High Street,Chelmsford,,CM1 1BE,Chelmsford,AwaitingInspection,,FHRS,False,51.73452,0.4735208,"Middletons Steak House And Grill, 2 High Street, Chelmsford, CM1 1BE"
2025-11-05,1887659,Epping Greggs,Restaurant/Cafe/Canteen,Thornwood Filling Station,Epping,Essex,,CM16 6LZ,Epping Forest,5,2025-06-23,FHRS,False,51.73046875,0.12398199737072,"Thornwood Filling Station, Epping, Essex, CM16 6LZ"
2025-11-05,1887679,Cosgroves,Restaurant/Cafe/Canteen,14 Preston Street,Faversham,Kent,,ME13 8NS,Swale,AwaitingInspection,,FHRS,True,51.314716,0.891839,"14 Preston Street, Faversham, Kent, ME13 8NS"
2025-11-05,1887675,The Happy Hub,Restaurant/Cafe/Canteen,124 - 128 High Street,Sittingbourne,Kent,,ME10 4PL,Swale,AwaitingInspection,,FHRS,False,51.3405675,0.733588,"124 - 128 High Street, Sittingbourne, Kent, ME10 4PL"
2025-11-05,1887685,The Vineyard,Restaurant/Cafe/Canteen,6 - 10 West Street,Sittingbourne,Kent,,ME10 1AW,Swale,AwaitingInspection,,FHRS,False,51.3406485,0.7330423,"6 - 10 West Street, Sittingbourne, Kent, ME10 1AW"
2025-11-05,1887727,Bricks BAE,Restaurant/Cafe/Canteen,Unit R,Toll Bar Business Park,Newchurch Road,Stacksteads,OL13 0NA,Rossendale,5,2024-12-11,FHRS,False,53.6922855,-2.221272,"Unit R, Toll Bar Business Park, Newchurch Road, Stacksteads, OL13 0NA"
2025-11-05,1887732,MR CHIKS,Restaurant/Cafe/Canteen,30 St James Street,Bacup,Lancashire,,OL13 9NJ,Rossendale,AwaitingInspection,,FHRS,False,53.702706,-2.199985,"30 St James Street, Bacup, Lancashire, OL13 9NJ"
2025-11-05,1887729,Saverios Restaurant,Restaurant/Cafe/Canteen,560 Burnley Road East,Waterfoot,Rossendale,Lancashire,BB4 9LB,Rossendale,AwaitingInspection,,FHRS,False,53.7075184,-2.24956,"560 Burnley Road East, Waterfoot, Rossendale, Lancashire, BB4 9LB"
2025-11-05,1887728,Stronger Together Carers,Restaurant/Cafe/Canteen,The Ashcroft,Market Street,Whitworth,Rochdale,OL12 8DP,Rossendale,5,2024-12-16,FHRS,False,,,"The Ashcroft, Market Street, Whitworth, Rochdale, OL12 8DP"
2025-11-05,1887876,Lost Island Grill,Restaurant/Cafe/Canteen,Fantasy Island,Sea Lane,Ingoldmells,Skegness,PE25 1RH,East Lindsey,5,2025-09-03,FHRS,False,53.1924943,0.3466217,"Fantasy Island, Sea Lane, Ingoldmells, Skegness, PE25 1RH"
2025-11-05,648594,Pizza Hut Restaurants - Dine In,Restaurant/Cafe/Canteen,Pizza Hut Restaurant,Alex Moorhouse Way,Costessey,Norfolk,NR5 0JT,South Norfolk,5,2024-01-15,FHRS,False,52.653923,1.180269,"Pizza Hut Restaurant, Alex Moorhouse Way, Costessey, Norfolk, NR5 0JT"
2025-11-05,1887747,A&J,Restaurant/Cafe/Canteen,36 - 38 West Gate,,Mansfield,Nottinghamshire,NG18 1RS,Mansfield,AwaitingInspection,,FHRS,False,53.1458091,-1.1979594,"36 - 38 West Gate, Mansfield, Nottinghamshire, NG18 1RS"
2025-11-05,568541,Colombia Coffee Roaster,Restaurant/Cafe/Canteen,Unit 30 Wheatley Business Centre,Old London Road,Wheatley,OXFORD,OX33 1XW,South Oxfordshire,AwaitingInspection,,FHRS,True,51.747653,-1.12919,"Unit 30 Wheatley Business Centre, Old London Road, Wheatley, OXFORD, OX33 1XW"
2025-11-05,271820,FLYTE Bar Limited,Restaurant/Cafe/Canteen,48 Market Place,,HENLEY-ON-THAMES,Oxon,RG9 2AG,South Oxfordshire,AwaitingInspection,,FHRS,False,51.537258,-0.90736,"48 Market Place, HENLEY-ON-THAMES, Oxon, RG9 2AG"
2025-11-05,1887594,Mind Body Lab,Restaurant/Cafe/Canteen,Kings Road,Calf Heath,South Staffordshire,,WV10 7DU,South Staffordshire,4,2022-11-15,FHRS,False,,,"Kings Road, Calf Heath, South Staffordshire, WV10 7DU"
2025-11-05,1887541,Utopia Padel,Restaurant/Cafe/Canteen,Tennis Courts At Copdock Cricket Club,Sports Ground,Old London Road,Copdock And Washbrook,IP8 3JN,Babergh,AwaitingInspection,,FHRS,False,52.029,1.0822543,"Tennis Courts At Copdock Cricket Club, Sports Ground, Old London Road, Copdock And Washbrook, IP8 3JN"
2025-11-05,1864523,Chamomile Patisserie,Restaurant/Cafe/Canteen,6 Thurston Granary,Station Hill,Thurston,BURY ST EDMUNDS,IP31 3QU,Mid Suffolk,5,2025-09-11,FHRS,False,52.2503375,0.8100073,"6 Thurston Granary, Station Hill, Thurston, BURY ST EDMUNDS, IP31 3QU"
2025-11-05,1887617,DeliciousLee Dipped,Restaurant/Cafe/Canteen,,,,,,Epsom and Ewell,AwaitingInspection,,FHRS,False,,,
2025-11-05,1887833,Carolina's Coffee Shop,Restaurant/Cafe/Canteen,,24 Church Road,,Bookham,KT23 3PW,Mole Valley,5,2025-10-02,FHRS,False,51.280154,-0.375229,"24 Church Road, Bookham, KT23 3PW"
2025-11-05,1887838,Chalk Hare,Restaurant/Cafe/Canteen,Hand In Hand,Boxhill,,Boxhill Road,KT20 7PS,Mole Valley,AwaitingInspection,,FHRS,False,,,"Hand In Hand, Boxhill, Boxhill Road, KT20 7PS"
2025-11-05,1887832,Comfort Cafe,Restaurant/Cafe/Canteen,Community Centre,Chart Downs,,Dorking,RH5 4DF,Mole Valley,AwaitingInspection,,FHRS,False,51.217933,-0.317222,"Community Centre, Chart Downs, Dorking, RH5 4DF"
2025-11-05,1887842,Heaven's Kitchen,Restaurant/Cafe/Canteen,2-4,West Street,,Dorking,RH4 1BL,Mole Valley,5,2025-10-14,FHRS,False,51.231527,-0.3335786,"2-4, West Street, Dorking, RH4 1BL"
2025-11-05,1887839,Kenitos Piri Piri Dorking,Restaurant/Cafe/Canteen,5-6 New Parade,London Road,,Dorking,RH4 1RQ,Mole Valley,AwaitingInspection,,FHRS,False,51.2347913,-0.3266422,"5-6 New Parade, London Road, Dorking, RH4 1RQ"
2025-11-05,1887826,OneCaribbeanEssence,Restaurant/Cafe/Canteen,287,High Street,,Dorking,RH4 1RL,Mole Valley,AwaitingInspection,,FHRS,False,51.2345913,-0.3271221,"287, High Street, Dorking, RH4 1RL"
2025-11-05,1887829,Rialto Social and Cucina,Restaurant/Cafe/Canteen,45,Dene Street,,Dorking,RH4 2DW,Mole Valley,AwaitingInspection,,FHRS,False,51.2320071,-0.3287771,"45, Dene Street, Dorking, RH4 2DW"
2025-11-05,1887845,Fuel Road house,Restaurant/Cafe/Canteen,Fuel Road House,Holmbush Farm,Crawley Road,Horsham,RH12 4SE,Horsham,AwaitingInspection,,FHRS,False,,,"Fuel Road House, Holmbush Farm, Crawley Road, Horsham, RH12 4SE"
2025-11-05,1887846,Swan Cafe,Restaurant/Cafe/Canteen,Swan Cafe,19 Springfield Court,Horsham,,RH12 1PT,Horsham,AwaitingInspection,,FHRS,False,51.0635945,-0.3310283,"Swan Cafe, 19 Springfield Court, Horsham, RH12 1PT"
2025-11-05,1736444,Coffee King,Restaurant/Cafe/Canteen,1 Old Market,Halifax,Calderdale,,HX1 1TN,Calderdale,4,2024-07-18,FHRS,False,53.72339,-1.8595695,"1 Old Market, Halifax, Calderdale, HX1 1TN"
2025-11-05,1887858,Angel’sKitchen,Restaurant/Cafe/Canteen,116 Far Gosford Street,,,Coventry,CV1 5EA,Coventry,AwaitingInspection,,FHRS,False,52.4077989,-1.4947929,"116 Far Gosford Street, Coventry, CV1 5EA"
2025-11-05,1887857,Chicken Cottage Coventry,Restaurant/Cafe/Canteen,Trinity Street,,,Coventry,CV1 1FJ,Coventry,AwaitingInspection,,FHRS,False,52.40969692,-1.50940017,"Trinity Street, Coventry, CV1 1FJ"
2025-11-05,1887855,Pizza Italia & Kebab House,Restaurant/Cafe/Canteen,133 Radford Road,,,Coventry,CV6 3BQ,Coventry,AwaitingInspection,,FHRS,False,52.4211627,-1.5196973,"133 Radford Road, Coventry, CV6 3BQ"
2025-11-05,1887631,De Bao Chinese Take Away,Restaurant/Cafe/Canteen,335 Wakefield Road,Dalton,Huddersfield,,HD5 8DE,Kirklees,AwaitingInspection,,FHRS,False,53.645533,-1.76014,"335 Wakefield Road, Dalton, Huddersfield, HD5 8DE"
2025-11-05,1887638,Sunny’s Stuffed Cookies,Restaurant/Cafe/Canteen,Step Out Coffee,62 Meltham Road,Honley,Holmfirth,,Kirklees,AwaitingInspection,,FHRS,False,53.6001675,-1.7998507,"Step Out Coffee, 62 Meltham Road, Honley, Holmfirth"
2025-11-05,1887669,Kungfu Canteen,Restaurant/Cafe/Canteen,The Lodge,Seminary Street,Woodhouse,Leeds,LS2 9NH,Leeds,AwaitingInspection,,FHRS,False,53.804591,-1.556585,"The Lodge, Seminary Street, Woodhouse, Leeds, LS2 9NH"
2025-11-05,1887668,Nesso Leeds,Restaurant/Cafe/Canteen,42 Merrion Street,Leeds,,,LS2 8JG,Leeds,AwaitingInspection,,FHRS,False,,,"42 Merrion Street, Leeds, LS2 8JG"
2025-11-05,1887667,North Street Deli,Restaurant/Cafe/Canteen,29 North Street,Wetherby,,,LS22 6NU,Leeds,AwaitingInspection,,FHRS,False,53.930637,-1.385024,"29 North Street, Wetherby, LS22 6NU"
2025-11-05,1887666,Tikka Nation,Restaurant/Cafe/Canteen,Leeds University Student Union,Lifton Place,Woodhouse,Leeds,LS2 9JZ,Leeds,AwaitingInspection,,FHRS,True,53.807357,-1.558393,"Leeds University Student Union, Lifton Place, Woodhouse, Leeds, LS2 9JZ"
2025-11-05,1887454,3T Training Restaurant,Restaurant/Cafe/Canteen,3 - 4 Jupiter Court,Orion Business Park,North Shields,Tyne And Wear,NE29 7SE,North Tyneside,5,2025-10-13,FHRS,False,55.007422,-1.4925226,"3 - 4 Jupiter Court, Orion Business Park, North Shields, Tyne And Wear, NE29 7SE"
2025-11-05,1887879,Baby Bears Play Cafe,Restaurant/Cafe/Canteen,,8 Shaw Road,Oldham,,OL1 3LQ,Oldham,AwaitingInspection,,FHRS,False,53.5445234,-2.0972808,"8 Shaw Road, Oldham, OL1 3LQ"
2025-11-05,1887883,Flames Smokehouse LTD 2,Restaurant/Cafe/Canteen,Cooperative Academy Failsworth,Brierley Avenue,Failsworth,Oldham,M35 9HA,Oldham,5,2025-11-01,FHRS,False,53.5066676,-2.1467996,"Cooperative Academy Failsworth, Brierley Avenue, Failsworth, Oldham, M35 9HA"
2025-11-05,65622,Savannah Tree,Restaurant/Cafe/Canteen,Romanos,Rock Street,Oldham,,OL1 3DW,Oldham,AwaitingInspection,,FHRS,True,53.5434257,-2.108747,"Romanos, Rock Street, Oldham, OL1 3DW"
2025-11-05,1887536,B Coffee,Restaurant/Cafe/Canteen,122 Holloway Bank,,,Wednesbury,WS10 0NS,Sandwell,AwaitingInspection,,FHRS,False,52.5438405,-2.0171299,"122 Holloway Bank, Wednesbury, WS10 0NS"
2025-11-05,1887579,Auntie Lous,Restaurant/Cafe/Canteen,1 Market Place,Stockport,,,SK1 1EW,Stockport,AwaitingInspection,,FHRS,False,53.411028,-2.156385,"1 Market Place, Stockport, SK1 1EW"
2025-11-05,1887573,Briola,Restaurant/Cafe/Canteen,395 Manchester Road,Heaton Chapel,Stockport,,SK4 5BY,Stockport,AwaitingInspection,,FHRS,False,53.4281598,-2.1753485,"395 Manchester Road, Heaton Chapel, Stockport, SK4 5BY"
2025-11-05,1887569,GRYND,Restaurant/Cafe/Canteen,21 Rupert Street,North Reddish,Stockport,,SK5 7AP,Stockport,AwaitingInspection,,FHRS,False,53.4361788,-2.1618191,"21 Rupert Street, North Reddish, Stockport, SK5 7AP"
2025-11-05,1887533,Leoni’s Candy Corner,Restaurant/Cafe/Canteen,,,,,,Wigan,AwaitingInspection,,FHRS,False,,,
2025-11-05,1887532,McKinley Sweet Treats,Restaurant/Cafe/Canteen,,,,,,Wigan,AwaitingInspection,,FHRS,False,,,
2025-11-05,1887531,So Sweet So Baked,Restaurant/Cafe/Canteen,,,,,,Wigan,AwaitingInspection,,FHRS,False,,,
2025-11-05,1887564,Atinga Junction African Restaurant,Restaurant/Cafe/Canteen,20 Kendal Parade,Great Cambridge Road,Edmonton,,N18 1ND,Enfield,AwaitingInspection,,FHRS,False,51.6167294,-0.0855387,"20 Kendal Parade, Great Cambridge Road, Edmonton, N18 1ND"
2025-11-05,1887549,B&T Shop Ltd T/A Balkan Food,Restaurant/Cafe/Canteen,740 Green Lanes,LONDON,,,N21 3RE,Enfield,4,2025-03-06,FHRS,False,51.631287,-0.095793,"740 Green Lanes, LONDON, N21 3RE"
2025-11-05,1887559,Bounces Coffee c/o petrol station,Restaurant/Cafe/Canteen,134 Hertford Road,Edmonton,,,N9 7HL,Enfield,AwaitingInspection,,FHRS,False,51.6285442,-0.0556593,"134 Hertford Road, Edmonton, N9 7HL"
2025-11-05,1887550,Dubai Grill & Shawarma,Restaurant/Cafe/Canteen,17 Green Lanes,LONDON,,,N13 4TT,Enfield,5,2025-10-21,FHRS,False,51.6086947,-0.1104933,"17 Green Lanes, LONDON, N13 4TT"
2025-11-05,1887561,Enfield Rangers Catering/ Aunty Chelsea's Catering,Restaurant/Cafe/Canteen,St Georges Field,Palmers Lane,Enfield,,EN1 4LJ,Enfield,AwaitingInspection,,FHRS,False,51.6619885,-0.0508286,"St Georges Field, Palmers Lane, Enfield, EN1 4LJ"
2025-11-05,1887562,KARAK CHAII,Restaurant/Cafe/Canteen,,,,,,Enfield,AwaitingInspection,,FHRS,False,,,
2025-11-05,1887557,Mio's Restaurant,Restaurant/Cafe/Canteen,644B Hertford Road,ENFIELD,,,EN3 6LZ,Enfield,AwaitingInspection,,FHRS,False,51.6713529,-0.0407659,"644B Hertford Road, ENFIELD, EN3 6LZ"
2025-11-05,1887718,Esquires Coffee,Restaurant/Cafe/Canteen,Next,6 - 9 Market Place,Kingston Upon Thames,,KT1 1JX,Kingston-Upon-Thames,AwaitingInspection,,FHRS,False,51.4094996,-0.30645969,"Next, 6 - 9 Market Place, Kingston Upon Thames, KT1 1JX"
2025-11-05,1887721,Hoppers Spot,Restaurant/Cafe/Canteen,88 Burlington Road,New Malden,,,KT3 4NT,Kingston-Upon-Thames,AwaitingInspection,,FHRS,False,51.3989121,-0.24974,"88 Burlington Road, New Malden, KT3 4NT"
2025-11-05,1887717,Sumer restaurant,Restaurant/Cafe/Canteen,144 High Street,New Malden,,,KT3 4EP,Kingston-Upon-Thames,AwaitingInspection,,FHRS,False,51.3996512,-0.255123,"144 High Street, New Malden, KT3 4EP"
2025-11-05,1887654,Bite Break Cafe,Restaurant/Cafe/Canteen,95 Green Street,Forest Gate,London,,E7 8JF,Newham,AwaitingInspection,,FHRS,True,51.5448645,0.0321095,"95 Green Street, Forest Gate, London, E7 8JF"
2025-11-05,1887652,Sweets Town Plaistow Ltd,Restaurant/Cafe/Canteen,594 Barking Road,Plaistow,London,,E13 9JY,Newham,AwaitingInspection,,FHRS,False,51.527494,0.031873,"594 Barking Road, Plaistow, London, E13 9JY"
2025-11-05,1887653,Zaiqa Galli Ltd,Restaurant/Cafe/Canteen,185 - 187 Plashet Road,Plaistow,London,,E13 0QZ,Newham,AwaitingInspection,,FHRS,False,51.5376146,0.0309709,"185 - 187 Plashet Road, Plaistow, London, E13 0QZ"
2025-11-05,964310,Barry Sidings Cafe,Restaurant/Cafe/Canteen,Barry Sidings Country Park,Gyfeillion Road,Hopkinstown,Pontypridd,CF37 2PP,Rhondda Cynon Taf,3,2025-07-16,FHRS,False,51.6097,-3.368509,"Barry Sidings Country Park, Gyfeillion Road, Hopkinstown, Pontypridd, CF37 2PP"
2025-11-05,1887622,Starbucks,Restaurant/Cafe/Canteen,,Abercynon,Mountain Ash,,CF45 4YX,Rhondda Cynon Taf,AwaitingInspection,,FHRS,False,51.645033,-3.322761,"Abercynon, Mountain Ash, CF45 4YX"
2025-11-05,289151,Belta's,Restaurant/Cafe/Canteen,20 Avenue Road,Seaton Delaval,Northumberland,,NE25 0DU,Northumberland,AwaitingInspection,,FHRS,False,55.07231,-1.525961,"20 Avenue Road, Seaton Delaval, Northumberland, NE25 0DU"
2025-11-05,1887712,Gateway into the Community,Restaurant/Cafe/Canteen,St Marys Wynd,Hexham,Northumberland,,NE46 1LW,Northumberland,AwaitingInspection,,FHRS,False,54.970782,-2.10221,"St Marys Wynd, Hexham, Northumberland, NE46 1LW"
2025-11-05,1887566,WILD GOOSE,Restaurant/Cafe/Canteen,,Union Street Pavillion,Union Terrace Aberdeen,,AB10 1NJ,Aberdeen City,Pass,2025-10-23,FHIS,False,,,"Union Street Pavillion, Union Terrace Aberdeen, AB10 1NJ"
2025-11-05,1887582,Bibbidi Bobbidi Bake,Restaurant/Cafe/Canteen,Bibbidi Bobbidi Bake,11 Ochil Place,Kilmarnock,East Ayrshire,KA1 3UU,East Ayrshire,Pass,2025-11-03,FHIS,False,55.5874263,-4.4835578,"Bibbidi Bobbidi Bake, 11 Ochil Place, Kilmarnock, East Ayrshire, KA1 3UU"
2025-11-05,1887581,L & L Cakes,Restaurant/Cafe/Canteen,L & L Cakes,79 Richardson Avenue,Hurlford,Kilmarnock,KA1 5DX,East Ayrshire,Pass,2025-10-22,FHIS,False,55.5962452,-4.4427966,"L & L Cakes, 79 Richardson Avenue, Hurlford, Kilmarnock, KA1 5DX"
2025-11-05,1887584,The Fenwick Coffee Shop,Restaurant/Cafe/Canteen,The Fenwick Coffee Shop,26-28 Main Road,Fenwick,Kilmarnock,KA3 6AH,East Ayrshire,Pass,2025-10-16,FHIS,False,55.6539369,-4.4460255,"The Fenwick Coffee Shop, 26-28 Main Road, Fenwick, Kilmarnock, KA3 6AH"
2025-11-05,1887597,Aphrodite Restaurant,Restaurant/Cafe/Canteen,,33 George Street,Perth,,PH1 5LA,Perth and Kinross,Pass,2025-10-09,FHIS,False,56.397661,-3.427387,"33 George Street, Perth, PH1 5LA"
2025-11-05,1887801,3ft6,Restaurant/Cafe/Canteen,,1 Lancaster Street,Redfield,Bristol,BS5 9QL,Bristol,AwaitingInspection,,FHRS,False,51.455356,-2.5587418,"1 Lancaster Street, Redfield, Bristol, BS5 9QL"
2025-11-05,1887804,7 Cakes Cafe,Restaurant/Cafe/Canteen,,,,,,Bristol,AwaitingInspection,,FHRS,False,,,
2025-11-05,1887757,Bad Squirrel Cafe,Restaurant/Cafe/Canteen,,143 St Michaels Hill,Kingsdown,Bristol,BS2 8DB,Bristol,AwaitingInspection,,FHRS,False,51.460968,-2.60232,"143 St Michaels Hill, Kingsdown, Bristol, BS2 8DB"
2025-11-05,1887750,Bagel Society,Restaurant/Cafe/Canteen,,24 Redcliff Street,Thomas Lane,Bristol,BS1 6JG,Bristol,AwaitingInspection,,FHRS,False,,,"24 Redcliff Street, Thomas Lane, Bristol, BS1 6JG"
2025-11-05,1887815,Baseline,Restaurant/Cafe/Canteen,,,,,,Bristol,AwaitingInspection,,FHRS,False,,,
2025-11-05,1887771,Basil,Restaurant/Cafe/Canteen,,35a Queens Road,Clifton,Bristol,BS8 1QE,Bristol,AwaitingInspection,,FHRS,False,51.4558762,-2.6059849,"35a Queens Road, Clifton, Bristol, BS8 1QE"
2025-11-05,1887751,Beck Bee's Cakery,Restaurant/Cafe/Canteen,,,,,,Bristol,AwaitingInspection,,FHRS,False,,,
2025-11-05,1801486,Becks Bakes,Restaurant/Cafe/Canteen,,,,,,Bristol,AwaitingInspection,,FHRS,False,,,
2025-11-05,1887811,Billies Cafe,Restaurant/Cafe/Canteen,,365 Gloucester Road,Horfield,Bristol,BS7 8TN,Bristol,AwaitingInspection,,FHRS,False,51.483102,-2.586886,"365 Gloucester Road, Horfield, Bristol, BS7 8TN"
2025-11-05,1887758,Brew and Chew,Restaurant/Cafe/Canteen,,,,,,Bristol,AwaitingInspection,,FHRS,False,,,
2025-11-05,1887810,Bristol Idea Ltd.,Restaurant/Cafe/Canteen,,,,,,Bristol,AwaitingInspection,,FHRS,False,,,
2025-11-05,1887767,Claires Bakes,Restaurant/Cafe/Canteen,,,,,,Bristol,AwaitingInspection,,FHRS,False,,,
2025-11-05,1887782,Community Jam Collective,Restaurant/Cafe/Canteen,,131-133 St Georges Road,City Centre,Bristol,BS1 5UW,Bristol,AwaitingInspection,,FHRS,False,51.4509503,-2.6073875,"131-133 St Georges Road, City Centre, Bristol, BS1 5UW"
2025-11-05,1887813,Dream Bites Ltd.,Restaurant/Cafe/Canteen,,101 St Marks Road,Easton,Bristol,BS5 6HY,Bristol,AwaitingInspection,,FHRS,False,51.4684641,-2.5647754,"101 St Marks Road, Easton, Bristol, BS5 6HY"
2025-11-05,1887820,Honest Burgers,Restaurant/Cafe/Canteen,,71 Glass Walk,City Centre,Bristol,BS1 3BQ,Bristol,AwaitingInspection,,FHRS,False,51.458138,-2.585803,"71 Glass Walk, City Centre, Bristol, BS1 3BQ"
2025-11-05,1887754,Hubby Chefs Kitchen,Restaurant/Cafe/Canteen,,,,,,Bristol,AwaitingInspection,,FHRS,False,,,
2025-11-05,1887788,Indian Cottage,Restaurant/Cafe/Canteen,,72 Hollway Road,Stockwood,Bristol,BS14 8PG,Bristol,AwaitingInspection,,FHRS,False,51.411986,-2.546289,"72 Hollway Road, Stockwood, Bristol, BS14 8PG"
2025-11-05,1887787,Kerala Choice Restaurant,Restaurant/Cafe/Canteen,,2 Harcourt Road,Westbury Park,Bristol,BS6 7RG,Bristol,AwaitingInspection,,FHRS,False,51.47737,-2.60723,"2 Harcourt Road, Westbury Park, Bristol, BS6 7RG"
2025-11-05,1887753,Kiki's Cafe,Restaurant/Cafe/Canteen,,Silverthorne Lane,St Philips,Bristol,BS2 0QD,Bristol,AwaitingInspection,,FHRS,False,,,"Silverthorne Lane, St Philips, Bristol, BS2 0QD"
2025-11-05,1887812,Lova,Restaurant/Cafe/Canteen,,,,,,Bristol,AwaitingInspection,,FHRS,False,,,
2025-11-05,1887759,One Too Many,Restaurant/Cafe/Canteen,,,,,,Bristol,AwaitingInspection,,FHRS,False,,,
2025-11-05,1887755,OVG Fleur,Restaurant/Cafe/Canteen,,,,,,Bristol,AwaitingInspection,,FHRS,False,,,
2025-11-05,1887809,Park Bakery,Restaurant/Cafe/Canteen,,49 North Street,Bedminster,Bristol,BS3 1EN,Bristol,AwaitingInspection,,FHRS,False,51.4408452,-2.6036285,"49 North Street, Bedminster, Bristol, BS3 1EN"
2025-11-05,1887752,Rice N Curry,Restaurant/Cafe/Canteen,,,,,,Bristol,AwaitingInspection,,FHRS,False,,,
2025-11-05,1887795,Spectrum Catering,Restaurant/Cafe/Canteen,Lockleaze Sports Centre,Bonnington Walk,Lockleaze,Bristol,BS7 9XF,Bristol,AwaitingInspection,,FHRS,False,51.4951057434082,-2.56717801094055,"Lockleaze Sports Centre, Bonnington Walk, Lockleaze, Bristol, BS7 9XF"
2025-11-05,1887814,Spectrum Catering Ltd.,Restaurant/Cafe/Canteen,,1 Bonnington Walk,Lockleaze,Bristol,BS7 9XF,Bristol,AwaitingInspection,,FHRS,False,51.4953525,-2.5695593,"1 Bonnington Walk, Lockleaze, Bristol, BS7 9XF"
2025-11-05,1887807,Street Fuel,Restaurant/Cafe/Canteen,,,,,,Bristol,AwaitingInspection,,FHRS,False,,,
2025-11-05,1887873,Noah's Ark Zoo Enterprises Ltd,Restaurant/Cafe/Canteen,Noahs Ark,Clevedon Road,Failand,Bristol,BS48 1PG,North Somerset,AwaitingInspection,,FHRS,False,51.452042,-2.738546,"Noahs Ark, Clevedon Road, Failand, Bristol, BS48 1PG"
2025-11-05,1887875,Unit 27,Restaurant/Cafe/Canteen,Unit 27 Weston Business Park,Laneys Drove,Locking,Weston-Super-Mare,BS24 8RA,North Somerset,AwaitingInspection,,FHRS,False,51.338226,-2.9315,"Unit 27 Weston Business Park, Laneys Drove, Locking, Weston-Super-Mare, BS24 8RA"
2025-11-05,1887692,KFC,Restaurant/Cafe/Canteen,,Bourges Boulevard,Peterborough,,PE1 2AF,Peterborough City,AwaitingInspection,,FHRS,False,52.5811958312988,-0.252306014299393,"Bourges Boulevard, Peterborough, PE1 2AF"
2025-11-06,1888023,Deedar Express Ltd,Restaurant/Cafe/Canteen,27 Aswell Street,Louth,,,LN11 9BA,East Lindsey,5,2025-10-22,FHRS,False,53.3656234741211,-0.00354299996979535,"27 Aswell Street, Louth, LN11 9BA"
2025-11-06,1887905,Marina's Attic,Restaurant/Cafe/Canteen,Lindsey Buildings,13-14 Church Street,Alford,Louth,,East Lindsey,5,2025-10-30,FHRS,False,53.2613561,0.1810224,"Lindsey Buildings, 13-14 Church Street, Alford, Louth"
2025-11-06,1887903,The Empress Restaurant and Takeaway,Restaurant/Cafe/Canteen,Market Place,Tetney,Grimsby,,DN36 5NN,East Lindsey,AwaitingInspection,,FHRS,True,53.4890185,-0.0192307,"Market Place, Tetney, Grimsby, DN36 5NN"
2025-11-06,1887914,Little Sportsters Coaching,Restaurant/Cafe/Canteen,,,,,,Maldon,AwaitingInspection,,FHRS,False,,,
2025-11-06,1888325,Beefeater,Restaurant/Cafe/Canteen,2 Broad Street Plaza,Broad Street Plaza,Halifax,Calderdale,HX1 1UX,Calderdale,5,2019-05-02,FHRS,False,53.7251433,-1.8601093,"2 Broad Street Plaza, Broad Street Plaza, Halifax, Calderdale, HX1 1UX"
2025-11-06,1887956,Chai Brunch,Restaurant/Cafe/Canteen,4-8 Abbots Walk,Biggleswade,Beds,,SG18 0LF,Central Bedfordshire,AwaitingInspection,,FHRS,False,52.0872077941895,-0.264517992734909,"4-8 Abbots Walk, Biggleswade, Beds, SG18 0LF"
2025-11-06,1887951,Donna Maria Italian Restaurant,Restaurant/Cafe/Canteen,26 Church Street,Dunstable,Beds,,LU5 4RU,Central Bedfordshire,AwaitingInspection,,FHRS,True,51.8862217,-0.5195142,"26 Church Street, Dunstable, Beds, LU5 4RU"
2025-11-06,1888117,Chinese Hotpot restaurant,Restaurant/Cafe/Canteen,North of Cranfield House,107 Southampton Row,,London,WC1B 4HH,Camden,AwaitingInspection,,FHRS,False,51.5209355,-0.123886,"North of Cranfield House, 107 Southampton Row, London, WC1B 4HH"
2025-11-06,1888124,EDINE,Restaurant/Cafe/Canteen,Unit 2 Victoria House,Southampton Row,,London,WC1B 4DA,Camden,AwaitingInspection,,FHRS,False,51.5192077,-0.1221264,"Unit 2 Victoria House, Southampton Row, London, WC1B 4DA"
2025-11-06,1888120,FORKO FRY,Restaurant/Cafe/Canteen,The Dolphin Pub,47 Tonbridge Street,,London,WC1H 9DW,Camden,AwaitingInspection,,FHRS,False,51.5289075,-0.1247259,"The Dolphin Pub, 47 Tonbridge Street, London, WC1H 9DW"
2025-11-06,1888115,Island,Restaurant/Cafe/Canteen,Unit1 P2,2-8 Lewis Cubitt Square,,London,N1C 4DY,Camden,0,2025-08-28,FHRS,False,51.5370208,-0.1266986,"Unit1 P2, 2-8 Lewis Cubitt Square, London, N1C 4DY"
2025-11-06,1888123,Lock Inn Camden,Restaurant/Cafe/Canteen,,2 Jamestown Road,,London,NW1 7BY,Camden,AwaitingInspection,,FHRS,False,51.5407023,-0.1448628,"2 Jamestown Road, London, NW1 7BY"
2025-11-06,1888121,MR WONG MALATANG,Restaurant/Cafe/Canteen,,71 Red Lion Street,,London,WC1R 4NA,Camden,AwaitingInspection,,FHRS,False,51.5184764,-0.1168954,"71 Red Lion Street, London, WC1R 4NA"
2025-11-06,1888099,"Nox Hotel,",Restaurant/Cafe/Canteen,West Hamstead,291 West End Lane,,London,NW6 1RD,Camden,AwaitingInspection,,FHRS,False,51.5511848,-0.1919207,"West Hamstead, 291 West End Lane, London, NW6 1RD"
2025-11-06,1888324,Peppercorn,Restaurant/Cafe/Canteen,Shops and Premises Ground Floor 26 Carnegie House,New End,,London,NW3 1JE,Camden,4,2025-09-22,FHRS,False,,,"Shops and Premises Ground Floor 26 Carnegie House, New End, London, NW3 1JE"
2025-11-06,1888105,SANDWICH FACTORY,Restaurant/Cafe/Canteen,,119 Shaftesbury Avenue,,London,WC2H 8AE,Camden,AwaitingInspection,,FHRS,False,,,"119 Shaftesbury Avenue, London, WC2H 8AE"
2025-11-06,1888119,SHORT ROAD PIZZA CO.LTD,Restaurant/Cafe/Canteen,,11 Goods Way,,London,N1C 4DP,Camden,AwaitingInspection,,FHRS,False,51.5342292785645,-0.12576200067997,"11 Goods Way, London, N1C 4DP"
2025-11-06,1888098,The Play Hut Cafe,Restaurant/Cafe/Canteen,Kilburn Grange Centre,Messina Avenue,,London,NW6 4LB,Camden,5,2025-11-03,FHRS,False,,,"Kilburn Grange Centre, Messina Avenue, London, NW6 4LB"
2025-11-06,1888101,Warung Nusantara and Fishbone,Restaurant/Cafe/Canteen,,82 Cleveland Street,,London,W1T 6NF,Camden,AwaitingInspection,,FHRS,True,51.5220806,-0.1404594,"82 Cleveland Street, London, W1T 6NF"
2025-11-06,1883493,A & N Brother's Cafe,Restaurant/Cafe/Canteen,6 Ruskin Parade,Selsdon Road,South Croydon,,CR2 6PW,Croydon,AwaitingInspection,,FHRS,False,51.3629811,-0.096777,"6 Ruskin Parade, Selsdon Road, South Croydon, CR2 6PW"
2025-11-06,1888366,Coco And Nut Coffee Westfield,Restaurant/Cafe/Canteen,24 North End,Croydon,,,CR0 1UB,Croydon,AwaitingInspection,,FHRS,False,,,"24 North End, Croydon, CR0 1UB"
2025-11-06,1888352,Dawat Express,Restaurant/Cafe/Canteen,168 Addington Road,South Croydon,,,CR2 8LB,Croydon,AwaitingInspection,,FHRS,False,51.3436622619629,-0.0619340017437935,"168 Addington Road, South Croydon, CR2 8LB"
2025-11-06,1813426,Dem Cafe Bar,Restaurant/Cafe/Canteen,19 Central Hill,Upper Norwood,London,,SE19 1BG,Croydon,AwaitingInspection,,FHRS,False,51.4194417,-0.0837893,"19 Central Hill, Upper Norwood, London, SE19 1BG"
2025-11-06,1888353,Kothu,Restaurant/Cafe/Canteen,Restaurant,48 - 50 South End,Croydon,,CR0 1DP,Croydon,AwaitingInspection,,FHRS,False,,,"Restaurant, 48 - 50 South End, Croydon, CR0 1DP"
2025-11-06,1888354,Mithras Turkish & Mediterranean Restaurant,Restaurant/Cafe/Canteen,11 - 12 Suffolk House,George Street,Croydon,,CR0 1PE,Croydon,AwaitingInspection,,FHRS,False,51.3739738464355,-0.0958129987120628,"11 - 12 Suffolk House, George Street, Croydon, CR0 1PE"
2025-11-06,1888335,Poor Boys,Restaurant/Cafe/Canteen,Unit 15 - 16,Boxpark Croydon,99 George Street,Croydon,CR0 1LD,Croydon,AwaitingInspection,,FHRS,False,51.3746376037598,-0.0951249971985817,"Unit 15 - 16, Boxpark Croydon, 99 George Street, Croydon, CR0 1LD"
2025-11-06,1888129,Carlsberg National Distribution Centre,Restaurant/Cafe/Canteen,Tithe Barn Way,Swan Valley,Northampton,NN4 9BA,NN4 9BA,West Northamptonshire,AwaitingInspection,,FHRS,False,52.213492,-0.951062,"Tithe Barn Way, Swan Valley, Northampton, NN4 9BA, NN4 9BA"
2025-11-06,1888133,Coco cafe,Restaurant/Cafe/Canteen,16 St Peters Walk,Northampton,NN1 1PT,,NN1 1PT,West Northamptonshire,AwaitingInspection,,FHRS,False,52.2362901,-0.8997567,"16 St Peters Walk, Northampton, NN1 1PT, NN1 1PT"
2025-11-06,1888125,Dreams,Restaurant/Cafe/Canteen,59 St Giles Street,Northampton,NN1 1JF,,NN1 1JF,West Northamptonshire,5,2025-10-22,FHRS,False,52.237746,-0.891621,"59 St Giles Street, Northampton, NN1 1JF, NN1 1JF"
2025-11-06,1887890,biter?s,Restaurant/Cafe/Canteen,36 Bank Street,,Ashford,,TN23 1BA,Ashford,AwaitingInspection,,FHRS,False,51.1476898,0.8702327,"36 Bank Street, Ashford, TN23 1BA"
2025-11-06,1799003,Pizza Hut Restaurants – Dine In,Restaurant/Cafe/Canteen,Unit 122 Braehead Shopping Centre,King's Inch Road,Renfrew,Renfrewshire,G51 4BS,Renfrewshire,Pass,2025-02-26,FHIS,False,55.875948,-4.36482,"Unit 122 Braehead Shopping Centre, King's Inch Road, Renfrew, Renfrewshire, G51 4BS"
2025-11-06,1887885,Birch coffee shop,Restaurant/Cafe/Canteen,The Corn Exchange Market Hill,,Royston,Hertfordshire,SG8 9JR,North Hertfordshire,AwaitingInspection,,FHRS,False,52.0464387,-0.021775,"The Corn Exchange Market Hill, Royston, Hertfordshire, SG8 9JR"
2025-11-06,1887886,The Lancer Indian Cuisine,Restaurant/Cafe/Canteen,14C High Street,,Baldock,Hertfordshire,SG7 6AS,North Hertfordshire,AwaitingInspection,,FHRS,False,51.988801,-0.188454,"14C High Street, Baldock, Hertfordshire, SG7 6AS"
2025-11-06,1887909,Oak Bites @ The Royal Oak,Restaurant/Cafe/Canteen,The Royal Oak Bay Road,,Bracknell,Bracknell Forest,RG12 2NN,Bracknell Forest,AwaitingInspection,,FHRS,False,,,"The Royal Oak Bay Road, Bracknell, Bracknell Forest, RG12 2NN"
2025-11-06,1888003,myenergi Ltd,Restaurant/Cafe/Canteen,Pioneer Business Park,Faraday Way,,Stallingborough,DN41 8FF,North East Lincolnshire,AwaitingInspection,,FHRS,False,53.6013733,-0.1916465,"Pioneer Business Park, Faraday Way, Stallingborough, DN41 8FF"
2025-11-06,667288,Blue Ocean Restaurant,Restaurant/Cafe/Canteen,3 Arcade Buildings South Street,,Worthing,West Sussex,BN11 3AL,Worthing,5,2023-11-30,FHRS,False,50.8098775,-0.3700594,"3 Arcade Buildings South Street, Worthing, West Sussex, BN11 3AL"
2025-11-06,1887987,Istanbul cafe,Restaurant/Cafe/Canteen,50 Heene Road,,Worthing,West Sussex,BN11 3RG,Worthing,AwaitingInspection,,FHRS,False,50.8091976,-0.3848167,"50 Heene Road, Worthing, West Sussex, BN11 3RG"
2025-11-06,1888005,Le Petite Parisien,Restaurant/Cafe/Canteen,15 High Street,Dunmow,,,CM6 1AB,Uttlesford,5,2025-10-28,FHRS,False,51.872331,0.363351,"15 High Street, Dunmow, CM6 1AB"
2025-11-06,1888012,Piti Thai Restaurant,Restaurant/Cafe/Canteen,16 Hill Street,Saffron Walden,Essex,,CB10 1JD,Uttlesford,AwaitingInspection,,FHRS,False,52.02319054,0.24173565,"16 Hill Street, Saffron Walden, Essex, CB10 1JD"
2025-11-06,1888004,Trizias Italian Kitchen,Restaurant/Cafe/Canteen,,,,,,Uttlesford,AwaitingInspection,,FHRS,False,,,
2025-11-06,1888010,Uppers Coffee,Restaurant/Cafe/Canteen,1 Lower Street,Stansted,Essex,,CM24 8LN,Uttlesford,AwaitingInspection,,FHRS,False,51.9022896,0.1993101,"1 Lower Street, Stansted, Essex, CM24 8LN"
2025-11-06,1888152,Happy Panda Café,Restaurant/Cafe/Canteen,,80 Christchurch Road,Reading,,RG2 7AZ,Reading,AwaitingInspection,,FHRS,False,51.442789,-0.955688,"80 Christchurch Road, Reading, RG2 7AZ"
2025-11-06,1888157,Subway,Restaurant/Cafe/Canteen,,Unit 4 Brunel Arcade Station Approach,Reading,,RG1 1LT,Reading,5,2025-10-28,FHRS,False,51.4583692,-0.9715063,"Unit 4 Brunel Arcade Station Approach, Reading, RG1 1LT"
2025-11-06,1888154,The Bounce Park Reading,Restaurant/Cafe/Canteen,,River Academy 7 Richfield Avenue,Reading,,RG1 8EQ,Reading,AwaitingInspection,,FHRS,False,51.4646333,-0.9879576,"River Academy 7 Richfield Avenue, Reading, RG1 8EQ"
2025-11-06,872332,Pizza Hut Restaurants - Dine In,Restaurant/Cafe/Canteen,13 Queensgate Centre,Edinburgh Way,Harlow,Essex,CM20 2DA,Harlow,5,2024-04-09,FHRS,False,51.783887,0.108052,"13 Queensgate Centre, Edinburgh Way, Harlow, Essex, CM20 2DA"
2025-11-06,1033594,Acton Cafe,Restaurant/Cafe/Canteen,216 Horn Lane,Acton,,,W3 6PL,Ealing,5,2024-10-03,FHRS,False,51.516384,-0.267102,"216 Horn Lane, Acton, W3 6PL"
2025-11-06,1561598,Bagel Factory,Restaurant/Cafe/Canteen,Unit D,Ealing Broadway Railway Station,New Ealing Broadway,Ealing,W5 2NU,Ealing,5,2024-10-15,FHRS,False,51.5148407,-0.3017291,"Unit D, Ealing Broadway Railway Station, New Ealing Broadway, Ealing, W5 2NU"
2025-11-06,1609705,Beit El Fezzani,Restaurant/Cafe/Canteen,Ground Floor And Basement,377 Uxbridge Road,Acton,,W3 9RH,Ealing,4,2024-09-24,FHRS,False,51.5083786,-0.2821985,"Ground Floor And Basement, 377 Uxbridge Road, Acton, W3 9RH"
2025-11-06,1489391,Boom Battle Bar,Restaurant/Cafe/Canteen,9 Filmworks Walk,Ealing,Ealing,,W5 5FA,Ealing,5,2024-06-11,FHRS,False,51.5119765,-0.3063897,"9 Filmworks Walk, Ealing, Ealing, W5 5FA"
2025-11-06,1719980,Bossa Nova Cafe,Restaurant/Cafe/Canteen,185 South Ealing Road,Ealing,,,W5 4RH,Ealing,5,2024-05-09,FHRS,False,51.49743,-0.305379,"185 South Ealing Road, Ealing, W5 4RH"
2025-11-06,1888315,Bossman's Corner Shop,Restaurant/Cafe/Canteen,7 - 8 Culmington Parade,Uxbridge Road,West Ealing,,W13 9BD,Ealing,AwaitingInspection,,FHRS,True,51.5114407,-0.3147681,"7 - 8 Culmington Parade, Uxbridge Road, West Ealing, W13 9BD"
2025-11-06,1557865,Burger King,Restaurant/Cafe/Canteen,Burger King,Royale Leisure Park,Kendal Avenue,Acton,W3 0PA,Ealing,5,2024-09-15,FHRS,False,51.525334,-0.281336,"Burger King, Royale Leisure Park, Kendal Avenue, Acton, W3 0PA"
2025-11-06,1496277,Butchies,Restaurant/Cafe/Canteen,14 Bond Street,Ealing,,,W5 5AA,Ealing,5,2024-10-01,FHRS,False,51.5122521,-0.3061466,"14 Bond Street, Ealing, W5 5AA"
2025-11-06,1034166,Cafe Nell,Restaurant/Cafe/Canteen,34 Northfield Avenue,West Ealing,,,W13 9RL,Ealing,5,2024-05-14,FHRS,False,51.504644,-0.319261,"34 Northfield Avenue, West Ealing, W13 9RL"
2025-11-06,1033043,Caffe Nero,Restaurant/Cafe/Canteen,51 New Broadway,Ealing,,,W5 5AH,Ealing,5,2024-09-06,FHRS,False,51.512593,-0.306777,"51 New Broadway, Ealing, W5 5AH"
2025-11-06,1437238,Chickenland Peri Peri,Restaurant/Cafe/Canteen,142 Victoria Road,Acton,,,W3 6UL,Ealing,5,2024-09-08,FHRS,False,51.522597,-0.25914,"142 Victoria Road, Acton, W3 6UL"
2025-11-06,1033045,Costa Coffee,Restaurant/Cafe/Canteen,6 Ealing Broadway Centre,The Broadway,Ealing,,W5 5JY,Ealing,5,2024-10-15,FHRS,False,51.5125386,-0.3029677,"6 Ealing Broadway Centre, The Broadway, Ealing, W5 5JY"
2025-11-06,1034134,Costa Coffee,Restaurant/Cafe/Canteen,90 - 92 South Ealing Road,Ealing,,,W5 4QB,Ealing,4,2024-10-16,FHRS,False,51.5007334,-0.3068356,"90 - 92 South Ealing Road, Ealing, W5 4QB"
2025-11-06,941818,Costa Coffee,Restaurant/Cafe/Canteen,Unit 1,Costume Store Building,160 Victoria Road,Acton,W3 6EE,Ealing,5,2024-09-12,FHRS,False,51.5227900000052,-0.25816500003843,"Unit 1, Costume Store Building, 160 Victoria Road, Acton, W3 6EE"
2025-11-06,1302762,Cote Brasserie,Restaurant/Cafe/Canteen,9 - 10 The Green,Ealing,,,W5 5DA,Ealing,5,2024-09-25,FHRS,False,51.5111652,-0.3050075,"9 - 10 The Green, Ealing, W5 5DA"
2025-11-06,1888306,Craft Burger Ealing,Restaurant/Cafe/Canteen,13 Bond Street,Ealing,,,W5 5AP,Ealing,AwaitingInspection,,FHRS,False,51.512426,-0.305788,"13 Bond Street, Ealing, W5 5AP"
2025-11-06,1561603,Ealing Mangal,Restaurant/Cafe/Canteen,193 Uxbridge Road,West Ealing,,,W13 9AA,Ealing,5,2024-05-10,FHRS,False,51.510992,-0.318004,"193 Uxbridge Road, West Ealing, W13 9AA"
2025-11-06,1129358,Element Coffee,Restaurant/Cafe/Canteen,236 Northfield Avenue,West Ealing,,,W13 9SJ,Ealing,5,2024-10-29,FHRS,False,51.4994043,-0.3150827,"236 Northfield Avenue, West Ealing, W13 9SJ"
2025-11-06,1552034,Five Guys,Restaurant/Cafe/Canteen,Unit 3,Royale Leisure Park,Kendal Avenue,Acton,W3 0PA,Ealing,5,2024-09-13,FHRS,False,51.5228553,-0.2753686,"Unit 3, Royale Leisure Park, Kendal Avenue, Acton, W3 0PA"
2025-11-06,1033789,Franco Manca,Restaurant/Cafe/Canteen,36 New Broadway,Ealing,,,W5 2XA,Ealing,5,2024-09-10,FHRS,False,51.513316,-0.306361,"36 New Broadway, Ealing, W5 2XA"
2025-11-06,927626,Grillville,Restaurant/Cafe/Canteen,114 Pitshanger Lane,Ealing,,,W5 1QP,Ealing,5,2024-09-19,FHRS,False,51.526501,-0.312777,"114 Pitshanger Lane, Ealing, W5 1QP"
2025-11-06,1888305,Gulf Kitchen,Restaurant/Cafe/Canteen,5 - 6 Culmington Parade,Uxbridge Road,West Ealing,,W13 9BD,Ealing,AwaitingInspection,,FHRS,False,51.511466,-0.3146519,"5 - 6 Culmington Parade, Uxbridge Road, West Ealing, W13 9BD"
2025-11-06,1747390,Haku Cafe & Izakaya,Restaurant/Cafe/Canteen,Shop 4 Basement,Edward House,44 The Mall,Ealing,W5 3TJ,Ealing,5,2024-08-29,FHRS,False,51.5133988,-0.2984104,"Shop 4 Basement, Edward House, 44 The Mall, Ealing, W5 3TJ"
2025-11-06,1688844,Hawana Hawak,Restaurant/Cafe/Canteen,Blue Star Hotel,51 - 53 Steyne Road,Acton,,W3 9NU,Ealing,5,2024-08-09,FHRS,False,51.5093754,-0.272304,"Blue Star Hotel, 51 - 53 Steyne Road, Acton, W3 9NU"
2025-11-06,1735190,J&Y Coffeehouse,Restaurant/Cafe/Canteen,17C Richmond Road,Ealing,,,W5 5NS,Ealing,5,2024-07-04,FHRS,False,51.5054901,-0.2999732,"17C Richmond Road, Ealing, W5 5NS"
2025-11-06,1624495,Jamaica Blue,Restaurant/Cafe/Canteen,Units 42D-42E,12 - 13 Ealing Broadway Centre,High Street,Ealing,W5 5JY,Ealing,5,2024-09-10,FHRS,False,51.512272,-0.3044332,"Units 42D-42E, 12 - 13 Ealing Broadway Centre, High Street, Ealing, W5 5JY"
2025-11-06,1888307,Kebab Vibes,Restaurant/Cafe/Canteen,443 Uxbridge Road,Southall,Ealing,,UB1 3ET,Ealing,AwaitingInspection,,FHRS,False,51.5090606,-0.3465737,"443 Uxbridge Road, Southall, Ealing, UB1 3ET"
2025-11-06,1731214,Kimbo,Restaurant/Cafe/Canteen,5A - 6A Oak Road,Ealing,,,W5 3SS,Ealing,5,2024-07-24,FHRS,False,51.5133628,-0.30213,"5A - 6A Oak Road, Ealing, W5 3SS"
2025-11-06,1760316,Laily's,Restaurant/Cafe/Canteen,Ground Floor Shop,11 St Marys Road,Ealing,,W5 5RA,Ealing,5,2024-10-09,FHRS,False,51.5081523,-0.3049753,"Ground Floor Shop, 11 St Marys Road, Ealing, W5 5RA"
2025-11-06,1888317,Larush Shawarma,Restaurant/Cafe/Canteen,187 South Ealing Road,Ealing,,,W5 4RH,Ealing,AwaitingInspection,,FHRS,True,51.4975562,-0.3053974,"187 South Ealing Road, Ealing, W5 4RH"
2025-11-06,1489393,Las Iguanas Ealing / Super Nonna,Restaurant/Cafe/Canteen,28 - 30 New Broadway,Ealing,,,W5 2XA,Ealing,5,2024-04-29,FHRS,False,51.5129329,-0.3064684,"28 - 30 New Broadway, Ealing, W5 2XA"
2025-11-06,1033239,Manor Cafe,Restaurant/Cafe/Canteen,11 Boston Parade,Boston Road,Hanwell,,W7 2DG,Ealing,5,2024-05-02,FHRS,False,51.496913,-0.325712,"11 Boston Parade, Boston Road, Hanwell, W7 2DG"
2025-11-06,1570951,McDonald's,Restaurant/Cafe/Canteen,12 Leamington Park,Acton,,,W3 6TJ,Ealing,5,2024-10-14,FHRS,False,51.5203151,-0.2634863,"12 Leamington Park, Acton, W3 6TJ"
2025-11-06,1570952,McDonald's,Restaurant/Cafe/Canteen,147 - 151 High Street,Acton,,,W3 6LP,Ealing,5,2024-09-11,FHRS,False,51.5068745,-0.27041,"147 - 151 High Street, Acton, W3 6LP"
2025-11-06,1570953,McDonald's,Restaurant/Cafe/Canteen,Unit 1,The Arcadia Centre,The Broadway,Ealing,W5 2ND,Ealing,5,2024-10-25,FHRS,False,51.514019,-0.303985,"Unit 1, The Arcadia Centre, The Broadway, Ealing, W5 2ND"
2025-11-06,1033235,Nando's,Restaurant/Cafe/Canteen,1 - 5 Bond Street,Ealing,,,W5 5AP,Ealing,5,2024-10-21,FHRS,False,51.5125702,-0.3057768,"1 - 5 Bond Street, Ealing, W5 5AP"
2025-11-06,1033082,Nando's,Restaurant/Cafe/Canteen,Nandos,Royale Leisure Park,Kendal Avenue,Acton,W3 0PA,Ealing,5,2024-08-29,FHRS,False,51.525334,-0.281336,"Nandos, Royale Leisure Park, Kendal Avenue, Acton, W3 0PA"
2025-11-06,1033225,Olympic Pavilion,Restaurant/Cafe/Canteen,Olympic Pavilion,Trailfinders Sports Club,Vallis Way,West Ealing,W13 0DD,Ealing,5,2024-09-13,FHRS,False,51.5245,-0.326314,"Olympic Pavilion, Trailfinders Sports Club, Vallis Way, West Ealing, W13 0DD"
2025-11-06,1032556,Papaya,Restaurant/Cafe/Canteen,161 Northfield Avenue,West Ealing,,,W13 9QT,Ealing,5,2024-05-15,FHRS,False,51.502404,-0.316073,"161 Northfield Avenue, West Ealing, W13 9QT"
2025-11-06,1684854,Pepe's Piri Piri,Restaurant/Cafe/Canteen,133 High Street,Acton,,,W3 6LY,Ealing,5,2024-05-29,FHRS,False,51.5065946,-0.2691093,"133 High Street, Acton, W3 6LY"
2025-11-06,1888311,Prophetic Caribbean Cuisine,Restaurant/Cafe/Canteen,185 Old Oak Road,Acton,,,W3 7HH,Ealing,AwaitingInspection,,FHRS,False,51.5131601,-0.2485682,"185 Old Oak Road, Acton, W3 7HH"
2025-11-06,962886,Roti Kitchen,Restaurant/Cafe/Canteen,6 Leeland Road,West Ealing,,,W13 9HH,Ealing,5,2024-06-27,FHRS,False,51.5097973,-0.3230862,"6 Leeland Road, West Ealing, W13 9HH"
2025-11-06,1731212,Royal Fish,Restaurant/Cafe/Canteen,2 Hanger Green,Ealing,,,W5 3EL,Ealing,5,2024-07-25,FHRS,False,51.5269586,-0.2847571,"2 Hanger Green, Ealing, W5 3EL"
2025-11-06,1888320,Shahs Halal Food,Restaurant/Cafe/Canteen,49 The Broadway,Greenford,,,UB6 9PN,Ealing,AwaitingInspection,,FHRS,False,51.5281598,-0.355483,"49 The Broadway, Greenford, UB6 9PN"
2025-11-06,1048620,Snack Box,Restaurant/Cafe/Canteen,Cafe,Overstone House,43 Warple Way,Acton,W3 0RX,Ealing,5,2024-09-27,FHRS,False,51.5045833,-0.2553526,"Cafe, Overstone House, 43 Warple Way, Acton, W3 0RX"
2025-11-06,1032841,Starbucks Coffee,Restaurant/Cafe/Canteen,11 - 12 The Green,Ealing,,,W5 5DA,Ealing,5,2024-07-19,FHRS,False,51.511068,-0.3051264,"11 - 12 The Green, Ealing, W5 5DA"
2025-11-06,1033283,Station Cafe,Restaurant/Cafe/Canteen,Ground Floor Shop,4 Churchfield Road,Acton,,W3 6EG,Ealing,5,2024-08-23,FHRS,False,51.508991,-0.263996,"Ground Floor Shop, 4 Churchfield Road, Acton, W3 6EG"
2025-11-06,930545,Subway,Restaurant/Cafe/Canteen,180 High Street,Acton,,,W3 9NN,Ealing,5,2024-05-21,FHRS,False,51.507494,-0.271618,"180 High Street, Acton, W3 9NN"
2025-11-06,1033224,The Centenary Clubhouse,Restaurant/Cafe/Canteen,Centenary Clubhouse,Trailfinders Sports Club,Vallis Way,West Ealing,W13 0DD,Ealing,5,2024-09-13,FHRS,False,51.5245,-0.326314,"Centenary Clubhouse, Trailfinders Sports Club, Vallis Way, West Ealing, W13 0DD"
2025-11-06,1646059,The Coffee House,Restaurant/Cafe/Canteen,Ground Floor Shop,135 High Street,Acton,,W3 6LY,Ealing,4,2024-08-29,FHRS,False,51.5066046,-0.269181,"Ground Floor Shop, 135 High Street, Acton, W3 6LY"
2025-11-06,1735179,The Piadina Place,Restaurant/Cafe/Canteen,Ground Floor Shop,15 Bond Street,Ealing,,W5 5AP,Ealing,5,2024-07-02,FHRS,False,51.5123361,-0.3057567,"Ground Floor Shop, 15 Bond Street, Ealing, W5 5AP"
2025-11-06,1523405,Tim Hortons Cafe And Bake,Restaurant/Cafe/Canteen,Tim Hortons,Royale Leisure Park,Kendal Avenue,Acton,W3 0PA,Ealing,5,2024-08-02,FHRS,False,51.5257119,-0.2812865,"Tim Hortons, Royale Leisure Park, Kendal Avenue, Acton, W3 0PA"
2025-11-06,1713770,Toteil,Restaurant/Cafe/Canteen,76 High Street,Acton,,,W3 6LE,Ealing,5,2024-06-05,FHRS,False,51.506853,-0.267132,"76 High Street, Acton, W3 6LE"
2025-11-06,1888322,Toyin's Kitchen,Restaurant/Cafe/Canteen,Unit 6,155 The Vale,Acton,,W3 7RH,Ealing,AwaitingInspection,,FHRS,False,51.5064271,-0.2553686,"Unit 6, 155 The Vale, Acton, W3 7RH"
2025-11-06,1033677,Turtle Bay,Restaurant/Cafe/Canteen,16 High Street,Ealing,,,W5 5DD,Ealing,5,2024-09-06,FHRS,False,,,"16 High Street, Ealing, W5 5DD"
2025-11-06,1771030,Vilamoura Cafe,Restaurant/Cafe/Canteen,136 Churchfield Road,Acton,,,W3 6BS,Ealing,5,2024-10-10,FHRS,False,51.508287,-0.270507,"136 Churchfield Road, Acton, W3 6BS"
2025-11-06,1034095,Wadada's Caribbean Deli,Restaurant/Cafe/Canteen,14 Leeland Road,West Ealing,,,W13 9HH,Ealing,5,2024-07-17,FHRS,False,51.509888,-0.32319,"14 Leeland Road, West Ealing, W13 9HH"
2025-11-06,1033463,Wagamama,Restaurant/Cafe/Canteen,11 - 12 High Street,Ealing,,,W5 5DB,Ealing,5,2024-10-01,FHRS,False,51.5121723,-0.3045292,"11 - 12 High Street, Ealing, W5 5DB"
2025-11-06,1764955,Wingstop,Restaurant/Cafe/Canteen,31 New Broadway,Ealing,,,W5 5AW,Ealing,5,2024-10-31,FHRS,False,51.5127259,-0.3059728,"31 New Broadway, Ealing, W5 5AW"
2025-11-06,1178188,Y Lounge,Restaurant/Cafe/Canteen,Cafe,Ymca,25 St Marys Road,Ealing,W5 5RE,Ealing,5,2024-08-08,FHRS,False,51.5071234,-0.3040913,"Cafe, Ymca, 25 St Marys Road, Ealing, W5 5RE"
2025-11-06,985132,Yasmina Restaurant,Restaurant/Cafe/Canteen,18 Western Avenue,Acton,,,W3 7TZ,Ealing,4,2024-05-23,FHRS,False,51.514168,-0.251087,"18 Western Avenue, Acton, W3 7TZ"
2025-11-06,1888015,Bella's,Restaurant/Cafe/Canteen,157 Queen Street,Withernsea,East Riding Of Yorkshire,,HU19 2JR,East Riding of Yorkshire,AwaitingInspection,,FHRS,False,53.7307772,0.0324098,"157 Queen Street, Withernsea, East Riding Of Yorkshire, HU19 2JR"
2025-11-06,1888014,Kani Kaippakuvum,Restaurant/Cafe/Canteen,,,,,,East Riding of Yorkshire,AwaitingInspection,,FHRS,False,,,
2025-11-06,60352,Kats Kafe,Restaurant/Cafe/Canteen,Lancaster Road,Carnaby,Bridlington,,YO15 3QY,East Riding of Yorkshire,5,2025-10-23,FHRS,False,54.060037,-0.257078,"Lancaster Road, Carnaby, Bridlington, YO15 3QY"
2025-11-06,1399577,Umami Derby Ltd,Restaurant/Cafe/Canteen,,4 Nottingham Road,,Borrowash,DE72 3JU,Erewash,5,2025-10-08,FHRS,False,52.9064192,-1.3811601,"4 Nottingham Road, Borrowash, DE72 3JU"
2025-11-06,1567853,Colombo 16,Restaurant/Cafe/Canteen,Cafe and Premises,18-19 Marine Court,Marina,St Leonards-on-sea,TN38 0DX,Hastings,5,2025-10-31,FHRS,False,50.8510780334473,0.556873023509979,"Cafe and Premises, 18-19 Marine Court, Marina, St Leonards-on-sea, TN38 0DX"
2025-11-06,1887927,The Fold,Restaurant/Cafe/Canteen,30 Ebrington Square,,L/Derry,,BT47 6FA,Derry City and Strabane,AwaitingInspection,,FHRS,False,,,"30 Ebrington Square, L/Derry, BT47 6FA"
2025-11-06,1888138,Match Day Munch,Restaurant/Cafe/Canteen,Flamstead End Hall,Albemarle Avenue,Cheshunt,Hertfordshire,EN8 0EY,Broxbourne,AwaitingInspection,,FHRS,False,51.7124995,-0.0464868,"Flamstead End Hall, Albemarle Avenue, Cheshunt, Hertfordshire, EN8 0EY"
2025-11-06,1888062,Beef King Blackburn,Restaurant/Cafe/Canteen,70A Darwen Street,,Blackburn,Blackburn With Darwen,BB2 2BL,Blackburn,AwaitingInspection,,FHRS,False,53.7456205,-2.4825999,"70A Darwen Street, Blackburn, Blackburn With Darwen, BB2 2BL"
2025-11-06,1888035,Bees,Restaurant/Cafe/Canteen,Ground Floor 27 Northgate,,Blackburn,Blackburn With Darwen,BB2 1JU,Blackburn,AwaitingInspection,,FHRS,False,53.748446,-2.4849415,"Ground Floor 27 Northgate, Blackburn, Blackburn With Darwen, BB2 1JU"
2025-11-06,1888046,Blackburn Breakfast,Restaurant/Cafe/Canteen,34 - 38 Whalley Banks,,Blackburn,Blackburn With Darwen,BB2 1NU,Blackburn,1,2025-09-02,FHRS,False,53.7441268,-2.491823,"34 - 38 Whalley Banks, Blackburn, Blackburn With Darwen, BB2 1NU"
2025-11-06,1888059,Blackburn People's Choir,Restaurant/Cafe/Canteen,Wesley Hall Feilden Street,,Blackburn,Blackburn With Darwen,BB2 1LQ,Blackburn,AwaitingInspection,,FHRS,False,,,"Wesley Hall Feilden Street, Blackburn, Blackburn With Darwen, BB2 1LQ"
2025-11-06,1888071,Cafe RAHA,Restaurant/Cafe/Canteen,Unit 1 Roe Lee Retail Centre Whalley New Road,,Blackburn,Blackburn With Darwen,BB1 9AU,Blackburn,AwaitingInspection,,FHRS,False,53.7692445,-2.4779331,"Unit 1 Roe Lee Retail Centre Whalley New Road, Blackburn, Blackburn With Darwen, BB1 9AU"
2025-11-06,1888079,Casa Turka,Restaurant/Cafe/Canteen,Darwen Bar And Grill The Green,,Darwen,Blackburn With Darwen,BB3 1PW,Blackburn,AwaitingInspection,,FHRS,False,,,"Darwen Bar And Grill The Green, Darwen, Blackburn With Darwen, BB3 1PW"
2025-11-06,1888065,Cravings Desserts,Restaurant/Cafe/Canteen,Unit 1 Audley Hall Mill Dickens Street,,Blackburn,Blackburn With Darwen,BB1 1RN,Blackburn,AwaitingInspection,,FHRS,False,53.7422612,-2.4686876,"Unit 1 Audley Hall Mill Dickens Street, Blackburn, Blackburn With Darwen, BB1 1RN"
2025-11-06,1888081,Freya's Grill,Restaurant/Cafe/Canteen,161 - 163 Duckworth Street,,Darwen,Blackburn With Darwen,BB3 1AT,Blackburn,AwaitingInspection,,FHRS,False,53.6987287,-2.4708856,"161 - 163 Duckworth Street, Darwen, Blackburn With Darwen, BB3 1AT"
2025-11-06,1888056,Home Start Blackburn and Darwen,Restaurant/Cafe/Canteen,Unit 14 Business Development Centre Eanam,,Blackburn,Blackburn With Darwen,BB1 5BL,Blackburn,AwaitingInspection,,FHRS,False,53.7490957,-2.4733433,"Unit 14 Business Development Centre Eanam, Blackburn, Blackburn With Darwen, BB1 5BL"
2025-11-06,1888038,Lunch!,Restaurant/Cafe/Canteen,147A Whalley Old Road,,Blackburn,Blackburn With Darwen,BB1 5NZ,Blackburn,AwaitingInspection,,FHRS,False,53.7588554,-2.4665921,"147A Whalley Old Road, Blackburn, Blackburn With Darwen, BB1 5NZ"
2025-11-06,1888061,Pastaliano,Restaurant/Cafe/Canteen,60 Darwen Street,,Blackburn,Blackburn With Darwen,BB2 2BL,Blackburn,AwaitingInspection,,FHRS,False,53.7458509,-2.4825088,"60 Darwen Street, Blackburn, Blackburn With Darwen, BB2 2BL"
2025-11-06,1888033,Subway,Restaurant/Cafe/Canteen,654 Preston Old Road,,Blackburn,Blackburn With Darwen,BB2 5EP,Blackburn,AwaitingInspection,,FHRS,False,53.7276282,-2.5350637,"654 Preston Old Road, Blackburn, Blackburn With Darwen, BB2 5EP"
2025-11-06,1888063,Sweet Vintage,Restaurant/Cafe/Canteen,Unit 3 To 4 Croft Street,,Darwen,Blackburn With Darwen,BB3 1BH,Blackburn,AwaitingInspection,,FHRS,False,53.6958586,-2.4668365,"Unit 3 To 4 Croft Street, Darwen, Blackburn With Darwen, BB3 1BH"
2025-11-06,1888078,The Bengal Tiger,Restaurant/Cafe/Canteen,106 Bolton Road,,Blackburn,Blackburn With Darwen,BB2 3PZ,Blackburn,AwaitingInspection,,FHRS,False,53.73893149,-2.4868763,"106 Bolton Road, Blackburn, Blackburn With Darwen, BB2 3PZ"
2025-11-06,1888040,The Olive and Pepper,Restaurant/Cafe/Canteen,29 New Chapel Street,,Blackburn,Blackburn With Darwen,BB2 4DT,Blackburn,AwaitingInspection,,FHRS,False,53.7333023,-2.5024373,"29 New Chapel Street, Blackburn, Blackburn With Darwen, BB2 4DT"
2025-11-06,1888092,Bordon Fish & Chips | Cafe,Restaurant/Cafe/Canteen,6 High Street Bordon GU35 0AY,,,,GU35 0AY,East Hampshire,AwaitingInspection,,FHRS,False,51.1109919,-0.8636152,"6 High Street Bordon GU35 0AY, GU35 0AY"
2025-11-06,1888225,Amore Pizza Napoletana,Restaurant/Cafe/Canteen,1 Colmore Square,Birmingham,,,B4 6AA,Birmingham,AwaitingInspection,,FHRS,False,52.4826203,-1.8964182,"1 Colmore Square, Birmingham, B4 6AA"
2025-11-06,1888264,Avenues Fried Chicken,Restaurant/Cafe/Canteen,525 Green Lane,Bordesley Green,Birmingham,,B9 5PT,Birmingham,AwaitingInspection,,FHRS,False,52.475453,-1.842983,"525 Green Lane, Bordesley Green, Birmingham, B9 5PT"
2025-11-06,1888255,AYLA'S,Restaurant/Cafe/Canteen,319 Slade Road,Stockland Green,Birmingham,,B23 7JX,Birmingham,AwaitingInspection,,FHRS,False,52.5182591,-1.8563102,"319 Slade Road, Stockland Green, Birmingham, B23 7JX"
2025-11-06,1888184,Becky's Food Store,Restaurant/Cafe/Canteen,99 Woodcote Road,Birmingham,,,B24 0HB,Birmingham,AwaitingInspection,,FHRS,False,52.5248745,-1.8164616,"99 Woodcote Road, Birmingham, B24 0HB"
2025-11-06,1799760,Braai Spot,Restaurant/Cafe/Canteen,11-16 Eyre Street,Birmingham,,,B18 7AA,Birmingham,AwaitingInspection,,FHRS,False,52.48545,-1.925516,"11-16 Eyre Street, Birmingham, B18 7AA"
2025-11-06,1888245,Breakfast food,Restaurant/Cafe/Canteen,150 Rookery Road,Handsworth Wood,Birmingham,,B21 9NN,Birmingham,AwaitingInspection,,FHRS,False,52.509587,-1.940165,"150 Rookery Road, Handsworth Wood, Birmingham, B21 9NN"
2025-11-06,1888238,breakfast hq,Restaurant/Cafe/Canteen,1-3 Kings Road,Sutton Vesey,Birmingham,Birmingham,B73 5AB,Birmingham,AwaitingInspection,,FHRS,False,52.548356,-1.860965,"1-3 Kings Road, Sutton Vesey, Birmingham, Birmingham, B73 5AB"
2025-11-06,1888210,Cadbury World Cafe,Restaurant/Cafe/Canteen,Cadbury World,Linden Road,Birmingham,,B30 2LB,Birmingham,AwaitingInspection,,FHRS,False,52.429495,-1.924359,"Cadbury World, Linden Road, Birmingham, B30 2LB"
2025-11-06,1888232,Camden West Cafe,Restaurant/Cafe/Canteen,Camden House East,Parade,Ladywood,Birmingham,B1 3PY,Birmingham,AwaitingInspection,,FHRS,False,52.482262,-1.9096435,"Camden House East, Parade, Ladywood, Birmingham, B1 3PY"
2025-11-06,1888262,Desi Stop,Restaurant/Cafe/Canteen,446 Bordesley Green,Bordesley Green,Birmingham,,B9 5NS,Birmingham,AwaitingInspection,,FHRS,False,52.4784056,-1.8442436,"446 Bordesley Green, Bordesley Green, Birmingham, B9 5NS"
2025-11-06,1888292,Dhadan Ltd,Restaurant/Cafe/Canteen,Jenkins Street,Birmingham,,,B10 0QH,Birmingham,AwaitingInspection,,FHRS,False,52.471128,-1.863667,"Jenkins Street, Birmingham, B10 0QH"
2025-11-06,1888231,Dostan Fast Food,Restaurant/Cafe/Canteen,1108 Coventry Road,South Yardley,Birmingham,,B25 8DT,Birmingham,AwaitingInspection,,FHRS,False,52.463547,-1.834061,"1108 Coventry Road, South Yardley, Birmingham, B25 8DT"
2025-11-06,1888233,ESCafe,Restaurant/Cafe/Canteen,55 Vyse Street,Ladywood,Birmingham,,B18 6HR,Birmingham,AwaitingInspection,,FHRS,False,52.4912716,-1.9117164,"55 Vyse Street, Ladywood, Birmingham, B18 6HR"
2025-11-06,1888274,Flamingoo,Restaurant/Cafe/Canteen,142 High Street,Erdington,Birmingham,,B23 6RS,Birmingham,AwaitingInspection,,FHRS,False,52.524298,-1.838004,"142 High Street, Erdington, Birmingham, B23 6RS"
2025-11-06,1888226,Garma Garam,Restaurant/Cafe/Canteen,189 Gravelly Lane,Erdington,Birmingham,,B23 5SG,Birmingham,AwaitingInspection,,FHRS,False,52.531547,-1.840646,"189 Gravelly Lane, Erdington, Birmingham, B23 5SG"
2025-11-06,1888248,Gidi Junction,Restaurant/Cafe/Canteen,15 Proctor Street,Birmingham,,,B7 4ED,Birmingham,AwaitingInspection,,FHRS,False,52.490368,-1.8816054,"15 Proctor Street, Birmingham, B7 4ED"
2025-11-06,1888228,Grillzino,Restaurant/Cafe/Canteen,606-608 Washwood Heath Road,Birmingham,,,B8 2HG,Birmingham,AwaitingInspection,,FHRS,False,52.4938485,-1.833634,"606-608 Washwood Heath Road, Birmingham, B8 2HG"
2025-11-06,1888252,Gyo Curry,Restaurant/Cafe/Canteen,44 Essex Street,Birmingham,,,B5 4TR,Birmingham,AwaitingInspection,,FHRS,False,52.4731152,-1.8973885,"44 Essex Street, Birmingham, B5 4TR"
2025-11-06,1888254,happy spot,Restaurant/Cafe/Canteen,155 Vaughton Street,Birmingham,,,B12 0SS,Birmingham,AwaitingInspection,,FHRS,False,52.4691641,-1.889253,"155 Vaughton Street, Birmingham, B12 0SS"
2025-11-06,1888198,Home Habits,Restaurant/Cafe/Canteen,,,,,,Birmingham,AwaitingInspection,,FHRS,False,,,
2025-11-06,1888168,Hoppy26 Limited,Restaurant/Cafe/Canteen,55 Lazy Hill,Birmingham,,,B38 9NY,Birmingham,AwaitingInspection,,FHRS,False,52.40721,-1.9176445,"55 Lazy Hill, Birmingham, B38 9NY"
2025-11-06,1888206,Izgara Steakhouse Bar & Turkish Restaurant,Restaurant/Cafe/Canteen,17 High Street,Moseley And Kings Heath,Birmingham,,B14 7BB,Birmingham,AwaitingInspection,,FHRS,False,52.437876,-1.892469,"17 High Street, Moseley And Kings Heath, Birmingham, B14 7BB"
2025-11-06,1888250,Jenny's,Restaurant/Cafe/Canteen,68X Sapcote Trading Centre,Wyrley Road,Perry Barr,Birmingham,B6 7BN,Birmingham,AwaitingInspection,,FHRS,False,52.5161874,-1.8765356,"68X Sapcote Trading Centre, Wyrley Road, Perry Barr, Birmingham, B6 7BN"
2025-11-06,1888260,Juice Time,Restaurant/Cafe/Canteen,Juice Time,1 Horton Square,Birmingham,,B12 0YR,Birmingham,5,2025-10-09,FHRS,False,52.4653638,-1.8919266,"Juice Time, 1 Horton Square, Birmingham, B12 0YR"
2025-11-06,1888256,JUICES4LIFE CAFE,Restaurant/Cafe/Canteen,116-118 Bordesley Green,Nechells,Birmingham,,B9 4TS,Birmingham,AwaitingInspection,,FHRS,False,52.4768162,-1.8570789,"116-118 Bordesley Green, Nechells, Birmingham, B9 4TS"
2025-11-06,1888222,Klassic Events,Restaurant/Cafe/Canteen,Unit 10,Western Industrial Complex,Western Road,Birmingham,B18 7QD,Birmingham,AwaitingInspection,,FHRS,False,52.4884943,-1.9268507,"Unit 10, Western Industrial Complex, Western Road, Birmingham, B18 7QD"
2025-11-06,1888234,Lemonworld,Restaurant/Cafe/Canteen,Unit 4,Clonmel Road Business Park,Clonmel Road,Birmingham,B30 2BU,Birmingham,AwaitingInspection,,FHRS,False,52.4251837,-1.9249622,"Unit 4, Clonmel Road Business Park, Clonmel Road, Birmingham, B30 2BU"
2025-11-06,1888214,Loaded,Restaurant/Cafe/Canteen,10 Buckingham Street,Birmingham,,,B19 3HT,Birmingham,AwaitingInspection,,FHRS,False,52.4890727,-1.9019753,"10 Buckingham Street, Birmingham, B19 3HT"
2025-11-06,1888219,Manzoku mobile ltd,Restaurant/Cafe/Canteen,1 Colmore Square,Birmingham,,,B4 6AA,Birmingham,AwaitingInspection,,FHRS,False,52.4826203,-1.8964182,"1 Colmore Square, Birmingham, B4 6AA"
2025-11-06,1888211,Melkon,Restaurant/Cafe/Canteen,424 Moseley Road,Sparkbrook,Birmingham,,B12 9AT,Birmingham,AwaitingInspection,,FHRS,False,52.459993,-1.88435,"424 Moseley Road, Sparkbrook, Birmingham, B12 9AT"
2025-11-06,1888244,Midnight cravings (Perry Barr),Restaurant/Cafe/Canteen,436-438 Birchfield Road,Birmingham,,,B20 3JG,Birmingham,AwaitingInspection,,FHRS,False,52.5142518,-1.9023286,"436-438 Birchfield Road, Birmingham, B20 3JG"
2025-11-06,1888251,Morocco shisha lounge,Restaurant/Cafe/Canteen,616 Washwood Heath Road,Birmingham,,,B8 2HG,Birmingham,AwaitingInspection,,FHRS,False,52.4937582,-1.8333545,"616 Washwood Heath Road, Birmingham, B8 2HG"
2025-11-06,1888247,Shang Social,Restaurant/Cafe/Canteen,12 Pershore Street,Birmingham,,,B5 4RX,Birmingham,AwaitingInspection,,FHRS,False,52.4759795,-1.8963563,"12 Pershore Street, Birmingham, B5 4RX"
2025-11-06,1888295,Shanghai food dumplings,Restaurant/Cafe/Canteen,Unit 10,Arcadian Centre Food Court,Birmingham,,B5 4TD,Birmingham,AwaitingInspection,,FHRS,False,,,"Unit 10, Arcadian Centre Food Court, Birmingham, B5 4TD"
2025-11-06,1888281,SHK Colmore Ltd,Restaurant/Cafe/Canteen,1 Colmore Square,Birmingham,,,B4 6AA,Birmingham,AwaitingInspection,,FHRS,False,52.4826203,-1.8964182,"1 Colmore Square, Birmingham, B4 6AA"
2025-11-06,1888230,Slap & Pickle Burgers,Restaurant/Cafe/Canteen,1 Colmore Square,Birmingham,,,B4 6AA,Birmingham,AwaitingInspection,,FHRS,True,52.4826203,-1.8964182,"1 Colmore Square, Birmingham, B4 6AA"
2025-11-06,1888241,Society Birmingham,Restaurant/Cafe/Canteen,1 Colmore Square,Birmingham,,,B4 6AA,Birmingham,AwaitingInspection,,FHRS,False,52.4826203,-1.8964182,"1 Colmore Square, Birmingham, B4 6AA"
2025-11-06,1888213,Starbucks,Restaurant/Cafe/Canteen,International Convention Centre,8 Centenary Square,Birmingham,,B1 2EA,Birmingham,AwaitingInspection,,FHRS,False,52.478876,-1.910803,"International Convention Centre, 8 Centenary Square, Birmingham, B1 2EA"
2025-11-06,1888259,Suli Lounge,Restaurant/Cafe/Canteen,343-345 Soho Road,Birmingham,,,B21 9SE,Birmingham,AwaitingInspection,,FHRS,False,52.504085,-1.939539,"343-345 Soho Road, Birmingham, B21 9SE"
2025-11-06,1888282,Sultan Grill,Restaurant/Cafe/Canteen,714-716 Alum Rock Road,Birmingham,,,B8 3PP,Birmingham,AwaitingInspection,,FHRS,False,52.4879483,-1.8316683,"714-716 Alum Rock Road, Birmingham, B8 3PP"
2025-11-06,1888253,Thali@Moseley,Restaurant/Cafe/Canteen,2-4 St Marys Row,Birmingham,,,B13 8JG,Birmingham,AwaitingInspection,,FHRS,False,52.446133,-1.887211,"2-4 St Marys Row, Birmingham, B13 8JG"
2025-11-06,1888235,The Coffee Bar Collective,Restaurant/Cafe/Canteen,1 Colmore Square,Birmingham,,,B4 6AA,Birmingham,AwaitingInspection,,FHRS,False,52.4826203,-1.8964182,"1 Colmore Square, Birmingham, B4 6AA"
2025-11-06,1888265,The Spices Corner,Restaurant/Cafe/Canteen,8 St Stephens Road,Birmingham,,,B29 7RP,Birmingham,AwaitingInspection,,FHRS,False,52.435218,-1.919128,"8 St Stephens Road, Birmingham, B29 7RP"
2025-11-06,1888270,Tranquil 1992 Coffee House,Restaurant/Cafe/Canteen,18A Hall Street,Birmingham,,,B18 6BS,Birmingham,AwaitingInspection,,FHRS,False,52.4879786,-1.9088469,"18A Hall Street, Birmingham, B18 6BS"
2025-11-06,1888263,TRIIIO,Restaurant/Cafe/Canteen,722 Yardley Wood Road,Billesley,Birmingham,,B13 0HY,Birmingham,AwaitingInspection,,FHRS,False,52.4259796142578,-1.87104105949402,"722 Yardley Wood Road, Billesley, Birmingham, B13 0HY"
2025-11-06,1888205,Uni Original Pizza & Kebabs,Restaurant/Cafe/Canteen,255 Walsall Road,Perry Barr,Birmingham,,B42 1TY,Birmingham,AwaitingInspection,,FHRS,False,52.525691986084,-1.9043710231781,"255 Walsall Road, Perry Barr, Birmingham, B42 1TY"
2025-11-06,1888209,Utilita Arena (National Indoor Arena),Restaurant/Cafe/Canteen,Utilita Arena,King Edwards Road,Birmingham,,B1 2AA,Birmingham,AwaitingInspection,,FHRS,False,,,"Utilita Arena, King Edwards Road, Birmingham, B1 2AA"
2025-11-06,1888229,Yalla Grill Ltd,Restaurant/Cafe/Canteen,482 Coventry Road,Nechells,Birmingham,,B10 0UG,Birmingham,AwaitingInspection,,FHRS,False,52.4698683,-1.8582494,"482 Coventry Road, Nechells, Birmingham, B10 0UG"
2025-11-06,1716093,Al Kasbah,Restaurant/Cafe/Canteen,188 High Street,London Colney,Hertfordshire,,AL2 1JQ,St Albans City,5,2024-02-17,FHRS,False,51.7247332,-0.2962496,"188 High Street, London Colney, Hertfordshire, AL2 1JQ"
2025-11-06,1715889,Atesh Grill and Bar,Restaurant/Cafe/Canteen,Losh Bar and Grill,9 Station Road,Harpenden,Hertfordshire,AL5 4AA,St Albans City,5,2024-11-26,FHRS,False,51.8146226,-0.3539815,"Losh Bar and Grill, 9 Station Road, Harpenden, Hertfordshire, AL5 4AA"
2025-11-06,1715892,Batch'd,Restaurant/Cafe/Canteen,37 Chequer Street,St Albans,Hertfordshire,,AL1 3YJ,St Albans City,5,2022-11-14,FHRS,False,51.751928,-0.3391384,"37 Chequer Street, St Albans, Hertfordshire, AL1 3YJ"
2025-11-06,1716069,BaxterStorey @ Premier Foods,Restaurant/Cafe/Canteen,BaxterStorey @ Premier Foods Premier House,Griffiths Way,St Albans,Hertfordshire,,St Albans City,5,2023-12-13,FHRS,False,,,"BaxterStorey @ Premier Foods Premier House, Griffiths Way, St Albans, Hertfordshire"
2025-11-06,1716064,Black Sheep Coffee,Restaurant/Cafe/Canteen,51 St Peters Street,St Albans,Hertfordshire,,AL1 3DY,St Albans City,5,2024-03-13,FHRS,False,51.7536974,-0.3377261,"51 St Peters Street, St Albans, Hertfordshire, AL1 3DY"
2025-11-06,1716070,Boha,Restaurant/Cafe/Canteen,32-34 Holywell Hill,St Albans,Hertfordshire,,AL1 1BZ,St Albans City,5,2023-11-24,FHRS,False,51.7499888,-0.3406294,"32-34 Holywell Hill, St Albans, Hertfordshire, AL1 1BZ"
2025-11-06,1715744,Books on the Hill,Restaurant/Cafe/Canteen,1 Holywell Hill,St Albans,Hertfordshire,,AL1 1ER,St Albans City,5,2023-12-14,FHRS,False,51.7505611,-0.3397681,"1 Holywell Hill, St Albans, Hertfordshire, AL1 1ER"
2025-11-06,1715947,Brad and Dills,Restaurant/Cafe/Canteen,3A London Road,St Albans,Hertfordshire,,AL1 1LA,St Albans City,4,2024-07-18,FHRS,False,51.7508097,-0.3389042,"3A London Road, St Albans, Hertfordshire, AL1 1LA"
2025-11-06,1715714,Brad and Dills,Restaurant/Cafe/Canteen,67 High Street,Harpenden,Hertfordshire,,,St Albans City,4,2024-11-07,FHRS,False,,,"67 High Street, Harpenden, Hertfordshire"
2025-11-06,1716017,Cafe Alfresco,Restaurant/Cafe/Canteen,84 Victoria Street,St Albans,Hertfordshire,,AL1 3TG,St Albans City,5,2024-12-09,FHRS,False,51.750624,-0.33124,"84 Victoria Street, St Albans, Hertfordshire, AL1 3TG"
2025-11-06,1716071,Cafe Grill,Restaurant/Cafe/Canteen,63 Hatfield Road,St Albans,Hertfordshire,,AL1 4JE,St Albans City,5,2024-02-03,FHRS,False,51.75181,-0.322359,"63 Hatfield Road, St Albans, Hertfordshire, AL1 4JE"
2025-11-06,1716131,Cafe Roma,Restaurant/Cafe/Canteen,79 St Peters Street,St Albans,Hertfordshire,,AL1 3EG,St Albans City,5,2024-04-23,FHRS,False,51.754738,-0.336666,"79 St Peters Street, St Albans, Hertfordshire, AL1 3EG"
2025-11-06,1715985,Caffe Carluccio's,Restaurant/Cafe/Canteen,Sainsburys,Everard Close,St Albans,Hertfordshire,AL1 2QU,St Albans City,5,2025-07-17,FHRS,False,51.7443351745605,-0.342436999082565,"Sainsburys, Everard Close, St Albans, Hertfordshire, AL1 2QU"
2025-11-06,1716065,Casbah,Restaurant/Cafe/Canteen,126 London Road,St Albans,Hertfordshire,,AL1 1PQ,St Albans City,5,2024-09-26,FHRS,False,51.748444,-0.333479,"126 London Road, St Albans, Hertfordshire, AL1 1PQ"
2025-11-06,1715743,Centre 33 catering @ The Salvation Army,Restaurant/Cafe/Canteen,16-18 Victoria Street,St Albans,Hertfordshire,,AL1 3JB,St Albans City,5,2023-08-23,FHRS,False,51.751869,-0.337916,"16-18 Victoria Street, St Albans, Hertfordshire, AL1 3JB"
2025-11-06,1716081,Chill at Chillies Restaurant,Restaurant/Cafe/Canteen,415A Hatfield Road,St Albans,Hertfordshire,,AL4 0XP,St Albans City,4,2024-05-25,FHRS,False,51.7519936,-0.2953828,"415A Hatfield Road, St Albans, Hertfordshire, AL4 0XP"
2025-11-06,1716016,Chilli Raj Restaurant,Restaurant/Cafe/Canteen,61 Stanhope Road,St Albans,Hertfordshire,,AL1 5BJ,St Albans City,5,2023-10-19,FHRS,False,51.750955,-0.324187,"61 Stanhope Road, St Albans, Hertfordshire, AL1 5BJ"
2025-11-06,1716015,City Spice,Restaurant/Cafe/Canteen,63 Lattimore Road,St Albans,Hertfordshire,,AL1 3XL,St Albans City,3,2024-12-19,FHRS,False,51.750257,-0.33331,"63 Lattimore Road, St Albans, Hertfordshire, AL1 3XL"
2025-11-06,1715833,Costa Coffee,Restaurant/Cafe/Canteen,Retail Unit 2,St Albans City Railway Station,Station Way,St Albans,AL1 5HE,St Albans City,5,2024-06-07,FHRS,False,51.7502318,-0.3273355,"Retail Unit 2, St Albans City Railway Station, Station Way, St Albans, AL1 5HE"
2025-11-06,1715703,Courtyard Cafe,Restaurant/Cafe/Canteen,11 Hatfield Road,St Albans,Hertfordshire,,,St Albans City,5,2023-10-20,FHRS,False,,,"11 Hatfield Road, St Albans, Hertfordshire"
2025-11-06,1716021,Dark Fire Cafe,Restaurant/Cafe/Canteen,Unit 8,Gavel Centre,Porters Wood,St Albans,AL3 6PQ,St Albans City,4,2025-07-30,FHRS,False,51.7705648,-0.3262066,"Unit 8, Gavel Centre, Porters Wood, St Albans, AL3 6PQ"
2025-11-06,1715910,Everyone Active @ Cotlandswick Leisure Centre,Restaurant/Cafe/Canteen,Cotlandswick Leisure Centre,341 High Street,London Colney,Hertfordshire,AL2 1EB,St Albans City,5,2023-02-09,FHRS,False,,,"Cotlandswick Leisure Centre, 341 High Street, London Colney, Hertfordshire, AL2 1EB"
2025-11-06,1715992,Fade to Black,Restaurant/Cafe/Canteen,65 The Quadrant,St Albans,Hertfordshire,,AL4 9RD,St Albans City,4,2024-10-01,FHRS,False,51.7637062072754,-0.306122004985809,"65 The Quadrant, St Albans, Hertfordshire, AL4 9RD"
2025-11-06,1715763,Five Guys,Restaurant/Cafe/Canteen,17 St Peters Street,St Albans,Hertfordshire,,AL1 3DP,St Albans City,5,2023-10-26,FHRS,False,51.7529049,-0.3386948,"17 St Peters Street, St Albans, Hertfordshire, AL1 3DP"
2025-11-06,1716044,Fleetville Community Playgroup Community Cafe,Restaurant/Cafe/Canteen,Fleetville Community Centre,Royal Road,St Albans,Hertfordshire,AL1 4LQ,St Albans City,4,2023-11-28,FHRS,False,51.752386,-0.312369,"Fleetville Community Centre, Royal Road, St Albans, Hertfordshire, AL1 4LQ"
2025-11-06,1716054,Goulasz Kitchen,Restaurant/Cafe/Canteen,,,,,,St Albans City,5,2023-11-21,FHRS,False,,,
2025-11-06,1715773,Gusto Catering Limited catering @ Eric Morecambe,Restaurant/Cafe/Canteen,Gusto Catering Limited @ Eric Morecambe Centre,Rothamsted Park,Leyton Road,Harpenden,AL5 2FR,St Albans City,5,2025-06-10,FHRS,False,51.8130189,-0.3582615,"Gusto Catering Limited @ Eric Morecambe Centre, Rothamsted Park, Leyton Road, Harpenden, AL5 2FR"
2025-11-06,1716060,HATCH,Restaurant/Cafe/Canteen,7-8 Christopher Place,St Albans,Hertfordshire,,AL3 5DQ,St Albans City,5,2023-10-24,FHRS,False,51.751915,-0.340522,"7-8 Christopher Place, St Albans, Hertfordshire, AL3 5DQ"
2025-11-06,1716052,Heartwood Tea Rooms,Restaurant/Cafe/Canteen,27 High Street,Sandridge,Hertfordshire,,,St Albans City,5,2025-06-04,FHRS,False,51.5941951,-0.3353697,"27 High Street, Sandridge, Hertfordshire"
2025-11-06,1715935,Homewood Cafe @ Homewood Road United,Restaurant/Cafe/Canteen,Homewood Cafe Homewood Road United,Homewood Road,St Albans,Hertfordshire,AL1 4BH,St Albans City,5,2023-01-26,FHRS,False,,,"Homewood Cafe Homewood Road United, Homewood Road, St Albans, Hertfordshire, AL1 4BH"
2025-11-06,1715721,itsu,Restaurant/Cafe/Canteen,23 St Peters Street,St Albans,Hertfordshire,,AL1 3DP,St Albans City,5,2025-07-17,FHRS,False,51.7531308,-0.3383554,"23 St Peters Street, St Albans, Hertfordshire, AL1 3DP"
2025-11-06,1715923,JOE & THE JUICE,Restaurant/Cafe/Canteen,The Mansion,1 St Peters Street,St Albans,Hertfordshire,AL1 3DH,St Albans City,4,2024-07-31,FHRS,False,51.7524683,-0.339191,"The Mansion, 1 St Peters Street, St Albans, Hertfordshire, AL1 3DH"
2025-11-06,1715994,Knoops,Restaurant/Cafe/Canteen,Basement And Ground Floor,12 Market Place,St Albans,Hertfordshire,AL3 5DG,St Albans City,5,2025-06-06,FHRS,False,51.7514172,-0.3398961,"Basement And Ground Floor, 12 Market Place, St Albans, Hertfordshire, AL3 5DG"
2025-11-06,1715790,Legends Cafe,Restaurant/Cafe/Canteen,299 High Street,London Colney,Hertfordshire,,AL2 1EJ,St Albans City,AwaitingInspection,,FHRS,False,51.72664,-0.299081,"299 High Street, London Colney, Hertfordshire, AL2 1EJ"
2025-11-06,1716089,Losh Bar and Grill,Restaurant/Cafe/Canteen,9 Station Road,Harpenden,Hertfordshire,,AL5 4AA,St Albans City,5,2024-11-26,FHRS,False,51.814769744873,-0.353534013032913,"9 Station Road, Harpenden, Hertfordshire, AL5 4AA"
2025-11-06,1716050,Lussmanns St Albans,Restaurant/Cafe/Canteen,14-16 Heritage Close,High Street,St Albans,Hertfordshire,AL3 4EB,St Albans City,5,2024-04-09,FHRS,False,51.750994,-0.341498,"14-16 Heritage Close, High Street, St Albans, Hertfordshire, AL3 4EB"
2025-11-06,1715884,Marley's,Restaurant/Cafe/Canteen,1A Station Road,Wheathampstead,Hertfordshire,,AL4 8BU,St Albans City,5,2024-11-23,FHRS,False,51.814322,-0.293605,"1A Station Road, Wheathampstead, Hertfordshire, AL4 8BU"
2025-11-06,1715772,Monty's (Gusto Catering) catering @ Harpenden,Restaurant/Cafe/Canteen,Monty's (Gusto Catering) catering @ Harpenden,Leyton Road,Harpenden,Hertfordshire,AL5 2HU,St Albans City,5,2023-11-13,FHRS,False,,,"Monty's (Gusto Catering) catering @ Harpenden, Leyton Road, Harpenden, Hertfordshire, AL5 2HU"
2025-11-06,1715807,Murgano's Peri Peri,Restaurant/Cafe/Canteen,82A Victoria Street,St Albans,Hertfordshire,,AL1 3TG,St Albans City,3,2025-07-21,FHRS,False,51.750624,-0.33124,"82A Victoria Street, St Albans, Hertfordshire, AL1 3TG"
2025-11-06,1715915,Nouvelle Lounge,Restaurant/Cafe/Canteen,1 Wycombe Place,St Albans,Hertfordshire,,AL4 9RH,St Albans City,4,2025-02-14,FHRS,False,51.765145,-0.3073,"1 Wycombe Place, St Albans, Hertfordshire, AL4 9RH"
2025-11-06,1715972,PattyStop,Restaurant/Cafe/Canteen,256 Hatfield Road,St Albans,Hertfordshire,,AL1 4UN,St Albans City,5,2025-06-14,FHRS,False,51.752093,-0.30886,"256 Hatfield Road, St Albans, Hertfordshire, AL1 4UN"
2025-11-06,1715586,Restaurant Associates,Restaurant/Cafe/Canteen,Compass Catering @ Deloitte LLP 3 Victoria,Victoria Street,St Albans,Hertfordshire,AL1 3TF,St Albans City,5,2023-06-16,FHRS,False,51.7491705,-0.3260564,"Compass Catering @ Deloitte LLP 3 Victoria, Victoria Street, St Albans, Hertfordshire, AL1 3TF"
2025-11-06,1715591,Samrat,Restaurant/Cafe/Canteen,156 London Road,St Albans,Hertfordshire,,AL1 1PQ,St Albans City,5,2025-06-09,FHRS,False,51.7482994,-0.3330858,"156 London Road, St Albans, Hertfordshire, AL1 1PQ"
2025-11-06,1715782,Serco PECS catering @ St Albans Magistrates Court,Restaurant/Cafe/Canteen,Serco PECS St Albans Magistrates Court,Civic Centre,St Peters Street,St Albans,AL1 3LB,St Albans City,Exempt,,FHRS,False,51.7524969,-0.3367705,"Serco PECS St Albans Magistrates Court, Civic Centre, St Peters Street, St Albans, AL1 3LB"
2025-11-06,1715954,Spice 85,Restaurant/Cafe/Canteen,85 Old Watford Road,Bricket Wood,Hertfordshire,,AL2 3UN,St Albans City,4,2025-03-13,FHRS,False,51.708559,-0.378728,"85 Old Watford Road, Bricket Wood, Hertfordshire, AL2 3UN"
2025-11-06,1716083,St Albans Community Pantry (Breakfast Club),Restaurant/Cafe/Canteen,Fleetville Community Centre,Royal Road,St Albans,Hertfordshire,AL1 4LQ,St Albans City,5,2023-10-11,FHRS,False,51.752386,-0.312369,"Fleetville Community Centre, Royal Road, St Albans, Hertfordshire, AL1 4LQ"
2025-11-06,1715948,Talkington Bates Ltd,Restaurant/Cafe/Canteen,All Saints Pastoral Centre,Shenley Lane,London Colney,Hertfordshire,AL2 1AF,St Albans City,5,2024-07-30,FHRS,False,51.712307,-0.300965,"All Saints Pastoral Centre, Shenley Lane, London Colney, Hertfordshire, AL2 1AF"
2025-11-06,1716099,The 1971,Restaurant/Cafe/Canteen,36 Station Road,Harpenden,Hertfordshire,,AL5 4ST,St Albans City,5,2024-02-24,FHRS,False,51.815534,-0.352752,"36 Station Road, Harpenden, Hertfordshire, AL5 4ST"
2025-11-06,1715840,The Hub on Verulam,Restaurant/Cafe/Canteen,5B Verulam Road,St Albans,Hertfordshire,,AL3 4DA,St Albans City,4,2025-08-07,FHRS,False,51.7517828,-0.3415922,"5B Verulam Road, St Albans, Hertfordshire, AL3 4DA"
2025-11-06,1715742,The Pudding Stop,Restaurant/Cafe/Canteen,14 Church Green Row,Church Green,Harpenden,Hertfordshire,AL5 2TW,St Albans City,5,2024-10-16,FHRS,False,51.8160594,-0.3577012,"14 Church Green Row, Church Green, Harpenden, Hertfordshire, AL5 2TW"
2025-11-06,1715762,The Pudding Stop,Restaurant/Cafe/Canteen,2 Redbourn Industrial Estate,High Street,Redbourn,Hertfordshire,AL3 7LG,St Albans City,5,2025-01-17,FHRS,False,51.7969058,-0.3934345,"2 Redbourn Industrial Estate, High Street, Redbourn, Hertfordshire, AL3 7LG"
2025-11-06,1715874,The Pudding Stop,Restaurant/Cafe/Canteen,The Pudding Stop & Pudmobile 6 The Colonnade,Verulam Road,St Albans,Hertfordshire,AL3 4DD,St Albans City,3,2024-08-24,FHRS,False,51.7520083,-0.3410044,"The Pudding Stop & Pudmobile 6 The Colonnade, Verulam Road, St Albans, Hertfordshire, AL3 4DD"
2025-11-06,1715942,The Queen of Herts,Restaurant/Cafe/Canteen,71 High Street,Redbourn,Hertfordshire,,AL3 7LW,St Albans City,5,2025-03-20,FHRS,False,51.7993989,-0.3955793,"71 High Street, Redbourn, Hertfordshire, AL3 7LW"
2025-11-06,1715952,The Restaurant Hub,Restaurant/Cafe/Canteen,The Restaurant Hub as Slims GBK Carluccio's,Colney Fields Shopping Park,Barnet Road,London Colney,AL2 1AB,St Albans City,5,2024-02-29,FHRS,False,51.7161333,-0.2824992,"The Restaurant Hub as Slims GBK Carluccio's, Colney Fields Shopping Park, Barnet Road, London Colney, AL2 1AB"
2025-11-06,1715822,Thompsons Close Cafe,Restaurant/Cafe/Canteen,1 Thompsons Close,Harpenden,Hertfordshire,,AL5 4ES,St Albans City,5,2023-12-12,FHRS,False,51.816999,-0.355934,"1 Thompsons Close, Harpenden, Hertfordshire, AL5 4ES"
2025-11-06,1715894,Tikka Nation,Restaurant/Cafe/Canteen,1-2 Waxhouse Gate,High Street,St Albans,Hertfordshire,AL3 4EW,St Albans City,5,2024-05-13,FHRS,False,51.7508904,-0.3407991,"1-2 Waxhouse Gate, High Street, St Albans, Hertfordshire, AL3 4EW"
2025-11-06,1716022,"VILLA 2 LOUNGE BAR,",Restaurant/Cafe/Canteen,VILLA 2 LOUNGE BAR,2 Marlborough Road,St Albans,Hertfordshire,AL1 3XQ,St Albans City,5,2023-10-17,FHRS,False,51.7499297,-0.3351844,"VILLA 2 LOUNGE BAR, 2 Marlborough Road, St Albans, Hertfordshire, AL1 3XQ"
2025-11-06,1715979,"Well Bean Cafe, The Harpenden Trust",Restaurant/Cafe/Canteen,Well Bean Cafe (The Harpenden Trust),130 Southdown Road,Harpenden,Hertfordshire,AL5 1PU,St Albans City,5,2025-06-10,FHRS,False,51.8073238,-0.3432959,"Well Bean Cafe (The Harpenden Trust), 130 Southdown Road, Harpenden, Hertfordshire, AL5 1PU"
2025-11-06,1715787,Zios Pizzeria,Restaurant/Cafe/Canteen,34 Station Road,Harpenden,Hertfordshire,,AL5 4SE,St Albans City,4,2024-06-15,FHRS,False,51.815125,-0.353725,"34 Station Road, Harpenden, Hertfordshire, AL5 4SE"
2025-11-06,1715831,Zizzi also trading as Coco di Mama,Restaurant/Cafe/Canteen,20 High Street,St Albans,Hertfordshire,,AL3 4EL,St Albans City,5,2025-03-13,FHRS,False,51.751182,-0.340187,"20 High Street, St Albans, Hertfordshire, AL3 4EL"
2025-11-06,1887915,Pink Tuk Tuk Coffee Shop,Restaurant/Cafe/Canteen,,384 Abbot Road,London,,E14 0JU,Tower Hamlets,AwaitingInspection,,FHRS,False,,,"384 Abbot Road, London, E14 0JU"
2025-11-06,1887902,Glencaddam Distillery Visitors Centre,Restaurant/Cafe/Canteen,Glencadam Distillery,Smithbank Road,Brechin,,DD9 7PA,Angus,Awaiting Inspection,,FHIS,False,56.7356144,-2.6531326,"Glencadam Distillery, Smithbank Road, Brechin, DD9 7PA"
2025-11-06,1887947,Elizabeth’s Garden,Restaurant/Cafe/Canteen,,,,,,Telford and Wrekin Council,AwaitingInspection,,FHRS,False,,,
2025-11-06,1887941,Muffin Break,Restaurant/Cafe/Canteen,207 Dean Street,,Telford,Shopshire,TF3 4BT,Telford and Wrekin Council,AwaitingInspection,,FHRS,False,52.6766197,-2.4474172,"207 Dean Street, Telford, Shopshire, TF3 4BT"
2025-11-06,1887936,Daily Grind,Restaurant/Cafe/Canteen,Unit 12,Seafire Business Park,Seafire Way,Burscough,L40 8AH,West Lancashire,AwaitingInspection,,FHRS,False,53.5958314,-2.8608708,"Unit 12, Seafire Business Park, Seafire Way, Burscough, L40 8AH"
2025-11-06,1610656,Ormskirk Food and Drink Market,Restaurant/Cafe/Canteen,Moorgate,Ormskirk,Lancashire,,L39 4RT,West Lancashire,AwaitingInspection,,FHRS,False,53.8612060546875,-2.56927990913391,"Moorgate, Ormskirk, Lancashire, L39 4RT"
2025-11-06,1888150,Storehouse Kitchen,Restaurant/Cafe/Canteen,Storehouse Kitchen 83 North Street,,,Ripon,HG4 1DP,North Yorkshire,AwaitingInspection,,FHRS,False,54.1377822,-1.5237462,"Storehouse Kitchen 83 North Street, Ripon, HG4 1DP"
2025-11-06,1888142,Wiseguys Scarborough,Restaurant/Cafe/Canteen,31 Foreshore Road,,,Scarborough,YO11 1PB,North Yorkshire,AwaitingInspection,,FHRS,False,54.2836606,-0.3937354,"31 Foreshore Road, Scarborough, YO11 1PB"
2025-11-06,1888158,Barnoldswick Town Juniors FC,Restaurant/Cafe/Canteen,,,,,,Pendle,AwaitingInspection,,FHRS,False,,,
2025-11-06,1887999,Viv's Café,Restaurant/Cafe/Canteen,,Unit 6 Heathlands Road,Wokingham,,RG40 3AW,Wokingham,AwaitingInspection,,FHRS,False,51.3891999,-0.8167136,"Unit 6 Heathlands Road, Wokingham, RG40 3AW"
2025-11-06,1888162,Decarum,Restaurant/Cafe/Canteen,,,,,,Merton,AwaitingInspection,,FHRS,False,,,
2025-11-06,1888160,Food Made At Home,Restaurant/Cafe/Canteen,,,,,,Merton,AwaitingInspection,,FHRS,False,,,
2025-11-06,1888163,Fusion Treats,Restaurant/Cafe/Canteen,Mitcham Market,2A Upper Green East,Mitcham,,CR4 2PF,Merton,AwaitingInspection,,FHRS,False,51.4047874,-0.1632509,"Mitcham Market, 2A Upper Green East, Mitcham, CR4 2PF"
2025-11-06,1217821,Hartfield Pathway Pitch 3,Restaurant/Cafe/Canteen,61 The Broadway,Wimbledon,,,SW19 1QD,Merton,5,2025-10-21,FHRS,False,51.4195909,-0.203667,"61 The Broadway, Wimbledon, SW19 1QD"
2025-11-06,375780,Honest Burgers,Restaurant/Cafe/Canteen,88 The Broadway,Wimbledon,,,SW19 1RH,Merton,AwaitingInspection,,FHRS,False,51.4196237,-0.2014035,"88 The Broadway, Wimbledon, SW19 1RH"
2025-11-06,1887969,Contento,Restaurant/Cafe/Canteen,West Cheshire Electrical Contractors 146 Belvidere Road,,Liscard,Wirral,CH45 4PT,Wirral,5,2025-10-14,FHRS,False,53.4248272,-3.0545606,"West Cheshire Electrical Contractors 146 Belvidere Road, Liscard, Wirral, CH45 4PT"
2025-11-06,1887982,Fusion@themariner,Restaurant/Cafe/Canteen,The Master Mariner 3 - 5 Union Terrace Marine Promenade,,New Brighton,Wirral,CH45 2JT,Wirral,5,2025-10-29,FHRS,False,,,"The Master Mariner 3 - 5 Union Terrace Marine Promenade, New Brighton, Wirral, CH45 2JT"
2025-11-06,1887970,Maggie Fu,Restaurant/Cafe/Canteen,8 Marine Point Kings Parade,,New Brighton,Wirral,CH45 2PB,Wirral,5,2025-10-24,FHRS,False,53.4408272,-3.0457294,"8 Marine Point Kings Parade, New Brighton, Wirral, CH45 2PB"
2025-11-06,394791,McDonalds,Restaurant/Cafe/Canteen,24 Liscard Way,,Liscard,Wirral,CH44 5TP,Wirral,5,2025-10-15,FHRS,False,53.4196172,-3.0434256,"24 Liscard Way, Liscard, Wirral, CH44 5TP"
2025-11-06,1887971,Nourish @Nouyou,Restaurant/Cafe/Canteen,583 Borough Road,,Oxton,Wirral,CH42 0HD,Wirral,5,2025-10-23,FHRS,False,53.3809021,-3.0325044,"583 Borough Road, Oxton, Wirral, CH42 0HD"
2025-11-06,1887977,The clubhouse @ Wirral,Restaurant/Cafe/Canteen,93 Bidston Road,,Oxton,Wirral,CH43 6TS,Wirral,AwaitingInspection,,FHRS,True,53.3915214,-3.0632746,"93 Bidston Road, Oxton, Wirral, CH43 6TS"
2025-11-06,1887980,The Johnny Pye,Restaurant/Cafe/Canteen,Johnny Pye Pye Road,,Heswall,Wirral,CH60 0DB,Wirral,5,2025-10-27,FHRS,False,53.3286263,-3.0973236,"Johnny Pye Pye Road, Heswall, Wirral, CH60 0DB"
2025-11-06,1887984,Vecino,Restaurant/Cafe/Canteen,168 Telegraph Road,,Heswall,Wirral,CH60 0AH,Wirral,AwaitingInspection,,FHRS,True,53.3273013,-3.0957809,"168 Telegraph Road, Heswall, Wirral, CH60 0AH"
2025-11-06,1887898,Baird's Bistro,Restaurant/Cafe/Canteen,,9 - 11 Castle Street,Banff,Aberdeenshire,AB45 1DH,Aberdeenshire,Awaiting Inspection,2025-11-04,FHIS,False,57.6652148,-2.5237291,"9 - 11 Castle Street, Banff, Aberdeenshire, AB45 1DH"
2025-11-06,1887900,"Flora's, By Sally",Restaurant/Cafe/Canteen,,Crossroads,Cullerlie,Westhill,AB32 6XB,Aberdeenshire,Awaiting Inspection,2025-11-04,FHIS,False,,,"Crossroads, Cullerlie, Westhill, AB32 6XB"
2025-11-07,441017,Ashfield Howey Enterprise,Restaurant/Cafe/Canteen,Ashfield,Hawy,Llanfair-ym-Muallt,Powys,LD1 5PL,Powys,AwaitingInspection,,FHRS,False,,,"Ashfield, Hawy, Llanfair-ym-Muallt, Powys, LD1 5PL"
2025-11-07,1424033,Caffi JoJo,Restaurant/Cafe/Canteen,Old Village Hall,Llanbrynmair,Powys,,SY19 7AA,Powys,AwaitingInspection,,FHRS,False,52.3269805908203,-3.43953490257263,"Old Village Hall, Llanbrynmair, Powys, SY19 7AA"
2025-11-07,702002,Cofion Cynnes,Restaurant/Cafe/Canteen,6 Station Road,Ystradgynlais,Swansea,,SA9 1NT,Powys,AwaitingInspection,,FHRS,False,51.777054,-3.757945,"6 Station Road, Ystradgynlais, Swansea, SA9 1NT"
2025-11-07,701969,Coliseum Cinema,Restaurant/Cafe/Canteen,Wheat Street,Brecon,Powys,,LD3 7DG,Powys,AwaitingInspection,,FHRS,False,51.947259,-3.39199,"Wheat Street, Brecon, Powys, LD3 7DG"
2025-11-07,702189,Kerry Bowling Club,Restaurant/Cafe/Canteen,Common Road,Kerry,Newtown,Powys,SY16 4NA,Powys,AwaitingInspection,,FHRS,False,,,"Common Road, Kerry, Newtown, Powys, SY16 4NA"
2025-11-07,1888530,Kurry Kitchen,Restaurant/Cafe/Canteen,Broome House,54-56 Seymour Grove,Old Trafford,Manchester,M16 0LN,Trafford,AwaitingInspection,,FHRS,False,53.4596717,-2.2763273,"Broome House, 54-56 Seymour Grove, Old Trafford, Manchester, M16 0LN"
2025-11-07,1888529,Neighbours Oriental Restaurant,Restaurant/Cafe/Canteen,,391 Stockport Road,Timperley,Altrincham,WA15 7UR,Trafford,AwaitingInspection,,FHRS,False,53.3980612,-2.3170751,"391 Stockport Road, Timperley, Altrincham, WA15 7UR"
2025-11-07,1888581,Bounce House Cafe,Restaurant/Cafe/Canteen,160 Old Glamis Road,Dundee,,,DD3 8LF,Dundee City,Awaiting Inspection,2025-11-06,FHIS,False,56.485562,-2.97515,"160 Old Glamis Road, Dundee, DD3 8LF"
2025-11-07,1888438,Piknikbox Totally Gluten Free,Restaurant/Cafe/Canteen,38 Vicarage Street,North Walsham,Norfolk,,NR28 9DQ,North Norfolk,AwaitingInspection,,FHRS,False,52.8219917,1.3883827,"38 Vicarage Street, North Walsham, Norfolk, NR28 9DQ"
2025-11-07,1888566,The Jubillee Bar and Grill,Restaurant/Cafe/Canteen,Jubilee Inn,Pye Green Road,,Cannock,WS11 5RS,Cannock Chase,AwaitingInspection,,FHRS,False,52.71141,-2.024779,"Jubilee Inn, Pye Green Road, Cannock, WS11 5RS"
2025-11-07,1888429,Golden Bull Chippy,Restaurant/Cafe/Canteen,17 Grange Road,Jarrow,Tyne & Wear,,NE32 3JY,South Tyneside,3,2025-02-05,FHRS,False,54.981197,-1.49005,"17 Grange Road, Jarrow, Tyne & Wear, NE32 3JY"
2025-11-07,1888426,Ignitian,Restaurant/Cafe/Canteen,9 Stanhope Street,South Shields,Tyne & Wear,,NE33 2DG,South Tyneside,AwaitingInspection,,FHRS,False,,,"9 Stanhope Street, South Shields, Tyne & Wear, NE33 2DG"
2025-11-07,1888428,Maison Ivy,Restaurant/Cafe/Canteen,46 Epinay Walk,Jarrow,Tyne & Wear,,NE32 3BL,South Tyneside,AwaitingInspection,,FHRS,False,54.9782629,-1.4828019,"46 Epinay Walk, Jarrow, Tyne & Wear, NE32 3BL"
2025-11-07,1888548,Majestic Bar & Grill At The Golden Cross,Restaurant/Cafe/Canteen,56 Hewell Road,Off Unicorn Hill,Redditch,Worcestershire,B97 4RA,Redditch,AwaitingInspection,,FHRS,False,,,"56 Hewell Road, Off Unicorn Hill, Redditch, Worcestershire, B97 4RA"
2025-11-07,1888547,On The Munchies Desserts Ltd,Restaurant/Cafe/Canteen,27 Mount Pleasant,Redditch,Worcestershire,,B97 4HY,Redditch,AwaitingInspection,,FHRS,False,52.3021852,-1.9422777,"27 Mount Pleasant, Redditch, Worcestershire, B97 4HY"
2025-11-07,1888458,Farha,Restaurant/Cafe/Canteen,,42 High Road Leyton,,Stratford,E15 2BP,Waltham Forest,AwaitingInspection,,FHRS,False,,,"42 High Road Leyton, Stratford, E15 2BP"
2025-11-07,1888455,Garden Cafe,Restaurant/Cafe/Canteen,,1a The Avenue,,Chingford,E4 9LB,Waltham Forest,AwaitingInspection,,FHRS,False,51.609763,0.000723,"1a The Avenue, Chingford, E4 9LB"
2025-11-07,1888459,German Doner Kebab Leytonstone,Restaurant/Cafe/Canteen,,706 High Road Leytonstone,,Leytonstone,E11 3AJ,Waltham Forest,AwaitingInspection,,FHRS,False,51.5694834,0.0130053,"706 High Road Leytonstone, Leytonstone, E11 3AJ"
2025-11-07,1888453,Lisa Deli at Waltham Forest Adult Learning Centre,Restaurant/Cafe/Canteen,,97 Queens Road,,Walthamstow,E17 8QR,Waltham Forest,5,2025-11-03,FHRS,False,51.578664,-0.023,"97 Queens Road, Walthamstow, E17 8QR"
2025-11-07,1888449,Lotus,Restaurant/Cafe/Canteen,,611b Lea Bridge Road,,Leyton,E10 6AJ,Waltham Forest,AwaitingInspection,,FHRS,False,51.57679,-0.011608,"611b Lea Bridge Road, Leyton, E10 6AJ"
2025-11-07,1888454,Sosso Charcoal Meze & Fish Bar,Restaurant/Cafe/Canteen,,522 Lea Bridge Road,,Leyton,E10 7DT,Waltham Forest,AwaitingInspection,,FHRS,False,51.57267,-0.017344,"522 Lea Bridge Road, Leyton, E10 7DT"
2025-11-07,1888457,The Axe and Ember Smokehouse,Restaurant/Cafe/Canteen,,41 Orford Road,,Walthamstow,E17 9NL,Waltham Forest,AwaitingInspection,,FHRS,False,51.582746,-0.011752,"41 Orford Road, Walthamstow, E17 9NL"
2025-11-07,1639419,True Craft,Restaurant/Cafe/Canteen,,18-20 St James Street,,Walthamstow,E17 7PF,Waltham Forest,0,2025-09-30,FHRS,False,51.580998,-0.033421,"18-20 St James Street, Walthamstow, E17 7PF"
2025-11-07,1888634,Toast,Restaurant/Cafe/Canteen,155 High Street,Honiton,,,EX14 1LJ,East Devon,5,2022-10-26,FHRS,False,50.799046,-3.191744,"155 High Street, Honiton, EX14 1LJ"
2025-11-07,71001,Cafe Smart,Restaurant/Cafe/Canteen,,,56 Belmont Road,Belfast,BT4 2AN,Belfast City,AwaitingInspection,,FHRS,True,54.600473,-5.876426,"56 Belmont Road, Belfast, BT4 2AN"
2025-11-07,1268695,The Fairy Tree Bistro,Restaurant/Cafe/Canteen,,,50 Park Road,Belfast,BT7 2FX,Belfast City,5,2021-02-24,FHRS,False,54.579532,-5.914329,"50 Park Road, Belfast, BT7 2FX"
2025-11-07,1888619,Aura Cafe,Restaurant/Cafe/Canteen,11-12 Derby Street,Burton upon Trent,,,DE14 2LA,East Staffordshire,AwaitingInspection,,FHRS,True,52.8077752,-1.6430767,"11-12 Derby Street, Burton upon Trent, DE14 2LA"
2025-11-07,1888618,EVERLAST GYMS,Restaurant/Cafe/Canteen,Unit 11,Middleway Park,Guild Street,Burton upon Trent,DE14 1NA,East Staffordshire,AwaitingInspection,,FHRS,False,52.806129,-1.63248,"Unit 11, Middleway Park, Guild Street, Burton upon Trent, DE14 1NA"
2025-11-07,1888622,Poached & Co,Restaurant/Cafe/Canteen,Wetmore Road,Burton upon Trent,,,DE14 1SN,East Staffordshire,AwaitingInspection,,FHRS,False,52.8148518,-1.62504535,"Wetmore Road, Burton upon Trent, DE14 1SN"
2025-11-07,1691759,Ryde Tandoori,Restaurant/Cafe/Canteen,45 Union Street,Ryde,Isle Of Wight,,PO33 2LF,Isle of Wight,3,2025-09-24,FHRS,False,50.730525970459,-1.16285705566406,"45 Union Street, Ryde, Isle Of Wight, PO33 2LF"
2025-11-07,1726449,Baxterstorey - Deloitte,Restaurant/Cafe/Canteen,within Deloitte Embankment East Tower,100 Cathedral Approach,Salford,,M3 7FB,Salford,AwaitingInspection,,FHRS,False,53.4863612,-2.2458756,"within Deloitte Embankment East Tower, 100 Cathedral Approach, Salford, M3 7FB"
2025-11-07,1888604,Ashoka Finnieston,Restaurant/Cafe/Canteen,,1284 Argyle Street,Glasgow,,G3 8AB,Glasgow City,Awaiting Inspection,2025-11-05,FHIS,False,55.866929,-4.290045,"1284 Argyle Street, Glasgow, G3 8AB"
2025-11-07,1854040,Bavarian Bakehouse,Restaurant/Cafe/Canteen,,21 Hyndland Street,Glasgow,,,Glasgow City,Pass,2025-11-05,FHIS,False,55.87147661,-4.30261306,"21 Hyndland Street, Glasgow"
2025-11-07,1888603,Bombaywalla,Restaurant/Cafe/Canteen,,78 Union Street,Glasgow,,G1 3QS,Glasgow City,Awaiting Inspection,2025-11-04,FHIS,False,55.85966,-4.256346,"78 Union Street, Glasgow, G1 3QS"
2025-11-07,1888588,Cafe Maeda / Scotsom Social Club,Restaurant/Cafe/Canteen,,36 Bridge Street,Glasgow,,G5 9HU,Glasgow City,Improvement Required,2025-11-04,FHIS,False,55.853338,-4.259031,"36 Bridge Street, Glasgow, G5 9HU"
2025-11-07,1888598,Costa Coffee,Restaurant/Cafe/Canteen,,500 Helen Street,Glasgow,,G51 3HR,Glasgow City,Awaiting Inspection,2025-11-04,FHIS,False,55.852671,-4.32041,"500 Helen Street, Glasgow, G51 3HR"
2025-11-07,1888589,Frank's Pizza,Restaurant/Cafe/Canteen,,352 Duke Street,Glasgow,,G31 1RB,Glasgow City,Awaiting Inspection,2025-11-03,FHIS,False,55.858189,-4.220115,"352 Duke Street, Glasgow, G31 1RB"
2025-11-07,1888590,Frank's Pizza,Restaurant/Cafe/Canteen,,6 Claremont Street,Glasgow,,G3 7HA,Glasgow City,Awaiting Inspection,2025-11-03,FHIS,False,55.863461,-4.279325,"6 Claremont Street, Glasgow, G3 7HA"
2025-11-07,1888591,Frank's Pizza,Restaurant/Cafe/Canteen,,34 Sinclair Drive,Glasgow,,G42 9QE,Glasgow City,Awaiting Inspection,2025-11-03,FHIS,False,55.82638,-4.267575,"34 Sinclair Drive, Glasgow, G42 9QE"
2025-11-07,1888592,Frank's Pizza @ Deliveroo Editions,Restaurant/Cafe/Canteen,,1 Scotland Street,Glasgow,,G5 8LS,Glasgow City,Awaiting Inspection,2025-11-03,FHIS,False,55.8494417,-4.2663928,"1 Scotland Street, Glasgow, G5 8LS"
2025-11-07,1888594,Frank's Pizza @ Wunderbar,Restaurant/Cafe/Canteen,Storey Ground,26 Springfield Court,Glasgow,,G1 3DQ,Glasgow City,Pass,2025-10-22,FHIS,False,55.8595775,-4.2537837,"Storey Ground, 26 Springfield Court, Glasgow, G1 3DQ"
2025-11-07,1888593,Frank's Pizza @ Wunderbar West,Restaurant/Cafe/Canteen,,53 Dumbarton Road,Glasgow,,G11 6PD,Glasgow City,Awaiting Inspection,2025-11-03,FHIS,False,55.8698667,-4.2966104,"53 Dumbarton Road, Glasgow, G11 6PD"
2025-11-07,1888607,Muffin Break,Restaurant/Cafe/Canteen,Unit 19,55 St Enoch Square,Glasgow,,G1 4BW,Glasgow City,Pass,2025-10-30,FHIS,False,55.8568481,-4.2531462,"Unit 19, 55 St Enoch Square, Glasgow, G1 4BW"
2025-11-07,1888597,Preserving Furtures,Restaurant/Cafe/Canteen,Flat 1/3,2 Middlesex Gardens,Glasgow,,G41 1EL,Glasgow City,Awaiting Inspection,2025-11-04,FHIS,False,55.8529074,-4.2830992,"Flat 1/3, 2 Middlesex Gardens, Glasgow, G41 1EL"
2025-11-07,1888600,Together Coffee,Restaurant/Cafe/Canteen,,7 Cumbernauld Road,Glasgow,,G31 2SW,Glasgow City,Awaiting Inspection,2025-11-04,FHIS,False,55.8586585,-4.2133343,"7 Cumbernauld Road, Glasgow, G31 2SW"
2025-11-07,1888629,Courthouse Print Management Ltd,Restaurant/Cafe/Canteen,22 Anglesea Road,Ipswich,Suffolk,,IP1 3PP,Ipswich,AwaitingInspection,,FHRS,False,52.0639373,1.1463565,"22 Anglesea Road, Ipswich, Suffolk, IP1 3PP"
2025-11-07,1888553,Pret At Roadchef,Restaurant/Cafe/Canteen,M5 Services (South Bound),Hill View Road,Strensham,Worcestershire,WR8 0BZ,Wychavon,AwaitingInspection,,FHRS,False,52.06474,-2.156954,"M5 Services (South Bound), Hill View Road, Strensham, Worcestershire, WR8 0BZ"
2025-11-07,1888527,Bombay Spice,Restaurant/Cafe/Canteen,The Green,Carlton In Lindrick,Nottinghamshire,,S81 9AB,Bassetlaw,AwaitingInspection,,FHRS,False,,,"The Green, Carlton In Lindrick, Nottinghamshire, S81 9AB"
2025-11-07,1888517,My Playful World,Restaurant/Cafe/Canteen,Unit 25,Ollerton Road,Tuxford,Nottinghamshire,NG22 0PQ,Bassetlaw,5,2025-09-29,FHRS,False,53.2308757,-0.9181799,"Unit 25, Ollerton Road, Tuxford, Nottinghamshire, NG22 0PQ"
2025-11-07,1888519,Sherry's,Restaurant/Cafe/Canteen,18 Edinburgh Road,Worksop,Nottinghamshire,,S80 2UD,Bassetlaw,AwaitingInspection,,FHRS,False,53.296043,-1.108009,"18 Edinburgh Road, Worksop, Nottinghamshire, S80 2UD"
2025-11-07,1888524,The Village Yurt,Restaurant/Cafe/Canteen,Stonegate Farm,Bawtry Road,Everton,Nottinghamshire,DN10 5BP,Bassetlaw,5,2025-10-24,FHRS,False,53.4103527,-0.963374,"Stonegate Farm, Bawtry Road, Everton, Nottinghamshire, DN10 5BP"
2025-11-07,1888392,Don's Deli,Restaurant/Cafe/Canteen,Mallusk Enterprise Park Mallusk Drive,,Newtownabbey,,BT36 4GN,Antrim and Newtownabbey,AwaitingInspection,,FHRS,False,54.671121,-5.9804082,"Mallusk Enterprise Park Mallusk Drive, Newtownabbey, BT36 4GN"
2025-11-07,1888386,Madam Pho Glengormley,Restaurant/Cafe/Canteen,331a Antrim Road,,Newtownabbey,,BT36 5DY,Antrim and Newtownabbey,AwaitingInspection,,FHRS,False,54.6716448,-5.9586008,"331a Antrim Road, Newtownabbey, BT36 5DY"
2025-11-07,1888389,Soul & Grain,Restaurant/Cafe/Canteen,Belfast International Airport,,Belfast,,BT29 4AB,Antrim and Newtownabbey,AwaitingInspection,,FHRS,False,54.6615467,-6.2169572,"Belfast International Airport, Belfast, BT29 4AB"
2025-11-07,1888393,The Little Bistro (Valley) Ltd,Restaurant/Cafe/Canteen,40 Church Road,Drumnadrough,Newtownabbey,Antrim,BT36 7LJ,Antrim and Newtownabbey,5,2025-10-22,FHRS,False,54.661395,-5.93061,"40 Church Road, Drumnadrough, Newtownabbey, Antrim, BT36 7LJ"
2025-11-07,1888672,Coffee Morning @ Ackworth Library,Restaurant/Cafe/Canteen,34 Bell Lane,Ackworth,Pontefract,,WF7 7JH,Wakefield,AwaitingInspection,,FHRS,False,53.6418256,-1.3426729,"34 Bell Lane, Ackworth, Pontefract, WF7 7JH"
2025-11-07,1888666,Deli Box,Restaurant/Cafe/Canteen,112A Queens Park Drive,Castleford,,,WF10 3DQ,Wakefield,AwaitingInspection,,FHRS,False,53.724262,-1.328022,"112A Queens Park Drive, Castleford, WF10 3DQ"
2025-11-07,1888679,Delphi Restaurant,Restaurant/Cafe/Canteen,34 Northgate,Wakefield,,,WF1 3AN,Wakefield,5,2024-02-14,FHRS,False,53.684073,-1.498241,"34 Northgate, Wakefield, WF1 3AN"
2025-11-07,1888686,Dona's Caffe and Deli,Restaurant/Cafe/Canteen,1 Baghill Lane,Pontefract,,,WF8 2HA,Wakefield,AwaitingInspection,,FHRS,False,53.694165,-1.3012509,"1 Baghill Lane, Pontefract, WF8 2HA"
2025-11-07,1888680,Meridian Cafe,Restaurant/Cafe/Canteen,The Walled Garden,The Nostell Estate Yard,Nostell,Wakefield,WF4 1AB,Wakefield,AwaitingInspection,,FHRS,True,53.6509114,-1.388179,"The Walled Garden, The Nostell Estate Yard, Nostell, Wakefield, WF4 1AB"
2025-11-07,1888674,Mimik Sushi,Restaurant/Cafe/Canteen,32 Northgate,Wakefield,,,WF1 3AN,Wakefield,AwaitingInspection,,FHRS,False,53.684073,-1.498241,"32 Northgate, Wakefield, WF1 3AN"
2025-11-07,1888662,Pizza Hut Restaurants - Dine In,Restaurant/Cafe/Canteen,Colorado Way,Castleford,,,WF10 4TA,Wakefield,5,2025-07-15,FHRS,False,53.710182,-1.341912,"Colorado Way, Castleford, WF10 4TA"
2025-11-07,1888663,Pizza Hut Restaurants - Dine In,Restaurant/Cafe/Canteen,Westgate Retail And Leisure Park Colinsway,Wakefield,,,WF2 9SH,Wakefield,5,2024-07-09,FHRS,False,53.677158,-1.50612,"Westgate Retail And Leisure Park Colinsway, Wakefield, WF2 9SH"
2025-11-07,1888687,Taste of Dosa,Restaurant/Cafe/Canteen,71A Northgate,Wakefield,,,WF1 3BX,Wakefield,AwaitingInspection,,FHRS,False,53.6851921,-1.5003014,"71A Northgate, Wakefield, WF1 3BX"
2025-11-07,1888669,The Elevate Social Club within Elevate Fitness,Restaurant/Cafe/Canteen,Unit 11a,Headway Business Park,Wakefield,,WF2 7AZ,Wakefield,AwaitingInspection,,FHRS,False,53.6666716,-1.5053149,"Unit 11a, Headway Business Park, Wakefield, WF2 7AZ"
2025-11-07,1888549,Popeyes,Restaurant/Cafe/Canteen,8 High Street,Worcester,,,WR1 2QL,Worcester City,AwaitingInspection,,FHRS,False,52.1899433,-2.2201766,"8 High Street, Worcester, WR1 2QL"
2025-11-07,1888471,Bagels and brews,Restaurant/Cafe/Canteen,,,,,,Pembrokeshire,AwaitingInspection,,FHRS,False,,,
2025-11-07,1888440,Chebrew Coffee,Restaurant/Cafe/Canteen,Balmforth And Co,22 - 24 Kirk Gate,Newark On Trent,Nottinghamshire,NG24 1AB,Newark and Sherwood,AwaitingInspection,,FHRS,False,53.0775033,-0.8096356,"Balmforth And Co, 22 - 24 Kirk Gate, Newark On Trent, Nottinghamshire, NG24 1AB"
2025-11-07,1888471,Bagels and brews,Restaurant/Cafe/Canteen,,,,,,Sir Benfro,AwaitingInspection,,FHRS,False,,,
2025-11-07,1888643,Pozza' Coffee!,Restaurant/Cafe/Canteen,UNIT 26 CALNE BUSINESS CENTRE HARRIS ROAD,,CALNE,,SN11 9PT,Wiltshire,AwaitingInspection,,FHRS,False,51.4495849,-1.996922,"UNIT 26 CALNE BUSINESS CENTRE HARRIS ROAD, CALNE, SN11 9PT"
2025-11-07,1888645,The Best Ever Brownie Barn Cafe,Restaurant/Cafe/Canteen,STOCKHAM MARSH FARM,,FOXHAM,,SN15 4NL,Wiltshire,3,2025-09-17,FHRS,False,,,"STOCKHAM MARSH FARM, FOXHAM, SN15 4NL"
2025-11-07,1888654,The Pink Cafe,Restaurant/Cafe/Canteen,5B Wood Street,,Calne,,SN11 0BZ,Wiltshire,AwaitingInspection,,FHRS,False,51.4397749,-2.0049796,"5B Wood Street, Calne, SN11 0BZ"
2025-11-07,1888507,Alfonso's Deli,Restaurant/Cafe/Canteen,4 - 5 Grand Arcade,Leeds,,,LS1 6PG,Leeds,AwaitingInspection,,FHRS,False,53.8001227,-1.5400867,"4 - 5 Grand Arcade, Leeds, LS1 6PG"
2025-11-07,1888502,"Bella Italia Also T/a Bird Box, Stacks-Burgers",Restaurant/Cafe/Canteen,Frankie & Benny's,Unit RU2,White Rose Shopping Centre,Dewsbury Road,LS11 8LU,Leeds,AwaitingInspection,,FHRS,False,53.7578695,-1.5741433,"Frankie & Benny's, Unit RU2, White Rose Shopping Centre, Dewsbury Road, LS11 8LU"
2025-11-07,1888495,Mr Moustache,Restaurant/Cafe/Canteen,627 Roundhay Road,Leeds,,,LS8 4AR,Leeds,AwaitingInspection,,FHRS,True,53.825155,-1.507982,"627 Roundhay Road, Leeds, LS8 4AR"
2025-11-07,1888501,Red Sea Bar And Restaurant,Restaurant/Cafe/Canteen,5 Shaftesbury Parade,Harehills Lane,Leeds,,LS9 6PJ,Leeds,AwaitingInspection,,FHRS,False,53.8017394,-1.4993919,"5 Shaftesbury Parade, Harehills Lane, Leeds, LS9 6PJ"
2025-11-07,441017,Ashfield Howey Enterprise,Restaurant/Cafe/Canteen,Community Land Trust,Ashfield,Howey,Llandrindod Wells,LD1 5PL,Powys,AwaitingInspection,,FHRS,False,,,"Community Land Trust, Ashfield, Howey, Llandrindod Wells, LD1 5PL"
2025-11-07,1424033,Caffi JoJo,Restaurant/Cafe/Canteen,Old Village Hall,Llanbrynmair,Powys,,SY19 7AA,Powys,AwaitingInspection,,FHRS,False,52.3269805908203,-3.43953490257263,"Old Village Hall, Llanbrynmair, Powys, SY19 7AA"
2025-11-07,702002,Cofion Cynnes,Restaurant/Cafe/Canteen,6 Station Road,Ystradgynlais,Swansea,,SA9 1NT,Powys,AwaitingInspection,,FHRS,False,51.777054,-3.757945,"6 Station Road, Ystradgynlais, Swansea, SA9 1NT"
2025-11-07,701969,Coliseum Cinema,Restaurant/Cafe/Canteen,Wheat Street,Brecon,Powys,,LD3 7DG,Powys,AwaitingInspection,,FHRS,False,51.947259,-3.39199,"Wheat Street, Brecon, Powys, LD3 7DG"
2025-11-07,702189,Kerry Bowling Club,Restaurant/Cafe/Canteen,Common Road,Kerry,Newtown,Powys,SY16 4NA,Powys,AwaitingInspection,,FHRS,False,,,"Common Road, Kerry, Newtown, Powys, SY16 4NA"
2025-11-07,1888475,"Zayniars Dessert, Cafe & Lounge",Restaurant/Cafe/Canteen,6 Main Street Crossgates Cowdenbeath Fife,,,,KY4 8AJ,Fife,Awaiting Inspection,2025-11-04,FHIS,False,56.0839225,-3.3751184,"6 Main Street Crossgates Cowdenbeath Fife, KY4 8AJ"
2025-11-07,1888406,Little Beans Play Cafe,Restaurant/Cafe/Canteen,15 Paradise Road,Downham Market,Norfolk,,PE38 9HS,King's Lynn and West Norfolk,AwaitingInspection,,FHRS,False,52.6042859,0.3774945,"15 Paradise Road, Downham Market, Norfolk, PE38 9HS"
2025-11-07,1837942,Buddies Bistro,Restaurant/Cafe/Canteen,14-18 Chatham Street,Ramsgate,Kent,,CT11 7PP,Thanet,5,2025-05-08,FHRS,False,51.3364433,1.4158913,"14-18 Chatham Street, Ramsgate, Kent, CT11 7PP"
2025-11-07,1888411,Captain Ds,Restaurant/Cafe/Canteen,Unit R1,19 Westwood Cross,Margate Road,Broadstairs,CT10 2BF,Thanet,5,2025-10-29,FHRS,False,51.3606733,1.3939765,"Unit R1, 19 Westwood Cross, Margate Road, Broadstairs, CT10 2BF"
2025-11-07,1837944,Frankie's at the Beach,Restaurant/Cafe/Canteen,Kiosk 1,Marina Esplanade,Ramsgate,Kent,CT11 8LP,Thanet,5,2025-05-12,FHRS,False,51.3322105407715,1.42320394515991,"Kiosk 1, Marina Esplanade, Ramsgate, Kent, CT11 8LP"
2025-11-07,1837941,Good Space Tap,Restaurant/Cafe/Canteen,68A Harbour Parade,Ramsgate,Kent,,CT11 8LN,Thanet,5,2025-05-07,FHRS,False,51.3322111,1.4220315,"68A Harbour Parade, Ramsgate, Kent, CT11 8LN"
2025-11-07,1846004,Windmill Community Gardens,Restaurant/Cafe/Canteen,17 The Parade,Margate,Kent,,CT9 1EY,Thanet,AwaitingInspection,,FHRS,False,51.3894775,1.3808961,"17 The Parade, Margate, Kent, CT9 1EY"
2025-11-07,1829069,Smoke and Pepper,Restaurant/Cafe/Canteen,,37 Ripple Road,,Barking,IG11 7NT,Barking and Dagenham,5,2025-10-02,FHRS,False,51.5365941,0.0816769,"37 Ripple Road, Barking, IG11 7NT"
2025-11-07,1829078,Soul and Sound Bar and Kitchen,Restaurant/Cafe/Canteen,Project Office,Project Road,,Barking,IG11 0YP,Barking and Dagenham,AwaitingInspection,,FHRS,True,51.5187004,0.1188342,"Project Office, Project Road, Barking, IG11 0YP"
2025-11-07,1847545,Wood Oven,Restaurant/Cafe/Canteen,,25-27 Station Parade,,Barking,IG11 8ED,Barking and Dagenham,5,2025-10-04,FHRS,False,51.5386766,0.0803731,"25-27 Station Parade, Barking, IG11 8ED"
2025-11-07,1888572,New Leaf Cafe,Restaurant/Cafe/Canteen,Welcome Gym,Leafy Lane,Maidstone,Kent,ME16 0DT,Maidstone,5,2025-10-31,FHRS,False,51.2786556,0.5098305,"Welcome Gym, Leafy Lane, Maidstone, Kent, ME16 0DT"
2025-11-07,1756161,Shuhel balti,Restaurant/Cafe/Canteen,96 Banks Road,,West Kirby,Wirral,CH48 0RE,Wirral,3,2024-06-26,FHRS,False,53.369746,-3.1839455,"96 Banks Road, West Kirby, Wirral, CH48 0RE"
2025-11-07,1548782,Resolute Womens Support Services,Restaurant/Cafe/Canteen,,11a Regent Street South,,Barnsley,S70 2HT,Barnsley,AwaitingInspection,,FHRS,False,53.5541584,-1.4796549,"11a Regent Street South, Barnsley, S70 2HT"
