date_added,FHRSID,BusinessName,BusinessType,AddressLine1,AddressLine2,AddressLine3,AddressLine4,PostCode,LocalAuthorityName,RatingValue,RatingDate,SchemeType,NewRatingPending,Latitude,Longitude,AddressSingleLine
2025-12-02,1895542,Artezzan Restaurant & Bar,Restaurant/Cafe/Canteen,Unit R4 33 Pepper Street,,Chester,Cheshire,CH1 1DF,Cheshire West and Chester,5,2025-11-24,FHRS,False,53.1884384155273,-2.88952708244324,"Unit R4 33 Pepper Street, Chester, Cheshire, CH1 1DF"
2025-12-02,1895544,Gill?s kitchen ltd,Restaurant/Cafe/Canteen,,,,,,Cheshire West and Chester,AwaitingInspection,,FHRS,False,,,
2025-12-02,1895674,Costa Coffee,Restaurant/Cafe/Canteen,Sainsburys Supermarket Nottingham Road,,Mansfield,Nottinghamshire,NG18 1BW,Mansfield,AwaitingInspection,,FHRS,False,53.1341353,-1.1984307,"Sainsburys Supermarket Nottingham Road, Mansfield, Nottinghamshire, NG18 1BW"
2025-12-02,1895676,Greggs Mansfield,Restaurant/Cafe/Canteen,Morrisons Sutton Road,,Mansfield,Nottinghamshire,NG18 5HL,Mansfield,AwaitingInspection,,FHRS,False,53.1356529,-1.2295385,"Morrisons Sutton Road, Mansfield, Nottinghamshire, NG18 5HL"
2025-12-02,1895596,Afghan Zaika,Restaurant/Cafe/Canteen,45 Corporation Road,Grangetown,Cardiff,,CF11 7AP,Caerdydd,AwaitingInspection,,FHRS,False,51.4691707,-3.1839279,"45 Corporation Road, Grangetown, Cardiff, CF11 7AP"
2025-12-02,1895595,Chickaros,Restaurant/Cafe/Canteen,41 - 43 Albany Road,Roath,Cardiff,,CF24 3LJ,Caerdydd,AwaitingInspection,,FHRS,False,51.4933332,-3.1695005,"41 - 43 Albany Road, Roath, Cardiff, CF24 3LJ"
2025-12-02,1895588,Crave club,Restaurant/Cafe/Canteen,23 Whitchurch Road,Gabalfa,Cardiff,,CF14 3JN,Caerdydd,AwaitingInspection,,FHRS,False,51.5018081,-3.1896288,"23 Whitchurch Road, Gabalfa, Cardiff, CF14 3JN"
2025-12-02,1835103,Forest cafe,Restaurant/Cafe/Canteen,Caerphilly Mountain Project Heol-y-fforest,Tongwynlais,Cardiff,,CF15 7JR,Caerdydd,3,2025-05-21,FHRS,False,51.53906,-3.2469371,"Caerphilly Mountain Project Heol-y-fforest, Tongwynlais, Cardiff, CF15 7JR"
2025-12-02,1895593,Manaqesh palace,Restaurant/Cafe/Canteen,185 City Road,Roath,Cardiff,,CF24 3JB,Caerdydd,AwaitingInspection,,FHRS,False,51.49083,-3.1707472,"185 City Road, Roath, Cardiff, CF24 3JB"
2025-12-02,1884595,Marcos trattoria,Restaurant/Cafe/Canteen,91 Heol Llanishen Fach,Rhiwbina,Cardiff,,CF14 6LB,Caerdydd,AwaitingInspection,,FHRS,True,51.5297047,-3.2097988,"91 Heol Llanishen Fach, Rhiwbina, Cardiff, CF14 6LB"
2025-12-02,1895591,Milo baguette,Restaurant/Cafe/Canteen,83 Cathays Terrace,Cathays,Cardiff,,CF24 4HT,Caerdydd,AwaitingInspection,,FHRS,False,51.4935331,-3.1818507,"83 Cathays Terrace, Cathays, Cardiff, CF24 4HT"
2025-12-02,1895587,Mugshot Restaurants,Restaurant/Cafe/Canteen,12 Wharton Street,Cathays,Cardiff,,CF10 1AG,Caerdydd,AwaitingInspection,,FHRS,False,51.4795666,-3.1775728,"12 Wharton Street, Cathays, Cardiff, CF10 1AG"
2025-12-02,647415,Grantham Museum,Restaurant/Cafe/Canteen,,St Peters Hill,Grantham,,NG31 6PY,South Kesteven,Exempt,,FHRS,False,52.910515,-0.639944,"St Peters Hill, Grantham, NG31 6PY"
2025-12-02,1895658,A Tavola Pizzeria Restaurant,Restaurant/Cafe/Canteen,11 - 12 Burgate,Canterbury,Kent,,CT1 2HG,Canterbury City,AwaitingInspection,,FHRS,False,51.2784215,1.0836321,"11 - 12 Burgate, Canterbury, Kent, CT1 2HG"
2025-12-02,1895659,Castellum Pizzeria,Restaurant/Cafe/Canteen,27A Oxford Street,Whitstable,Kent,,CT5 1DB,Canterbury City,AwaitingInspection,,FHRS,False,51.3560335,1.0243881,"27A Oxford Street, Whitstable, Kent, CT5 1DB"
2025-12-02,1895657,McDonalds Restaurants Limited,Restaurant/Cafe/Canteen,18 - 20 St George's Street,Canterbury,Kent,,CT1 2SR,Canterbury City,5,2025-11-18,FHRS,False,51.2775354,1.082012,"18 - 20 St George's Street, Canterbury, Kent, CT1 2SR"
2025-12-02,1895662,Ocakbasi Of Kent,Restaurant/Cafe/Canteen,34 St Peters Street,Canterbury,Kent,,CT1 2BG,Canterbury City,AwaitingInspection,,FHRS,False,51.2811358,1.0762811,"34 St Peters Street, Canterbury, Kent, CT1 2BG"
2025-12-02,1895656,Phoebes Coffee House And Sandwich Bar,Restaurant/Cafe/Canteen,56 - 57 Ivy Lane,Canterbury,Kent,,CT1 1TU,Canterbury City,AwaitingInspection,,FHRS,False,51.2769373,1.0861309,"56 - 57 Ivy Lane, Canterbury, Kent, CT1 1TU"
2025-12-02,1895517,Flightmode,Restaurant/Cafe/Canteen,53 Main Street,,Bangor,,BT20 5AF,Ards and North Down,AwaitingInspection,,FHRS,False,,,"53 Main Street, Bangor, BT20 5AF"
2025-12-02,1756231,The Goose Coffee House,Restaurant/Cafe/Canteen,5a High Street,Town Parks,Comber,Down,BT23 5HJ,Ards and North Down,5,2024-10-29,FHRS,False,54.549755,-5.748032,"5a High Street, Town Parks, Comber, Down, BT23 5HJ"
2025-12-02,1895582,Aussie Johns Mess,Restaurant/Cafe/Canteen,NETLEY SAILING CLUB ROYAL VICTORIA COUNTRY PARK NETLEY ABBEY SOUTHAMPTON SO31 5GA,,,,SO31 5GA,Eastleigh,AwaitingInspection,,FHRS,False,50.8695259094238,-1.34449100494385,"NETLEY SAILING CLUB ROYAL VICTORIA COUNTRY PARK NETLEY ABBEY SOUTHAMPTON SO31 5GA, SO31 5GA"
2025-12-02,1895576,Dallas Chicken & Pizza,Restaurant/Cafe/Canteen,52 HIGH STREET EASTLEIGH SO50 5LE,,,,SO50 5LE,Eastleigh,AwaitingInspection,,FHRS,False,50.967548,-1.3534313,"52 HIGH STREET EASTLEIGH SO50 5LE, SO50 5LE"
2025-12-02,1895579,Starbucks,Restaurant/Cafe/Canteen,UNIT A1 HAMILTON BUSINESS PARK HAMILTON WAY HEDGE END SOUTHAMPTON SO30 2JR,,,,SO30 2JR,Eastleigh,AwaitingInspection,,FHRS,False,50.9251929,-1.3067755,"UNIT A1 HAMILTON BUSINESS PARK HAMILTON WAY HEDGE END SOUTHAMPTON SO30 2JR, SO30 2JR"
2025-12-02,1895596,Afghan Zaika,Restaurant/Cafe/Canteen,45 Corporation Road,Grangetown,Cardiff,,CF11 7AP,Cardiff,AwaitingInspection,,FHRS,False,51.4691707,-3.1839279,"45 Corporation Road, Grangetown, Cardiff, CF11 7AP"
2025-12-02,1895595,Chickaros,Restaurant/Cafe/Canteen,41 - 43 Albany Road,Roath,Cardiff,,CF24 3LJ,Cardiff,AwaitingInspection,,FHRS,False,51.4933332,-3.1695005,"41 - 43 Albany Road, Roath, Cardiff, CF24 3LJ"
2025-12-02,1895588,Crave club,Restaurant/Cafe/Canteen,23 Whitchurch Road,Gabalfa,Cardiff,,CF14 3JN,Cardiff,AwaitingInspection,,FHRS,False,51.5018081,-3.1896288,"23 Whitchurch Road, Gabalfa, Cardiff, CF14 3JN"
2025-12-02,1835103,Forest cafe,Restaurant/Cafe/Canteen,Caerphilly Mountain Project Heol-y-fforest,Tongwynlais,Cardiff,,CF15 7JR,Cardiff,3,2025-05-21,FHRS,False,51.53906,-3.2469371,"Caerphilly Mountain Project Heol-y-fforest, Tongwynlais, Cardiff, CF15 7JR"
2025-12-02,1895593,Manaqesh palace,Restaurant/Cafe/Canteen,185 City Road,Roath,Cardiff,,CF24 3JB,Cardiff,AwaitingInspection,,FHRS,False,51.49083,-3.1707472,"185 City Road, Roath, Cardiff, CF24 3JB"
2025-12-02,1884595,Marcos trattoria,Restaurant/Cafe/Canteen,91 Heol Llanishen Fach,Rhiwbina,Cardiff,,CF14 6LB,Cardiff,AwaitingInspection,,FHRS,True,51.5297047,-3.2097988,"91 Heol Llanishen Fach, Rhiwbina, Cardiff, CF14 6LB"
2025-12-02,1895591,Milo baguette,Restaurant/Cafe/Canteen,83 Cathays Terrace,Cathays,Cardiff,,CF24 4HT,Cardiff,AwaitingInspection,,FHRS,False,51.4935331,-3.1818507,"83 Cathays Terrace, Cathays, Cardiff, CF24 4HT"
2025-12-02,1895587,Mugshot Restaurants,Restaurant/Cafe/Canteen,12 Wharton Street,Cathays,Cardiff,,CF10 1AG,Cardiff,AwaitingInspection,,FHRS,False,51.4795666,-3.1775728,"12 Wharton Street, Cathays, Cardiff, CF10 1AG"
2025-12-02,1895528,Fried Up,Restaurant/Cafe/Canteen,4 West Ruislip Station,Ickenham Road,,Ruislip,HA4 7DW,Hillingdon,AwaitingInspection,,FHRS,False,51.569597,-0.437872,"4 West Ruislip Station, Ickenham Road, Ruislip, HA4 7DW"
2025-12-02,1895531,Shahs Halal Food,Restaurant/Cafe/Canteen,,115a High Street,,Yiewsley,UB7 7QL,Hillingdon,AwaitingInspection,,FHRS,False,51.5137158,-0.4734316,"115a High Street, Yiewsley, UB7 7QL"
2025-12-02,1895525,TRINIJAM,Restaurant/Cafe/Canteen,Room 11 - Blenheim Care Centre,Ickenham Road,,Ruislip,HA4 7DP,Hillingdon,AwaitingInspection,,FHRS,False,51.5700538,-0.4369575,"Room 11 - Blenheim Care Centre, Ickenham Road, Ruislip, HA4 7DP"
2025-12-02,1895654,365 Burger Bar,Restaurant/Cafe/Canteen,2 Crown Walk,,Bicester,Oxfordshire,OX26 6HY,Cherwell,AwaitingInspection,,FHRS,False,51.8975789,-1.1512165,"2 Crown Walk, Bicester, Oxfordshire, OX26 6HY"
2025-12-02,1895651,Greggs PLC,Restaurant/Cafe/Canteen,The Hub Buccaneer Way,,Kidlington,Oxfordshire,OX5 1ZA,Cherwell,AwaitingInspection,,FHRS,False,,,"The Hub Buccaneer Way, Kidlington, Oxfordshire, OX5 1ZA"
2025-12-02,1895650,The Cosy Counter,Restaurant/Cafe/Canteen,Unit 19e Cherwell Business Village Southam Road,,Banbury,Oxfordshire,OX16 2SP,Cherwell,AwaitingInspection,,FHRS,False,52.0801458,-1.3383116,"Unit 19e Cherwell Business Village Southam Road, Banbury, Oxfordshire, OX16 2SP"
2025-12-02,1895633,FlavorFix,Restaurant/Cafe/Canteen,Flat 0/1,273 Kenmure Street,Glasgow,,G41 2QX,Glasgow City,Awaiting Inspection,2025-10-02,FHIS,False,55.8390775,-4.2737913,"Flat 0/1, 273 Kenmure Street, Glasgow, G41 2QX"
2025-12-02,1895634,JandB Bites,Restaurant/Cafe/Canteen,,2234 Paisley Road West,Glasgow,,G52 3SJ,Glasgow City,Awaiting Inspection,2025-11-28,FHIS,False,55.846018,-4.358337,"2234 Paisley Road West, Glasgow, G52 3SJ"
2025-12-02,1895795,Andy's Coffee Shop,Restaurant/Cafe/Canteen,206 Burgess Road,Southampton,,,SO16 3AY,Southampton,AwaitingInspection,,FHRS,False,50.9382779,-1.3916228,"206 Burgess Road, Southampton, SO16 3AY"
2025-12-02,1895791,"Timplado Also Trading As Pistahan Sa Nayon, MyPinoyShop.biz",Restaurant/Cafe/Canteen,10 East Street,Southampton,,,SO14 3HE,Southampton,AwaitingInspection,,FHRS,False,50.9019075,-1.4029197,"10 East Street, Southampton, SO14 3HE"
2025-12-02,1895787,"Yun Noodle Bar, Also Trading As Yun Yan",Restaurant/Cafe/Canteen,178 Above Bar Street,Southampton,,,SO14 7DW,Southampton,AwaitingInspection,,FHRS,False,50.909056,-1.40447,"178 Above Bar Street, Southampton, SO14 7DW"
2025-12-02,1895732,Il Grande Ristorante,Restaurant/Cafe/Canteen,,565a Durham Road,Gateshead,,NE9 5EY,Gateshead,AwaitingInspection,,FHRS,False,54.935055,-1.599025,"565a Durham Road, Gateshead, NE9 5EY"
2025-12-02,1895731,Oneg,Restaurant/Cafe/Canteen,,201 Coatsworth Road,Bensham,Gateshead,NE8 1SR,Gateshead,AwaitingInspection,,FHRS,False,54.953728,-1.6072666,"201 Coatsworth Road, Bensham, Gateshead, NE8 1SR"
2025-12-02,1895735,Rivers Lounge,Restaurant/Cafe/Canteen,,Green Lane,Felling Central,Felling,NE10 0SB,Gateshead,AwaitingInspection,,FHRS,False,,,"Green Lane, Felling Central, Felling, NE10 0SB"
2025-12-02,1895733,ZaNapoli,Restaurant/Cafe/Canteen,,168 Kells Lane,Low Fell,Gateshead,NE9 5HY,Gateshead,AwaitingInspection,,FHRS,False,54.935678,-1.597006,"168 Kells Lane, Low Fell, Gateshead, NE9 5HY"
2025-12-02,1895503,Al Taglio Pizza,Restaurant/Cafe/Canteen,67 Home Street,Edinburgh,,,EH3 9JP,Edinburgh (City of),Awaiting Inspection,2025-11-24,FHIS,False,55.942504,-3.203282,"67 Home Street, Edinburgh, EH3 9JP"
2025-12-02,1895502,Chayan,Restaurant/Cafe/Canteen,91 South Bridge,Edinburgh,,,EH1 1HN,Edinburgh (City of),Awaiting Inspection,2025-11-24,FHIS,False,55.9489371,-3.1872105,"91 South Bridge, Edinburgh, EH1 1HN"
2025-12-02,1895506,Hot World Cuisine Edinburgh,Restaurant/Cafe/Canteen,118-126 Dalry Road,Edinburgh,,,EH11 2EZ,Edinburgh (City of),Awaiting Inspection,2025-11-26,FHIS,False,55.9428061,-3.2215739,"118-126 Dalry Road, Edinburgh, EH11 2EZ"
2025-12-02,663434,RNIB Scotland Cafe,Restaurant/Cafe/Canteen,12-14 Hillside Crescent,Edinburgh,,,EH7 5EB,Edinburgh (City of),Pass,2019-08-13,FHIS,False,55.9584352,-3.1786919,"12-14 Hillside Crescent, Edinburgh, EH7 5EB"
2025-12-02,1895508,Slice Syndicate,Restaurant/Cafe/Canteen,84 Bruntsfield Place,Edinburgh,,,EH10 4HG,Edinburgh (City of),Awaiting Inspection,2025-11-28,FHIS,False,55.9376640319824,-3.20662188529968,"84 Bruntsfield Place, Edinburgh, EH10 4HG"
2025-12-02,1895700,Little Bean Cafe Billingshurst,Restaurant/Cafe/Canteen,Little Bean Cafe Billingshurst,35 High Street,Billingshurst,,RH14 9PP,Horsham,AwaitingInspection,,FHRS,False,51.0237919,-0.4506807,"Little Bean Cafe Billingshurst, 35 High Street, Billingshurst, RH14 9PP"
2025-12-02,1895557,Deli Box,Restaurant/Cafe/Canteen,112C Queens Park Drive,Castleford,,,WF10 3DQ,Wakefield,AwaitingInspection,,FHRS,False,53.724223,-1.3284615,"112C Queens Park Drive, Castleford, WF10 3DQ"
2025-12-02,1895617,Ferryman Laugharne,Restaurant/Cafe/Canteen,Exeter House,King Street,Laugharne,Carmarthen,SA33 4RY,Sir Gaerfyrddin,AwaitingInspection,,FHRS,False,51.7714883,-4.462359,"Exeter House, King Street, Laugharne, Carmarthen, SA33 4RY"
2025-12-02,1895618,Mcdonald's Restaurant,Restaurant/Cafe/Canteen,Mcdonald's Restaurant,Park Street,Ammanford,Carmarthenshire,SA18 2LR,Sir Gaerfyrddin,AwaitingInspection,,FHRS,False,,,"Mcdonald's Restaurant, Park Street, Ammanford, Carmarthenshire, SA18 2LR"
2025-12-02,1895846,CONNECT CATERING LTD,Restaurant/Cafe/Canteen,Nightingale And Elsley School Complex,Beechcroft Road,London,,SW17 7DF,Wandsworth,AwaitingInspection,,FHRS,False,,,"Nightingale And Elsley School Complex, Beechcroft Road, London, SW17 7DF"
2025-12-02,1895840,Fabio Bortolon,Restaurant/Cafe/Canteen,The Hatch,92a Balham High Road,London,,SW12 9AG,Wandsworth,AwaitingInspection,,FHRS,False,51.44621034,-0.14983482,"The Hatch, 92a Balham High Road, London, SW12 9AG"
2025-12-02,1895845,Gassco,Restaurant/Cafe/Canteen,,,,,,Wandsworth,AwaitingInspection,,FHRS,False,,,
2025-12-02,1895839,Hong Kong Brew,Restaurant/Cafe/Canteen,,,,,,Wandsworth,AwaitingInspection,,FHRS,False,,,
2025-12-02,1895843,Mai's Japanese Home Cooking,Restaurant/Cafe/Canteen,,,,,,Wandsworth,AwaitingInspection,,FHRS,False,,,
2025-12-02,1895847,Maison Cookies,Restaurant/Cafe/Canteen,,,,,,Wandsworth,AwaitingInspection,,FHRS,False,,,
2025-12-02,1895832,Seamo Cure,Restaurant/Cafe/Canteen,,,,,,Wandsworth,AwaitingInspection,,FHRS,False,,,
2025-12-02,1895848,Sugar & Sall,Restaurant/Cafe/Canteen,,,,,,Wandsworth,AwaitingInspection,,FHRS,False,,,
2025-12-02,1877785,The Hatch,Restaurant/Cafe/Canteen,92a Balham High Road,London,,,SW12 9AG,Wandsworth,5,2025-11-12,FHRS,False,51.44631073,-0.14975172,"92a Balham High Road, London, SW12 9AG"
2025-12-02,1572571,The Little Battersea  Bakery & Coffee Shop,Restaurant/Cafe/Canteen,55 Battersea Bridge Road,London,,,SW11 3AX,Wandsworth,1,2025-10-13,FHRS,False,51.4784505,-0.1697702,"55 Battersea Bridge Road, London, SW11 3AX"
2025-12-02,1895836,The Top Dog,Restaurant/Cafe/Canteen,Mission Kitchen,1st Floor Food Exchange New Covent Garden Market,Nine Elms Lane,London,SW8 5EL,Wandsworth,AwaitingInspection,,FHRS,False,51.479311,-0.1325742,"Mission Kitchen, 1st Floor Food Exchange New Covent Garden Market, Nine Elms Lane, London, SW8 5EL"
2025-12-02,1895835,Twisted Sister,Restaurant/Cafe/Canteen,69 St Johns Road,London,,,SW11 1QX,Wandsworth,5,2025-11-14,FHRS,False,51.4615208,-0.1671072,"69 St Johns Road, London, SW11 1QX"
2025-12-02,1895837,VIRESOPUS LIMITED,Restaurant/Cafe/Canteen,,,,,,Wandsworth,AwaitingInspection,,FHRS,False,,,
2025-12-02,1895686,Beef Guys,Restaurant/Cafe/Canteen,133 Broad Street,Chesham,Buckinghamshire,,HP5 3EF,Buckinghamshire,AwaitingInspection,,FHRS,False,51.710531,-0.60907,"133 Broad Street, Chesham, Buckinghamshire, HP5 3EF"
2025-12-02,1895681,Benedicts,Restaurant/Cafe/Canteen,12 Gregories Road,Beaconsfield,Buckinghamshire,,HP9 1HQ,Buckinghamshire,AwaitingInspection,,FHRS,True,51.610712,-0.648228,"12 Gregories Road, Beaconsfield, Buckinghamshire, HP9 1HQ"
2025-12-02,1895696,Brew & Bite,Restaurant/Cafe/Canteen,,55-56 Market Place,,Boston,PE21 6LS,Boston,AwaitingInspection,,FHRS,False,52.9785912,-0.0239218,"55-56 Market Place, Boston, PE21 6LS"
2025-12-02,1889334,Capital Food Centre,Restaurant/Cafe/Canteen,,49-51 Aylesbury Street,Bletchley,Milton Keynes,MK2 2BQ,Milton Keynes,AwaitingInspection,,FHRS,False,51.9974111,-0.7172322,"49-51 Aylesbury Street, Bletchley, Milton Keynes, MK2 2BQ"
2025-12-02,1285662,Paprika Store,Restaurant/Cafe/Canteen,,72 Queensway,Bletchley,Milton Keynes,MK2 2SA,Milton Keynes,AwaitingInspection,,FHRS,False,51.9942368,-0.7321502,"72 Queensway, Bletchley, Milton Keynes, MK2 2SA"
2025-12-02,1895828,The Fort of India,Restaurant/Cafe/Canteen,,69-73 High Street,Newton Le Willows,,WA12 9SL,St Helens,AwaitingInspection,,FHRS,False,53.4570154,-2.6187327,"69-73 High Street, Newton Le Willows, WA12 9SL"
2025-12-02,1895568,Costa and M & S Hybrid,Restaurant/Cafe/Canteen,Warwick Hospital,Lakin Road,,Warwick,CV34 5BW,Warwick,AwaitingInspection,,FHRS,False,52.289959,-1.583229,"Warwick Hospital, Lakin Road, Warwick, CV34 5BW"
2025-12-02,1895629,The Hidden Crystal,Restaurant/Cafe/Canteen,Unit 21-23 Afon Court,Greenway,Bedwas House Industrial Estate,Bedwas,CF83 8JG,Caerffili,AwaitingInspection,,FHRS,False,,,"Unit 21-23 Afon Court, Greenway, Bedwas House Industrial Estate, Bedwas, CF83 8JG"
2025-12-02,1895617,Ferryman Laugharne,Restaurant/Cafe/Canteen,Exeter House,King Street,Laugharne,Carmarthen,SA33 4RY,Carmarthenshire,AwaitingInspection,,FHRS,False,51.7714883,-4.462359,"Exeter House, King Street, Laugharne, Carmarthen, SA33 4RY"
2025-12-02,1895618,Mcdonald's Restaurant,Restaurant/Cafe/Canteen,Mcdonald's Restaurant,Park Street,Ammanford,Carmarthenshire,SA18 2LR,Carmarthenshire,AwaitingInspection,,FHRS,False,,,"Mcdonald's Restaurant, Park Street, Ammanford, Carmarthenshire, SA18 2LR"
2025-12-02,1895710,Coffee n Cream,Restaurant/Cafe/Canteen,,11 Commercial Road,,Nottingham,NG6 8HD,Nottingham City,AwaitingInspection,,FHRS,False,53.00143,-1.197763,"11 Commercial Road, Nottingham, NG6 8HD"
2025-12-02,1895708,Coffee#1,Restaurant/Cafe/Canteen,,3 Carrington Street,,Nottingham,NG1 7FH,Nottingham City,AwaitingInspection,,FHRS,False,52.9493273,-1.1478247,"3 Carrington Street, Nottingham, NG1 7FH"
2025-12-02,1895706,Maki & Ramen,Restaurant/Cafe/Canteen,,18 King Street,,Nottingham,NG1 2AS,Nottingham City,AwaitingInspection,,FHRS,False,52.954303,-1.149201,"18 King Street, Nottingham, NG1 2AS"
2025-12-02,1895713,PNKS Bistro Lounge,Restaurant/Cafe/Canteen,,153 Wollaton Street,,Nottingham,NG1 5GE,Nottingham City,AwaitingInspection,,FHRS,False,52.955599,-1.159596,"153 Wollaton Street, Nottingham, NG1 5GE"
2025-12-02,1895707,The Slice,Restaurant/Cafe/Canteen,,3-7 Middle Pavement,,Nottingham,NG1 7DX,Nottingham City,AwaitingInspection,,FHRS,False,52.95154357,-1.14668502,"3-7 Middle Pavement, Nottingham, NG1 7DX"
2025-12-02,1895512,Rhubarb@131 Ltd,Restaurant/Cafe/Canteen,131 Chatsworth Road,,,Chesterfield,S40 2AH,Chesterfield,AwaitingInspection,,FHRS,False,53.234859,-1.4430828,"131 Chatsworth Road, Chesterfield, S40 2AH"
2025-12-02,1895642,Chai Bites,Restaurant/Cafe/Canteen,,162a Mile End Road,London,,E1 4LJ,Tower Hamlets,AwaitingInspection,,FHRS,False,51.5210302,-0.0492419,"162a Mile End Road, London, E1 4LJ"
2025-12-02,1895639,"Monda Mithai, Ek Cup Tea",Restaurant/Cafe/Canteen,Unit 03 Globe Town Food Court,82a Roman Road,London,,E2 0PJ,Tower Hamlets,AwaitingInspection,,FHRS,True,,,"Unit 03 Globe Town Food Court, 82a Roman Road, London, E2 0PJ"
2025-12-02,1895643,N1 Grill & Curry House,Restaurant/Cafe/Canteen,,77 Roman Road,London,,E2 0QN,Tower Hamlets,AwaitingInspection,,FHRS,False,51.528625,-0.049562,"77 Roman Road, London, E2 0QN"
2025-12-02,1895640,"The Fuchka Man, Desi Chinese, Mejbani, Desi Japanese, Deshi Sushi",Restaurant/Cafe/Canteen,Unit 03 Globe Town Food Court,82a Roman Road,London,,E2 0PG,Tower Hamlets,AwaitingInspection,,FHRS,True,,,"Unit 03 Globe Town Food Court, 82a Roman Road, London, E2 0PG"
2025-12-02,1489649,Flavour,Restaurant/Cafe/Canteen,,Palmers Elm,Hewish,Weston-Super-Mare,BS24 6RN,North Somerset,AwaitingInspection,,FHRS,False,51.37069,-2.869947,"Palmers Elm, Hewish, Weston-Super-Mare, BS24 6RN"
2025-12-02,1895815,So Bangkok,Restaurant/Cafe/Canteen,,8 Alexandra Parade,Weston-Super-Mare,,BS23 1QS,North Somerset,AwaitingInspection,,FHRS,False,51.347832,-2.977191,"8 Alexandra Parade, Weston-Super-Mare, BS23 1QS"
2025-12-02,1895816,Stone & Canvas Cafe,Restaurant/Cafe/Canteen,Town Quarry,South Road,Weston-Super-Mare,,BS23 2LU,North Somerset,5,2025-11-21,FHRS,False,51.356206,-2.98228,"Town Quarry, South Road, Weston-Super-Mare, BS23 2LU"
2025-12-02,1227635,Legacy Dance Academy,Restaurant/Cafe/Canteen,Unit 2 Sherwood Business Park,Queensway,Rochdale,,OL11 2NU,Rochdale,AwaitingInspection,,FHRS,False,53.5962944030762,-2.17101407051086,"Unit 2 Sherwood Business Park, Queensway, Rochdale, OL11 2NU"
2025-12-02,330224,Cathedral View Indian Cuisine,Restaurant/Cafe/Canteen,,7 Eastgate,Lincoln,Lincolnshire,LN2 1QA,Lincoln City,AwaitingInspection,,FHRS,False,53.2350044250488,-0.53794002532959,"7 Eastgate, Lincoln, Lincolnshire, LN2 1QA"
2025-12-02,1716784,Hot Pot And More,Restaurant/Cafe/Canteen,Unit 10 Cornhill Market,Sincil Street,Lincoln,Lincolnshire,LN5 7ET,Lincoln City,AwaitingInspection,,FHRS,False,53.2277947,-0.5386783,"Unit 10 Cornhill Market, Sincil Street, Lincoln, Lincolnshire, LN5 7ET"
2025-12-02,1895562,Pumpkin and Friends Charity,Restaurant/Cafe/Canteen,The Coach House,Firth Road,Lincoln,Lincolnshire,LN5 7PA,Lincoln City,5,2025-11-11,FHRS,False,53.2243012,-0.5444025,"The Coach House, Firth Road, Lincoln, Lincolnshire, LN5 7PA"
2025-12-02,1550826,Farmers Arms Restaurant,Restaurant/Cafe/Canteen,21 - 25 Mwrog Street,,Ruthin,Denbighshire,LL15 1LB,Denbighshire,AwaitingInspection,,FHRS,True,53.1121063232422,-3.31762099266052,"21 - 25 Mwrog Street, Ruthin, Denbighshire, LL15 1LB"
2025-12-02,1895669,The Queens Carvery,Restaurant/Cafe/Canteen,Queens Market Sussex Street,,Rhyl,,LL18 1SE,Denbighshire,AwaitingInspection,,FHRS,False,53.321458,-3.4920498,"Queens Market Sussex Street, Rhyl, LL18 1SE"
2025-12-02,1550826,Farmers Arms Restaurant,Restaurant/Cafe/Canteen,21 - 25 Mwrog Street,,Ruthin,Denbighshire,LL15 1LB,Sir Ddinbych,AwaitingInspection,,FHRS,True,53.1121063232422,-3.31762099266052,"21 - 25 Mwrog Street, Ruthin, Denbighshire, LL15 1LB"
2025-12-02,1895669,The Queens Carvery,Restaurant/Cafe/Canteen,Queens Market Sussex Street,,Rhyl,,LL18 1SE,Sir Ddinbych,AwaitingInspection,,FHRS,False,53.321458,-3.4920498,"Queens Market Sussex Street, Rhyl, LL18 1SE"
2025-12-02,1895851,Aria Artisan Pizza,Restaurant/Cafe/Canteen,12 Pope Close,Colliers Wood,,,SW19 1TT,Merton,AwaitingInspection,,FHRS,False,51.4226098,-0.1781286,"12 Pope Close, Colliers Wood, SW19 1TT"
2025-12-02,1895850,Arome Cafe,Restaurant/Cafe/Canteen,287 Mitcham Road,Tooting,London,,SW17 9JQ,Merton,AwaitingInspection,,FHRS,False,51.421315,-0.160224,"287 Mitcham Road, Tooting, London, SW17 9JQ"
2025-12-02,1895849,CulynArt Limited,Restaurant/Cafe/Canteen,Unit 5 Karma Kitchen,18 Weir Road,Wimbledon,London,SW19 8UG,Merton,AwaitingInspection,,FHRS,False,51.4323525,-0.1911352,"Unit 5 Karma Kitchen, 18 Weir Road, Wimbledon, London, SW19 8UG"
2025-12-02,1895852,Sicilian Grains,Restaurant/Cafe/Canteen,,,,,,Merton,AwaitingInspection,,FHRS,False,,,
2025-12-02,1895629,The Hidden Crystal,Restaurant/Cafe/Canteen,Unit 21-23 Afon Court,Greenway,Bedwas House Industrial Estate,Bedwas,CF83 8JG,Caerphilly,AwaitingInspection,,FHRS,False,,,"Unit 21-23 Afon Court, Greenway, Bedwas House Industrial Estate, Bedwas, CF83 8JG"
2025-12-02,1495063,Bandar Restaurant,Restaurant/Cafe/Canteen,,323 Lincoln Road,Peterborough,,PE1 2PF,Peterborough City,AwaitingInspection,,FHRS,False,52.5877097,-0.2464373,"323 Lincoln Road, Peterborough, PE1 2PF"
2025-12-02,577490,Kurdish Bakery Limited,Restaurant/Cafe/Canteen,,27a Russell Street,Peterborough,,PE1 2BQ,Peterborough City,AwaitingInspection,,FHRS,False,52.577772,-0.248102,"27a Russell Street, Peterborough, PE1 2BQ"
2025-12-02,1895751,Yas Food & Cafe,Restaurant/Cafe/Canteen,44 Ortongate Shopping Centre,Bushfield,Orton Goldhay,Peterborough,PE2 5TD,Peterborough City,AwaitingInspection,,FHRS,False,52.543135,-0.3015527,"44 Ortongate Shopping Centre, Bushfield, Orton Goldhay, Peterborough, PE2 5TD"
2025-12-03,1896052,Bronnies's Bites,Restaurant/Cafe/Canteen,18 The Broadway,Loughton,Essex,,IG10 3ST,Epping Forest,AwaitingInspection,,FHRS,True,51.64754,0.083998,"18 The Broadway, Loughton, Essex, IG10 3ST"
2025-12-03,1896054,Crate coffee co,Restaurant/Cafe/Canteen,Oakwood House,Oakwood Hill Industrial Estate,Loughton,Essex,IG10 3TZ,Epping Forest,5,2025-11-26,FHRS,False,51.6433388,0.0821538,"Oakwood House, Oakwood Hill Industrial Estate, Loughton, Essex, IG10 3TZ"
2025-12-03,1896055,Efezade Mezze Grill,Restaurant/Cafe/Canteen,12-14 The Broadway,Loughton,Essex,,IG10 3ST,Epping Forest,5,2025-11-26,FHRS,False,51.6475410461426,0.0839980021119118,"12-14 The Broadway, Loughton, Essex, IG10 3ST"
2025-12-03,1895869,Padel Hub Fleet,Restaurant/Cafe/Canteen,Unit 3,Beacon Trade Park,Beacon Hill Road,Church Crookham,GU52 8DX,Hart,AwaitingInspection,,FHRS,False,51.2579162,-0.8239204,"Unit 3, Beacon Trade Park, Beacon Hill Road, Church Crookham, GU52 8DX"
2025-12-03,1896203,Scoop Ice Cream,Restaurant/Cafe/Canteen,St Michaels Park,Skegness Road,Burgh Le Marsh,Skegness,PE24 5AA,East Lindsey,5,2025-10-11,FHRS,False,,,"St Michaels Park, Skegness Road, Burgh Le Marsh, Skegness, PE24 5AA"
2025-12-03,1895892,La Brisa,Restaurant/Cafe/Canteen,20A - 20B Town Hall Street,Sowerby Bridge,Calderdale,,HX6 2EA,Calderdale,AwaitingInspection,,FHRS,False,53.7084653,-1.9113543,"20A - 20B Town Hall Street, Sowerby Bridge, Calderdale, HX6 2EA"
2025-12-03,1625985,Mags Cafe,Restaurant/Cafe/Canteen,Unit 15A,Calderdale Business Park,Club Lane,Ovenden,HX2 8DB,Calderdale,5,2023-05-31,FHRS,False,53.7424003,-1.8855391,"Unit 15A, Calderdale Business Park, Club Lane, Ovenden, HX2 8DB"
2025-12-03,1895944,Chaayepaani huddersfield,Restaurant/Cafe/Canteen,M and Y Investments,236 Lockwood Road,Lockwood,Huddersfield,HD1 3TG,Kirklees,AwaitingInspection,,FHRS,False,53.6341696,-1.7943673,"M and Y Investments, 236 Lockwood Road, Lockwood, Huddersfield, HD1 3TG"
2025-12-03,1895940,GLACE DESSERTS,Restaurant/Cafe/Canteen,59 Market Place,Market Street,Heckmondwike,,WF16 0EZ,Kirklees,AwaitingInspection,,FHRS,False,,,"59 Market Place, Market Street, Heckmondwike, WF16 0EZ"
2025-12-03,1895946,Phat Spuds,Restaurant/Cafe/Canteen,97 Commercial Street,Batley,,,WF17 5EF,Kirklees,AwaitingInspection,,FHRS,False,53.7140119,-1.6327834,"97 Commercial Street, Batley, WF17 5EF"
2025-12-03,1895952,Table17,Restaurant/Cafe/Canteen,Unit 17 Wilton Industrial Court,851 Bradford Road,Birstall,Batley,WF17 8NN,Kirklees,AwaitingInspection,,FHRS,False,53.7275733947754,-1.6583069562912,"Unit 17 Wilton Industrial Court, 851 Bradford Road, Birstall, Batley, WF17 8NN"
2025-12-03,1895951,Touch of Thai High Flatts,Restaurant/Cafe/Canteen,4 Windmill Lane,High Flatts,Huddersfield,,HD8 8FZ,Kirklees,AwaitingInspection,,FHRS,False,,,"4 Windmill Lane, High Flatts, Huddersfield, HD8 8FZ"
2025-12-03,1895942,Zucchinis Ristorante,Restaurant/Cafe/Canteen,Zucchini,260 Bradford Road,Batley,,WF17 6JD,Kirklees,AwaitingInspection,,FHRS,False,53.7064426,-1.6265624,"Zucchini, 260 Bradford Road, Batley, WF17 6JD"
2025-12-03,1895886,Sushi & Bento House / Kimbap Fusion / Sushi 2 Go,Restaurant/Cafe/Canteen,Sushi & Bento House,High Bridge,7 Annonay Walk,Chelmsford,CM2 6FL,Chelmsford,AwaitingInspection,,FHRS,False,51.7322246,0.4770466,"Sushi & Bento House, High Bridge, 7 Annonay Walk, Chelmsford, CM2 6FL"
2025-12-03,1896009,5am kitchen,Restaurant/Cafe/Canteen,,,,,,West Northamptonshire,AwaitingInspection,,FHRS,False,,,
2025-12-03,1896020,Amica Cafe,Restaurant/Cafe/Canteen,33 Latchet Lane,Upton,Northampton,NN5 4GG,NN5 4GG,West Northamptonshire,AwaitingInspection,,FHRS,False,52.2362108,-0.9442179,"33 Latchet Lane, Upton, Northampton, NN5 4GG, NN5 4GG"
2025-12-03,1896016,Ashia Bakes,Restaurant/Cafe/Canteen,,,,,,West Northamptonshire,AwaitingInspection,,FHRS,False,,,
2025-12-03,1896026,BaxterStorey,Restaurant/Cafe/Canteen,Carlsberg National Distribution Centre,Tithe Barn Way,Swan Valley,Northampton,NN4 9BA,West Northamptonshire,AwaitingInspection,,FHRS,False,,,"Carlsberg National Distribution Centre, Tithe Barn Way, Swan Valley, Northampton, NN4 9BA"
2025-12-03,1896025,Cinnamon,Restaurant/Cafe/Canteen,2 Malvern Grove,Duston,Northampton,NN5 6AY,NN5 6AY,West Northamptonshire,AwaitingInspection,,FHRS,False,52.247396,-0.934004,"2 Malvern Grove, Duston, Northampton, NN5 6AY, NN5 6AY"
2025-12-03,1896012,Flames pizza&grill,Restaurant/Cafe/Canteen,28 York Road,Northampton,NN1 5QH,,NN1 5QH,West Northamptonshire,AwaitingInspection,,FHRS,False,52.239499,-0.888809,"28 York Road, Northampton, NN1 5QH, NN1 5QH"
2025-12-03,1896028,FREDDYS CHICKEN AND PIZZA,Restaurant/Cafe/Canteen,210 Wellingborough Road,Northampton,NN1 4EE,,NN1 4EE,West Northamptonshire,AwaitingInspection,,FHRS,False,52.241715,-0.877871,"210 Wellingborough Road, Northampton, NN1 4EE, NN1 4EE"
2025-12-03,1896015,Golden Horse,Restaurant/Cafe/Canteen,59 Southampton Road,Far Cotton,Northampton,NN4 8DZ,NN4 8DZ,West Northamptonshire,AwaitingInspection,,FHRS,False,52.2265815734863,-0.901648998260498,"59 Southampton Road, Far Cotton, Northampton, NN4 8DZ, NN4 8DZ"
2025-12-03,1896013,Illuminated kitchen,Restaurant/Cafe/Canteen,University Drive,Northampton,Northamptonshire,NN1 5PH,NN1 5PH,West Northamptonshire,AwaitingInspection,,FHRS,False,,,"University Drive, Northampton, Northamptonshire, NN1 5PH, NN1 5PH"
2025-12-03,1896022,Indian Home Food,Restaurant/Cafe/Canteen,,,,,,West Northamptonshire,AwaitingInspection,,FHRS,False,,,
2025-12-03,1896017,The Club Chicken,Restaurant/Cafe/Canteen,48 Duke Street,Northampton,NN1 3BA,,NN1 3BA,West Northamptonshire,AwaitingInspection,,FHRS,False,52.243915,-0.892814,"48 Duke Street, Northampton, NN1 3BA, NN1 3BA"
2025-12-03,1896014,The Realm,Restaurant/Cafe/Canteen,147 Wellingborough Road,Northampton,NN1 4DX,,NN1 4DX,West Northamptonshire,AwaitingInspection,,FHRS,False,52.2416403,-0.8807164,"147 Wellingborough Road, Northampton, NN1 4DX, NN1 4DX"
2025-12-03,1873679,Opa Kitchen,Restaurant/Cafe/Canteen,7 Avon Way,Shoeburyness,Essex,,SS3 9DZ,Southend-On-Sea,4,2025-10-01,FHRS,False,51.5308075,0.7804836,"7 Avon Way, Shoeburyness, Essex, SS3 9DZ"
2025-12-03,1895992,Ferndown GC Hospitality,Restaurant/Cafe/Canteen,119 Golf Links Road,,Ferndown,,BH22 8BU,Dorset,AwaitingInspection,,FHRS,False,50.7959661,-1.8813659,"119 Golf Links Road, Ferndown, BH22 8BU"
2025-12-03,1895989,Grapes & Grinds,Restaurant/Cafe/Canteen,Manor Farm,,Tarrant Hinton,Dorset,DT11 8JX,Dorset,AwaitingInspection,,FHRS,False,,,"Manor Farm, Tarrant Hinton, Dorset, DT11 8JX"
2025-12-03,1895993,Lucy’s Old Street Cafe Ltd,Restaurant/Cafe/Canteen,Adjacent To 20 Old Street,Bailie Gate Industrial Estate,Sturminster Marshall,Dorset,BH21 4DB,Dorset,AwaitingInspection,,FHRS,False,,,"Adjacent To 20 Old Street, Bailie Gate Industrial Estate, Sturminster Marshall, Dorset, BH21 4DB"
2025-12-03,1895977,Seventh Wave Restaurant & Kiosk,Restaurant/Cafe/Canteen,Cafe Durlston Castle Lighthouse Road,,Swanage,Dorset,BH19 2JL,Dorset,5,2025-11-11,FHRS,False,50.5959854125977,-1.95712101459503,"Cafe Durlston Castle Lighthouse Road, Swanage, Dorset, BH19 2JL"
2025-12-03,1426105,The Lost Shoe,Restaurant/Cafe/Canteen,Knapp Farm Lovelands,,Corscombe,Dorset,DT2 0PA,Dorset,5,2025-11-24,FHRS,False,50.8485473,-2.6920433,"Knapp Farm Lovelands, Corscombe, Dorset, DT2 0PA"
2025-12-03,1895974,The National Trust Tea Rooms,Restaurant/Cafe/Canteen,The National Trust Corfe Castle Tea Rooms The Square,,Corfe Castle,Dorset,BH20 5EZ,Dorset,5,2025-11-26,FHRS,False,50.6383781433105,-2.05772805213928,"The National Trust Corfe Castle Tea Rooms The Square, Corfe Castle, Dorset, BH20 5EZ"
2025-12-03,1895988,The Tin Cat,Restaurant/Cafe/Canteen,19 St. Edmund Street,,Weymouth,,DT4 8AR,Dorset,5,2025-11-21,FHRS,False,50.6079804,-2.4546426,"19 St. Edmund Street, Weymouth, DT4 8AR"
2025-12-03,1895867,AMT Coffee,Restaurant/Cafe/Canteen,Bromley South Railway Station High Street,,Bromley,,BR1 1LX,Bromley,AwaitingInspection,,FHRS,False,,,"Bromley South Railway Station High Street, Bromley, BR1 1LX"
2025-12-03,1895860,CityEase Cafe,Restaurant/Cafe/Canteen,Community House South Street,,Bromley,,BR1 1RH,Bromley,AwaitingInspection,,FHRS,False,51.4066779,0.0171329,"Community House South Street, Bromley, BR1 1RH"
2025-12-03,1895866,MIAIVDELI,Restaurant/Cafe/Canteen,9 High Street,,West Wickham,,BR4 0LP,Bromley,AwaitingInspection,,FHRS,False,51.3756655,-0.0151944,"9 High Street, West Wickham, BR4 0LP"
2025-12-03,1895864,Nicks cafe,Restaurant/Cafe/Canteen,20 The Mall,,Bromley,,BR1 1TS,Bromley,AwaitingInspection,,FHRS,False,,,"20 The Mall, Bromley, BR1 1TS"
2025-12-03,1895857,Ola's,Restaurant/Cafe/Canteen,362A Crofton Road,,Orpington,,BR6 8NN,Bromley,AwaitingInspection,,FHRS,False,51.3672326,0.0546208,"362A Crofton Road, Orpington, BR6 8NN"
2025-12-03,1895915,Brewski Big Tray Bbq,Restaurant/Cafe/Canteen,G35-G36 Lowry Designer Outlet,The Quays,Salford,,M50 3AG,Salford,AwaitingInspection,,FHRS,False,,,"G35-G36 Lowry Designer Outlet, The Quays, Salford, M50 3AG"
2025-12-03,1659504,Inamo Sukoshi,Restaurant/Cafe/Canteen,Within Kargo The Lowry Centre,The Quays,Salford,,M50 3AZ,Salford,AwaitingInspection,,FHRS,False,53.4708767,-2.2966775,"Within Kargo The Lowry Centre, The Quays, Salford, M50 3AZ"
2025-12-03,1654877,Maba,Restaurant/Cafe/Canteen,Within Kargo The Lowry Centre,The Quays,Salford,,M50 3AZ,Salford,AwaitingInspection,,FHRS,False,53.4708767,-2.2966775,"Within Kargo The Lowry Centre, The Quays, Salford, M50 3AZ"
2025-12-03,1895913,Mamas Soul Food,Restaurant/Cafe/Canteen,Arch 2,Norton Street,Blackfriars,,M3 7NW,Salford,AwaitingInspection,,FHRS,False,,,"Arch 2, Norton Street, Blackfriars, M3 7NW"
2025-12-03,1895916,The Wine Bar,Restaurant/Cafe/Canteen,within Tangerine,13-17 New Bailey Street,Salford,,M3 5FS,Salford,AwaitingInspection,,FHRS,False,53.4831079,-2.2543108,"within Tangerine, 13-17 New Bailey Street, Salford, M3 5FS"
2025-12-03,1892986,Greggs,Restaurant/Cafe/Canteen,University Service Station,Cowley Bridge Road,Exeter,,EX4 5AD,Exeter City,AwaitingInspection,,FHRS,False,50.7386393,-3.5453299,"University Service Station, Cowley Bridge Road, Exeter, EX4 5AD"
2025-12-03,1896097,Cafe Vesuvio,Restaurant/Cafe/Canteen,,6 Ashbourne Road,Derby,,DE22 3AA,Derby City,AwaitingInspection,,FHRS,False,52.925439,-1.490569,"6 Ashbourne Road, Derby, DE22 3AA"
2025-12-03,1896091,Istanbul Shawarma Grill,Restaurant/Cafe/Canteen,,29 Pear Tree Road,Derby,,DE23 6PZ,Derby City,AwaitingInspection,,FHRS,True,52.9082313,-1.4785348,"29 Pear Tree Road, Derby, DE23 6PZ"
2025-12-03,1896100,Lahori Chaska /  Scoops Express,Restaurant/Cafe/Canteen,,328 Normanton Road,Derby,,DE23 6WE,Derby City,AwaitingInspection,,FHRS,False,52.909701,-1.478694,"328 Normanton Road, Derby, DE23 6WE"
2025-12-03,1896102,Luciana,Restaurant/Cafe/Canteen,17-19 Chapel Side,Chapel Street,Spondon,Derby,DE21 7JQ,Derby City,AwaitingInspection,,FHRS,False,52.9216605,-1.4047004,"17-19 Chapel Side, Chapel Street, Spondon, Derby, DE21 7JQ"
2025-12-03,1896105,Moonsha Japanese Restaurant,Restaurant/Cafe/Canteen,,4 Friary Street,Derby,,DE1 1JF,Derby City,AwaitingInspection,,FHRS,False,52.92213,-1.483975,"4 Friary Street, Derby, DE1 1JF"
2025-12-03,1896090,Quiet Corner,Restaurant/Cafe/Canteen,,7 Belgrave Street,Derby,,DE23 6ST,Derby City,AwaitingInspection,,FHRS,False,52.9131397,-1.4771395,"7 Belgrave Street, Derby, DE23 6ST"
2025-12-03,1895882,"Ahra - Ne Korean BBQ Restaurant Ltd,",Restaurant/Cafe/Canteen,396 Green Lanes,LONDON,,,N13 5PD,Enfield,5,2025-11-17,FHRS,False,51.621267,-0.105646,"396 Green Lanes, LONDON, N13 5PD"
2025-12-03,1895883,Fantozzi,Restaurant/Cafe/Canteen,102 Chase Side,LONDON,,,N14 5PH,Enfield,AwaitingInspection,,FHRS,False,51.633542,-0.130957,"102 Chase Side, LONDON, N14 5PH"
2025-12-03,1895880,Nine Iron Indoor Golf,Restaurant/Cafe/Canteen,Springtime Nursery,Cattlegate Road,ENFIELD,,EN2 9EE,Enfield,AwaitingInspection,,FHRS,False,51.682371,-0.101274,"Springtime Nursery, Cattlegate Road, ENFIELD, EN2 9EE"
2025-12-03,1895910,Bangkokmami,Restaurant/Cafe/Canteen,16 Skinner Street,Gillingham,Medway,,ME7 1HD,Medway,AwaitingInspection,,FHRS,False,51.38812872,0.54507415,"16 Skinner Street, Gillingham, Medway, ME7 1HD"
2025-12-03,285688,Playdium,Restaurant/Cafe/Canteen,Coopies Way,Morpeth,Northumberland,,NE61 6JT,Northumberland,AwaitingInspection,,FHRS,False,55.163205,-1.670827,"Coopies Way, Morpeth, Northumberland, NE61 6JT"
2025-12-03,1896048,The Back Kitchen,Restaurant/Cafe/Canteen,Market Place,Belford,Northumberland,,NE70 7ND,Northumberland,AwaitingInspection,,FHRS,False,55.59897,-1.828522,"Market Place, Belford, Northumberland, NE70 7ND"
2025-12-03,1896192,Spuddies,Restaurant/Cafe/Canteen,,48 Hamilton Street,Saltcoats,North Ayrshire,KA21 5DS,North Ayrshire,Awaiting Inspection,,FHIS,False,55.6348643,-4.7911235,"48 Hamilton Street, Saltcoats, North Ayrshire, KA21 5DS"
2025-12-03,271596,Delight Charcoal Grill/USA fried&peri chicken/Didcot grill,Restaurant/Cafe/Canteen,1 Market Place,,DIDCOT,Oxon,OX11 7LE,South Oxfordshire,4,2025-04-22,FHRS,False,51.606708,-1.241374,"1 Market Place, DIDCOT, Oxon, OX11 7LE"
2025-12-03,271666,The Perch & Pike,Restaurant/Cafe/Canteen,The Street,,South Stoke,READING,RG8 0JS,South Oxfordshire,AwaitingInspection,,FHRS,False,51.546598,-1.137012,"The Street, South Stoke, READING, RG8 0JS"
2025-12-03,1896144,American Pizza House,Restaurant/Cafe/Canteen,,503a Gleadless Road,Sheffield,,S2 2BS,Sheffield,AwaitingInspection,,FHRS,False,53.3561066,-1.4496429,"503a Gleadless Road, Sheffield, S2 2BS"
2025-12-03,437130,Raydan Restaurant Wicker,Restaurant/Cafe/Canteen,,25 Wicker,Sheffield,,S3 8HS,Sheffield,AwaitingInspection,,FHRS,False,53.3866285,-1.4634027,"25 Wicker, Sheffield, S3 8HS"
2025-12-03,1896135,Rolled,Restaurant/Cafe/Canteen,KL12a Meadowhall Centre,,Sheffield,,S9 1EP,Sheffield,AwaitingInspection,,FHRS,False,,,"KL12a Meadowhall Centre, Sheffield, S9 1EP"
2025-12-03,435599,St Alban's Church,Restaurant/Cafe/Canteen,St Albans Parish Church,Chapelwood Road,Sheffield,,S9 3BE,Sheffield,AwaitingInspection,,FHRS,False,53.388037,-1.422413,"St Albans Parish Church, Chapelwood Road, Sheffield, S9 3BE"
2025-12-03,1896141,The Steelyard Coffee House & Kitchen,Restaurant/Cafe/Canteen,The Yard,Bardwell Road,Sheffield,,S3 8AS,Sheffield,AwaitingInspection,,FHRS,False,53.3950917,-1.4787409,"The Yard, Bardwell Road, Sheffield, S3 8AS"
2025-12-03,1896152,Tom Dip Cafe,Restaurant/Cafe/Canteen,,286 Coleridge Road,Sheffield,,S9 5DA,Sheffield,AwaitingInspection,,FHRS,False,53.396963,-1.4201204,"286 Coleridge Road, Sheffield, S9 5DA"
2025-12-03,436075,United Reformed Church,Restaurant/Cafe/Canteen,Church,Valentine Crescent,Sheffield,,S5 0NX,Sheffield,AwaitingInspection,,FHRS,False,53.426385,-1.453317,"Church, Valentine Crescent, Sheffield, S5 0NX"
2025-12-03,1895895,Axe Imperium,Restaurant/Cafe/Canteen,Empress Mills,Empress Street,Colne,Lancashire,BB8 9HU,Pendle,AwaitingInspection,,FHRS,False,53.8582763671875,-2.16699194908142,"Empress Mills, Empress Street, Colne, Lancashire, BB8 9HU"
2025-12-03,1895896,Gluten Free Pasta House,Restaurant/Cafe/Canteen,,,,,,Pendle,AwaitingInspection,,FHRS,False,,,
2025-12-03,1895894,Minhaj Welfare Foundation,Restaurant/Cafe/Canteen,Hodge House Community Centre,Regent Street,Nelson,Lancashire,BB9 8LJ,Pendle,AwaitingInspection,,FHRS,False,53.8441314697266,-2.2067699432373,"Hodge House Community Centre, Regent Street, Nelson, Lancashire, BB9 8LJ"
2025-12-03,1896034,Bubble Teana,Restaurant/Cafe/Canteen,,19 Duke Street,Aberdare,,CF44 7ED,Rhondda Cynon Taf,AwaitingInspection,,FHRS,False,51.7137711,-3.4426483,"19 Duke Street, Aberdare, CF44 7ED"
2025-12-03,1896038,Hope Christian Community,Restaurant/Cafe/Canteen,,Llantrisant Road,Graig,Pontypridd,CF37 1LL,Rhondda Cynon Taf,AwaitingInspection,,FHRS,False,,,"Llantrisant Road, Graig, Pontypridd, CF37 1LL"
2025-12-03,686976,Perthcelyn Community Centre,Restaurant/Cafe/Canteen,,Glamorgan Street,Perthcelyn,Mountain Ash,CF45 3RJ,Rhondda Cynon Taf,AwaitingInspection,,FHRS,False,51.666757,-3.366744,"Glamorgan Street, Perthcelyn, Mountain Ash, CF45 3RJ"
2025-12-03,1895877,Blossom & Palm Sugar,Restaurant/Cafe/Canteen,166 High Street,Winchester,Hampshire,,SO23 9BA,Winchester City,AwaitingInspection,,FHRS,False,51.061758,-1.310188,"166 High Street, Winchester, Hampshire, SO23 9BA"
2025-12-03,1896060,AFRICANA FOOD AND DRINKS BOUTIQUE,Restaurant/Cafe/Canteen,157 Wolverhampton Street,Dudley,,,DY1 3AH,Dudley,AwaitingInspection,,FHRS,False,52.5113803,-2.0905244,"157 Wolverhampton Street, Dudley, DY1 3AH"
2025-12-03,1896068,Carnival Golf and Games,Restaurant/Cafe/Canteen,Unit U4A,Merry Hill Centre,Brierley Hill,,DY5 1QU,Dudley,AwaitingInspection,,FHRS,False,,,"Unit U4A, Merry Hill Centre, Brierley Hill, DY5 1QU"
2025-12-03,1896073,Chilly kiddys ltd,Restaurant/Cafe/Canteen,Chilly Kiddy's,Block E4,Mill Race Lane,Stourbridge,DY8 1JN,Dudley,AwaitingInspection,,FHRS,False,52.4601849,-2.1452584,"Chilly Kiddy's, Block E4, Mill Race Lane, Stourbridge, DY8 1JN"
2025-12-03,1896075,RAK'S COFFEE,Restaurant/Cafe/Canteen,104 High Street,Brierley Hill,,,DY5 3AP,Dudley,AwaitingInspection,,FHRS,False,52.4817037,-2.1209573,"104 High Street, Brierley Hill, DY5 3AP"
2025-12-03,1896079,The Elton Cafe,Restaurant/Cafe/Canteen,(Age Concern Stourbridge),The Elton Centre,St Johns Road,Stourbridge,DY8 1HA,Dudley,AwaitingInspection,,FHRS,False,52.4551775,-2.1419724,"(Age Concern Stourbridge), The Elton Centre, St Johns Road, Stourbridge, DY8 1HA"
2025-12-03,1896119,De King Catering,Restaurant/Cafe/Canteen,,,,,,Havering,AwaitingInspection,,FHRS,False,,,
2025-12-03,1896116,Heal Era,Restaurant/Cafe/Canteen,,,,,,Havering,AwaitingInspection,,FHRS,False,,,
2025-12-03,1896126,Imperial Chef,Restaurant/Cafe/Canteen,128 North Street,Romford,,,RM1 1DL,Havering,AwaitingInspection,,FHRS,False,51.581748,0.177205,"128 North Street, Romford, RM1 1DL"
2025-12-03,1896117,My Healthy Boutique Pastries,Restaurant/Cafe/Canteen,,,,,,Havering,AwaitingInspection,,FHRS,False,,,
2025-12-03,1896123,Taylors Treats,Restaurant/Cafe/Canteen,,,,,,Havering,AwaitingInspection,,FHRS,False,,,
2025-12-03,1896129,The Creta Corner,Restaurant/Cafe/Canteen,62 Collier Row Road,Romford,,,RM5 3PA,Havering,AwaitingInspection,,FHRS,False,51.599026,0.160978,"62 Collier Row Road, Romford, RM5 3PA"
2025-12-03,1895956,Mermaid Lounge LTD,Restaurant/Cafe/Canteen,Horam House 3 High Street,,Horam,East Sussex,TN21 0EJ,Wealden,AwaitingInspection,,FHRS,False,,,"Horam House 3 High Street, Horam, East Sussex, TN21 0EJ"
2025-12-03,1896034,Bubble Teana,Restaurant/Cafe/Canteen,,19 Duke Street,Aberdare,,CF44 7ED,Rhondda Cynon Taf,AwaitingInspection,,FHRS,False,51.7137711,-3.4426483,"19 Duke Street, Aberdare, CF44 7ED"
2025-12-03,1896038,Hope Christian Community,Restaurant/Cafe/Canteen,,Llantrisant Road,Graig,Pontypridd,CF37 1LL,Rhondda Cynon Taf,AwaitingInspection,,FHRS,False,,,"Llantrisant Road, Graig, Pontypridd, CF37 1LL"
2025-12-03,686976,Perthcelyn Community Centre,Restaurant/Cafe/Canteen,,Glamorgan Street,Perthcelyn,Mountain Ash,CF45 3RJ,Rhondda Cynon Taf,AwaitingInspection,,FHRS,False,51.666757,-3.366744,"Glamorgan Street, Perthcelyn, Mountain Ash, CF45 3RJ"
2025-12-04,1896323,Arthurs Restaurant & Bar/Jesses Bar,Restaurant/Cafe/Canteen,Trefeglwys,Caersws,Newtown,Powys,SY17 5QZ,Powys,AwaitingInspection,,FHRS,False,,,"Trefeglwys, Caersws, Newtown, Powys, SY17 5QZ"
2025-12-04,702002,Cofion Cynnes,Restaurant/Cafe/Canteen,6 Station Road,Ystradgynlais,Swansea,,SA9 1NT,Powys,AwaitingInspection,,FHRS,False,51.777054,-3.757945,"6 Station Road, Ystradgynlais, Swansea, SA9 1NT"
2025-12-04,701969,Coliseum Cinema,Restaurant/Cafe/Canteen,Wheat Street,Brecon,Powys,,LD3 7DG,Powys,AwaitingInspection,,FHRS,False,51.947259,-3.39199,"Wheat Street, Brecon, Powys, LD3 7DG"
2025-12-04,702189,Kerry Bowling Club,Restaurant/Cafe/Canteen,Common Road,Kerry,Newtown,Powys,SY16 4NA,Powys,AwaitingInspection,,FHRS,False,,,"Common Road, Kerry, Newtown, Powys, SY16 4NA"
2025-12-04,1896285,The Overdraft,Restaurant/Cafe/Canteen,28 Knight Street,Sawbridgeworth,Hertfordshire,,CM21 9AT,East Hertfordshire,AwaitingInspection,,FHRS,False,51.8132097,0.1511849,"28 Knight Street, Sawbridgeworth, Hertfordshire, CM21 9AT"
2025-12-04,1896333,Cafe Moka,Restaurant/Cafe/Canteen,Stevenage Indoor Market,Stall 5 - Cafe Moka,Boston House,Park Place,SG1 1AY,Stevenage,AwaitingInspection,,FHRS,False,51.9028548,-0.2002588,"Stevenage Indoor Market, Stall 5 - Cafe Moka, Boston House, Park Place, SG1 1AY"
2025-12-04,1370078,Ashton Food Pantry,Restaurant/Cafe/Canteen,Warrington Road,Ashton-In-Makerfield,,,WN4 9PL,Wigan,5,2021-06-10,FHRS,False,53.4856300354004,-2.63953709602356,"Warrington Road, Ashton-In-Makerfield, WN4 9PL"
2025-12-04,1896241,Costa Coffee ( In Sainsbury's ),Restaurant/Cafe/Canteen,Sainsbury’s,Parsonage Retail Park,Parsonage Way,Leigh,WN7 5SJ,Wigan,AwaitingInspection,,FHRS,False,53.4994183,-2.5278012,"Sainsbury’s, Parsonage Retail Park, Parsonage Way, Leigh, WN7 5SJ"
2025-12-04,1896224,Dujour,Restaurant/Cafe/Canteen,26 Leigh Road,Leigh,,,WN7 1RX,Wigan,AwaitingInspection,,FHRS,False,53.5009134,-2.518467,"26 Leigh Road, Leigh, WN7 1RX"
2025-12-04,1896246,Feral Outdoor,Restaurant/Cafe/Canteen,,,,,,Wigan,AwaitingInspection,,FHRS,False,,,
2025-12-04,1896235,Graze By Nicola,Restaurant/Cafe/Canteen,,,,,,Wigan,AwaitingInspection,,FHRS,False,,,
2025-12-04,1896238,Kelly's Creations,Restaurant/Cafe/Canteen,,,,,,Wigan,AwaitingInspection,,FHRS,False,,,
2025-12-04,1896234,Lam Flavour,Restaurant/Cafe/Canteen,,,,,,Wigan,5,2025-11-17,FHRS,False,,,
2025-12-04,1048077,Lickle Pickle,Restaurant/Cafe/Canteen,259a Orrell Road,Orrell,Wigan,,WN5 8NB,Wigan,AwaitingInspection,,FHRS,False,53.539672,-2.703366,"259a Orrell Road, Orrell, Wigan, WN5 8NB"
2025-12-04,1896226,Rogan Rascals,Restaurant/Cafe/Canteen,,,,,,Wigan,AwaitingInspection,,FHRS,False,,,
2025-12-04,1896227,Tasty Tupper Ltd,Restaurant/Cafe/Canteen,,,,,,Wigan,AwaitingInspection,,FHRS,False,,,
2025-12-04,1896236,The Magnet Collective,Restaurant/Cafe/Canteen,,,,,,Wigan,AwaitingInspection,,FHRS,False,,,
2025-12-04,1896242,Uptown Diner,Restaurant/Cafe/Canteen,36a The Grand Arcade,Wigan,,,WN1 1BH,Wigan,5,2025-11-22,FHRS,False,53.5462241,-2.6288137,"36a The Grand Arcade, Wigan, WN1 1BH"
2025-12-04,1896294,Coach house coffee lodge ltd,Restaurant/Cafe/Canteen,Waterways Holt Road,Llan Y Pwll,Wrexham,,LL13 8NE,Wrecsam,5,2025-12-01,FHRS,False,53.0608273,-2.9328244,"Waterways Holt Road, Llan Y Pwll, Wrexham, LL13 8NE"
2025-12-04,1040199,Gwersyllt Congregational Church,Restaurant/Cafe/Canteen,Gwersyllt Congregational Church Dodds Lane,Gwersyllt,Wrexham,,LL11 4NT,Wrecsam,5,2025-11-26,FHRS,False,,,"Gwersyllt Congregational Church Dodds Lane, Gwersyllt, Wrexham, LL11 4NT"
2025-12-04,1863085,Bengal Spice,Restaurant/Cafe/Canteen,Bengal Spice 11 Stryd Y Plas,,Caernarfon,Gwynedd,LL55 1RR,Gwynedd,AwaitingInspection,,FHRS,True,53.140251159668,-4.27610778808594,"Bengal Spice 11 Stryd Y Plas, Caernarfon, Gwynedd, LL55 1RR"
2025-12-04,1896205,Kent Spud Stop,Restaurant/Cafe/Canteen,,,,,,Ashford,AwaitingInspection,,FHRS,False,,,
2025-12-04,1896208,Nelly’s Dessert Club,Restaurant/Cafe/Canteen,The Albert Inn 50 Walsworth Road,,Hitchin,Hertfordshire,SG4 9SU,North Hertfordshire,AwaitingInspection,,FHRS,False,51.951689,-0.268328,"The Albert Inn 50 Walsworth Road, Hitchin, Hertfordshire, SG4 9SU"
2025-12-04,1896330,Touché,Restaurant/Cafe/Canteen,135A Croydon Road,,Beckenham,,BR3 3RB,Bromley,AwaitingInspection,,FHRS,False,51.3988083,-0.0416954,"135A Croydon Road, Beckenham, BR3 3RB"
2025-12-04,1896353,Batcombe Village Hall Trust,Restaurant/Cafe/Canteen,Batcombe Village Hall,Back Lane,Batcombe,Shepton Mallet,BA4 6AZ,Somerset,AwaitingInspection,,FHRS,False,51.1498007,-2.4452972,"Batcombe Village Hall, Back Lane, Batcombe, Shepton Mallet, BA4 6AZ"
2025-12-04,1896425,BUN AND STEAK,Restaurant/Cafe/Canteen,13 Earlsdon Street,,,Coventry,CV5 6EP,Coventry,AwaitingInspection,,FHRS,False,52.3991393,-1.531561,"13 Earlsdon Street, Coventry, CV5 6EP"
2025-12-04,1896426,La Batrinu,Restaurant/Cafe/Canteen,49 Corporation Street,,,Coventry,CV1 1GX,Coventry,AwaitingInspection,,FHRS,False,52.4092034,-1.5146963,"49 Corporation Street, Coventry, CV1 1GX"
2025-12-04,1896428,Shop&stop,Restaurant/Cafe/Canteen,Trinity's Trinity Street,,,Coventry,CV1 1FL,Coventry,AwaitingInspection,,FHRS,False,,,"Trinity's Trinity Street, Coventry, CV1 1FL"
2025-12-04,1896422,The Phat Bear,Restaurant/Cafe/Canteen,87-89 Radford Road,,,Coventry,CV6 3BP,Coventry,AwaitingInspection,,FHRS,False,52.4193535,-1.5191582,"87-89 Radford Road, Coventry, CV6 3BP"
2025-12-04,1896283,Spice Cafe & Bar,Restaurant/Cafe/Canteen,33 Chatsworth Road,,Worthing,West Sussex,BN11 1LY,Worthing,AwaitingInspection,,FHRS,False,50.8131028,-0.3686858,"33 Chatsworth Road, Worthing, West Sussex, BN11 1LY"
2025-12-04,1896222,Mitie Catering Department B&Q DC Blyth,Restaurant/Cafe/Canteen,Symmetry Park,Symmetry Way,Blyth,Nottinghamshire,,Bassetlaw,AwaitingInspection,,FHRS,False,53.3922166,-1.0678751,"Symmetry Park, Symmetry Way, Blyth, Nottinghamshire"
2025-12-04,627230,Masala,Restaurant/Cafe/Canteen,23 Rowner Road,Gosport,,,PO13 9UE,Gosport,AwaitingInspection,,FHRS,False,50.812533,-1.172066,"23 Rowner Road, Gosport, PO13 9UE"
2025-12-04,773413,Your Space,Restaurant/Cafe/Canteen,51 - 52 High Street,Gosport,,,PO12 1DF,Gosport,AwaitingInspection,,FHRS,False,50.795479,-1.121103,"51 - 52 High Street, Gosport, PO12 1DF"
2025-12-04,1896412,Treat Street,Restaurant/Cafe/Canteen,Shop 4 Imperial Buildings,High Street,Rotherham Town Centre,Rotherham,S60 1PA,Rotherham,AwaitingInspection,,FHRS,False,53.4302571,-1.3571475,"Shop 4 Imperial Buildings, High Street, Rotherham Town Centre, Rotherham, S60 1PA"
2025-12-04,1033969,Browns Cafe,Restaurant/Cafe/Canteen,4 The Crescent,Southall,,,UB1 1BE,Ealing,0,2025-11-20,FHRS,False,51.506376,-0.379126,"4 The Crescent, Southall, UB1 1BE"
2025-12-04,1846469,Hotel Chocolat,Restaurant/Cafe/Canteen,Unit 14,Ealing Broadway Centre,The Broadway,Ealing,W5 5JY,Ealing,AwaitingInspection,,FHRS,False,51.5119205,-0.3037545,"Unit 14, Ealing Broadway Centre, The Broadway, Ealing, W5 5JY"
2025-12-04,1719998,Sultan Juice & More,Restaurant/Cafe/Canteen,9 The Broadway,Southall,,,UB1 1JR,Ealing,0,2025-11-12,FHRS,False,51.5111932,-0.3762847,"9 The Broadway, Southall, UB1 1JR"
2025-12-04,1032831,Travelodge,Restaurant/Cafe/Canteen,Travelodge,North Circular Road,Park Royal,Ealing,NW10 7UG,Ealing,0,2025-11-20,FHRS,False,,,"Travelodge, North Circular Road, Park Royal, Ealing, NW10 7UG"
2025-12-04,1896311,Berries,Restaurant/Cafe/Canteen,,373a Leeds Road,Bradford,,BD3 9BP,Bradford,AwaitingInspection,,FHRS,False,53.7925174,-1.732817,"373a Leeds Road, Bradford, BD3 9BP"
2025-12-04,325456,Forde Ilkley,Restaurant/Cafe/Canteen,4 The Moors Shopping Centre,South Hawksworth Street,Ilkley,,LS29 9LB,Bradford,AwaitingInspection,,FHRS,False,53.925604,-1.825634,"4 The Moors Shopping Centre, South Hawksworth Street, Ilkley, LS29 9LB"
2025-12-04,110917,Latte Lounge,Restaurant/Cafe/Canteen,42 Promenade,Bridlington,East Riding Of Yorkshire,,YO15 2QD,East Riding of Yorkshire,AwaitingInspection,,FHRS,False,54.0835,-0.187894,"42 Promenade, Bridlington, East Riding Of Yorkshire, YO15 2QD"
2025-12-04,1896385,Regal Later Living,Restaurant/Cafe/Canteen,Management Office Pearl House Oddfellows Road,,Newbury,West Berkshire,RG14 5DQ,West Berkshire,AwaitingInspection,,FHRS,False,51.4003969,-1.3252442,"Management Office Pearl House Oddfellows Road, Newbury, West Berkshire, RG14 5DQ"
2025-12-04,1896454,Fishmore Hall Hotel & Spa,Restaurant/Cafe/Canteen,Fishmore Hall Hotel,,Ludlow,Shropshire,SY8 3DP,Shropshire,AwaitingInspection,,FHRS,False,,,"Fishmore Hall Hotel, Ludlow, Shropshire, SY8 3DP"
2025-12-04,1896453,Severn Centre,Restaurant/Cafe/Canteen,Severn Centre Bridgnorth Road,,Highley,Shropshire,WV16 6JG,Shropshire,AwaitingInspection,,FHRS,False,52.4518557,-2.3856116,"Severn Centre Bridgnorth Road, Highley, Shropshire, WV16 6JG"
2025-12-04,1896446,The Cottage Cafe,Restaurant/Cafe/Canteen,2 Attorneys Walk Bull Ring,,Ludlow,Shropshire,SY8 1AA,Shropshire,AwaitingInspection,,FHRS,False,52.3685423,-2.7171256,"2 Attorneys Walk Bull Ring, Ludlow, Shropshire, SY8 1AA"
2025-12-04,1896223,Aroma Lounge,Restaurant/Cafe/Canteen,33-34 Salisbury Square,Hatfield,Hertfordshire,,AL9 5AF,Welwyn Hatfield,AwaitingInspection,,FHRS,False,51.762845,-0.215019,"33-34 Salisbury Square, Hatfield, Hertfordshire, AL9 5AF"
2025-12-04,1749072,22nd Coffee,Restaurant/Cafe/Canteen,38 Royal Crest Avenue,Silvertown,London,,E16 2TF,Newham,5,2024-08-01,FHRS,False,51.4995902,0.0272549,"38 Royal Crest Avenue, Silvertown, London, E16 2TF"
2025-12-04,1513152,Benugo - Main Kitchen,Restaurant/Cafe/Canteen,ABBA Arena,1 Pudding Mill Lane,Stratford,London,E15 2RU,Newham,5,2024-10-18,FHRS,False,51.5331879,-0.0132889,"ABBA Arena, 1 Pudding Mill Lane, Stratford, London, E15 2RU"
2025-12-04,919434,Carpenters Cafe,Restaurant/Cafe/Canteen,17 Doran Walk,Stratford,London,,E15 2JL,Newham,4,2025-09-16,FHRS,False,51.53791,-0.004996,"17 Doran Walk, Stratford, London, E15 2JL"
2025-12-04,1797822,Community Cafe & Food Share School 360 Primary School,Restaurant/Cafe/Canteen,5 Sugar House Lane,Stratford,London,,E15 2QS,Newham,5,2025-01-30,FHRS,False,51.5313396,-0.0088967,"5 Sugar House Lane, Stratford, London, E15 2QS"
2025-12-04,1770013,Laziza Biryani,Restaurant/Cafe/Canteen,179 High Street North,East Ham,London,,E6 1JB,Newham,4,2024-10-08,FHRS,False,51.538094,0.05112,"179 High Street North, East Ham, London, E6 1JB"
2025-12-04,1896435,Nanna Biryani Express,Restaurant/Cafe/Canteen,759 Romford Road,Manor Park,London,,E12 5AW,Newham,AwaitingInspection,,FHRS,False,51.5517856,0.049857,"759 Romford Road, Manor Park, London, E12 5AW"
2025-12-04,1896437,Pzaza,Restaurant/Cafe/Canteen,Basement And Ground Floor,Essex House,375 - 377 High Street,Stratford,E15 4QZ,Newham,AwaitingInspection,,FHRS,False,51.5388585,-0.0003727,"Basement And Ground Floor, Essex House, 375 - 377 High Street, Stratford, E15 4QZ"
2025-12-04,1806320,Sodexo Canteen At TFL Lugg Approach,Restaurant/Cafe/Canteen,TFL Aldersbrook Sidings,Lugg Approach,Manor Park,London,E12 5LN,Newham,5,2025-03-25,FHRS,False,,,"TFL Aldersbrook Sidings, Lugg Approach, Manor Park, London, E12 5LN"
2025-12-04,1896439,Yakiniku Like,Restaurant/Cafe/Canteen,119 The Street,Westfield Stratford City,Montfichet Road,Stratford,E20 1EN,Newham,AwaitingInspection,,FHRS,False,,,"119 The Street, Westfield Stratford City, Montfichet Road, Stratford, E20 1EN"
2025-12-04,1896316,Mollys cakes and bakes,Restaurant/Cafe/Canteen,,,,,,Telford and Wrekin Council,AwaitingInspection,,FHRS,False,,,
2025-12-04,1896317,The Agency,Restaurant/Cafe/Canteen,34 High Street,Ironbridge,Telford,Shropshire,TF8 7AG,Telford and Wrekin Council,AwaitingInspection,,FHRS,False,52.6276322,-2.4846041,"34 High Street, Ironbridge, Telford, Shropshire, TF8 7AG"
2025-12-04,1896315,The Welldeck at Wappenshall,Restaurant/Cafe/Canteen,Wappenshall Wharf Wappenshall Road,Wappenshall,Telford,Shropshire,TF6 6DE,Telford and Wrekin Council,AwaitingInspection,,FHRS,False,,,"Wappenshall Wharf Wappenshall Road, Wappenshall, Telford, Shropshire, TF6 6DE"
2025-12-04,61316,Shanky's Restaurant Bar and Lounge,Restaurant/Cafe/Canteen,,476-478 Oldham Road,Failsworth,Oldham,M35 0FH,Oldham,AwaitingInspection,,FHRS,False,53.510826,-2.157296,"476-478 Oldham Road, Failsworth, Oldham, M35 0FH"
2025-12-04,1896323,Arthurs Restaurant & Bar/Jesses Bar,Restaurant/Cafe/Canteen,Trefeglwys,Caersws,Newtown,Powys,SY17 5QZ,Powys,AwaitingInspection,,FHRS,False,,,"Trefeglwys, Caersws, Newtown, Powys, SY17 5QZ"
2025-12-04,702002,Cofion Cynnes,Restaurant/Cafe/Canteen,6 Station Road,Ystradgynlais,Swansea,,SA9 1NT,Powys,AwaitingInspection,,FHRS,False,51.777054,-3.757945,"6 Station Road, Ystradgynlais, Swansea, SA9 1NT"
2025-12-04,701969,Coliseum Cinema,Restaurant/Cafe/Canteen,Wheat Street,Brecon,Powys,,LD3 7DG,Powys,AwaitingInspection,,FHRS,False,51.947259,-3.39199,"Wheat Street, Brecon, Powys, LD3 7DG"
2025-12-04,702189,Kerry Bowling Club,Restaurant/Cafe/Canteen,Common Road,Kerry,Newtown,Powys,SY16 4NA,Powys,AwaitingInspection,,FHRS,False,,,"Common Road, Kerry, Newtown, Powys, SY16 4NA"
2025-12-04,1896276,Moto Pizza Restaurant Martines,Restaurant/Cafe/Canteen,3 Market Place,Hinckley,Leicestershire,,LE10 1NT,Hinckley and Bosworth,AwaitingInspection,,FHRS,False,52.540856,-1.37324,"3 Market Place, Hinckley, Leicestershire, LE10 1NT"
2025-12-04,1896294,Coach house coffee lodge ltd,Restaurant/Cafe/Canteen,Waterways Holt Road,Llan Y Pwll,Wrexham,,LL13 8NE,Wrexham,5,2025-12-01,FHRS,False,53.0608273,-2.9328244,"Waterways Holt Road, Llan Y Pwll, Wrexham, LL13 8NE"
2025-12-04,1040199,Gwersyllt Congregational Church,Restaurant/Cafe/Canteen,Gwersyllt Congregational Church Dodds Lane,Gwersyllt,Wrexham,,LL11 4NT,Wrexham,5,2025-11-26,FHRS,False,,,"Gwersyllt Congregational Church Dodds Lane, Gwersyllt, Wrexham, LL11 4NT"
2025-12-04,1863085,Bengal Spice,Restaurant/Cafe/Canteen,Bengal Spice 11 Stryd Y Plas,,Caernarfon,Gwynedd,LL55 1RR,Gwynedd,AwaitingInspection,,FHRS,True,53.140251159668,-4.27610778808594,"Bengal Spice 11 Stryd Y Plas, Caernarfon, Gwynedd, LL55 1RR"
2025-12-04,1896213,Mouchak Street,Restaurant/Cafe/Canteen,257 Lyndon Road,Solihull,,,B92 7QP,Solihull,AwaitingInspection,,FHRS,False,52.4491521,-1.7945303,"257 Lyndon Road, Solihull, B92 7QP"
2025-12-04,1896263,Bello Italia,Restaurant/Cafe/Canteen,18 Broadway,,Higher Bebington,Wirral,CH63 5NH,Wirral,AwaitingInspection,,FHRS,True,53.3616393,-3.0273737,"18 Broadway, Higher Bebington, Wirral, CH63 5NH"
2025-12-04,1896255,Bromborough Boutique,Restaurant/Cafe/Canteen,132 Allport Road,,Bromborough,Wirral,CH62 6BB,Wirral,5,2025-11-20,FHRS,False,53.3225347,-2.9837702,"132 Allport Road, Bromborough, Wirral, CH62 6BB"
2025-12-04,1896265,Casa Forno,Restaurant/Cafe/Canteen,105 Wallasey Road,,Liscard,Wirral,CH44 2AA,Wirral,AwaitingInspection,,FHRS,True,53.4194364,-3.0497415,"105 Wallasey Road, Liscard, Wirral, CH44 2AA"
2025-12-04,1896268,cottage loaf,Restaurant/Cafe/Canteen,Cottage Loaf Telegraph Road,,Thurstaston,Wirral,CH61 0HJ,Wirral,AwaitingInspection,,FHRS,True,53.3512369,-3.1307155,"Cottage Loaf Telegraph Road, Thurstaston, Wirral, CH61 0HJ"
2025-12-04,1896258,Crispy Catch,Restaurant/Cafe/Canteen,30 The Pyramids,,Birkenhead,Wirral,CH41 2ZL,Wirral,5,2025-11-27,FHRS,False,53.3895009,-3.0266977,"30 The Pyramids, Birkenhead, Wirral, CH41 2ZL"
2025-12-04,1896251,Dempsey’s,Restaurant/Cafe/Canteen,2 West Kirby Court 72 Banks Road,,West Kirby,Wirral,CH48 0RE,Wirral,5,2025-11-29,FHRS,False,53.3708442,-3.184412,"2 West Kirby Court 72 Banks Road, West Kirby, Wirral, CH48 0RE"
2025-12-04,1896261,figos grill,Restaurant/Cafe/Canteen,64 - 66 Grange Road,,West Kirby,Wirral,CH48 4EG,Wirral,AwaitingInspection,,FHRS,True,53.3729244,-3.1816211,"64 - 66 Grange Road, West Kirby, Wirral, CH48 4EG"
2025-12-04,1896252,GurkhaFlame,Restaurant/Cafe/Canteen,106 Teehey Lane,,Higher Bebington,Wirral,CH63 8QT,Wirral,AwaitingInspection,,FHRS,True,53.3550898,-3.024254,"106 Teehey Lane, Higher Bebington, Wirral, CH63 8QT"
2025-12-04,1896267,I-byte,Restaurant/Cafe/Canteen,308A Hoylake Road,,Moreton,Wirral,CH46 6DE,Wirral,5,2025-11-29,FHRS,False,53.3993676,-3.1165041,"308A Hoylake Road, Moreton, Wirral, CH46 6DE"
2025-12-04,1896264,Mavi Mediterranean bbq,Restaurant/Cafe/Canteen,68 Pensby Road,,Heswall,Wirral,CH60 7RE,Wirral,5,2025-11-29,FHRS,False,53.3300796,-3.0976462,"68 Pensby Road, Heswall, Wirral, CH60 7RE"
2025-12-04,1896260,Norma's tearoom,Restaurant/Cafe/Canteen,172 Banks Road,,West Kirby,Wirral,CH48 0RH,Wirral,AwaitingInspection,,FHRS,True,53.3675881,-3.1826909,"172 Banks Road, West Kirby, Wirral, CH48 0RH"
2025-12-04,1756151,Our Space,Restaurant/Cafe/Canteen,Callister Youth Club 19 Argyle Street,,Birkenhead,Wirral,CH41 1AD,Wirral,5,2025-11-20,FHRS,False,53.3949048,-3.0159061,"Callister Youth Club 19 Argyle Street, Birkenhead, Wirral, CH41 1AD"
2025-12-04,1896250,Taste of Athens,Restaurant/Cafe/Canteen,Lucky Star Fish And Chip Shop 172 Bedford Road,,Rock Ferry,Wirral,CH42 2AS,Wirral,AwaitingInspection,,FHRS,True,53.3725122,-3.009423,"Lucky Star Fish And Chip Shop 172 Bedford Road, Rock Ferry, Wirral, CH42 2AS"
2025-12-04,1896254,The Coffee House,Restaurant/Cafe/Canteen,8 Cherry Tree Shopping Centre Greenfield Way,,Liscard,Wirral,CH44 5XX,Wirral,5,2025-11-25,FHRS,False,,,"8 Cherry Tree Shopping Centre Greenfield Way, Liscard, Wirral, CH44 5XX"
2025-12-04,1896256,TSR Dessert Bar,Restaurant/Cafe/Canteen,Snowdon House 160 - 162 Bedford Road,,Rock Ferry,Wirral,CH42 2AS,Wirral,AwaitingInspection,,FHRS,True,53.3726269,-3.0089464,"Snowdon House 160 - 162 Bedford Road, Rock Ferry, Wirral, CH42 2AS"
2025-12-04,1896262,Woodchurch connect,Restaurant/Cafe/Canteen,Woodchurch Methodist Church Pemberton Road,,Woodchurch,Wirral,CH49 8JL,Wirral,5,2025-11-25,FHRS,False,,,"Woodchurch Methodist Church Pemberton Road, Woodchurch, Wirral, CH49 8JL"
2025-12-04,1896377,Liva Restaurant,Restaurant/Cafe/Canteen,6 - 8 Shaw Road,Heaton Moor,Stockport,,SK4 4AE,Stockport,5,2025-12-03,FHRS,False,53.4232292,-2.1845676,"6 - 8 Shaw Road, Heaton Moor, Stockport, SK4 4AE"
2025-12-04,1896371,Nostimo Greek Restaurant,Restaurant/Cafe/Canteen,89 High Street,Cheadle,,,SK8 1AA,Stockport,AwaitingInspection,,FHRS,False,53.3938539,-2.2170882,"89 High Street, Cheadle, SK8 1AA"
2025-12-04,1292942,Bakers And Baristas - Bristol Cribbs,Restaurant/Cafe/Canteen,71 The Mall Lower Level,Cribbs Causeway Regional Shopping Centre,Patchway,South Gloucestershire,BS34 5GG,South Gloucestershire,AwaitingInspection,,FHRS,True,,,"71 The Mall Lower Level, Cribbs Causeway Regional Shopping Centre, Patchway, South Gloucestershire, BS34 5GG"
2025-12-04,1858176,Caribbean Kitchen,Restaurant/Cafe/Canteen,Tern Inn,1 Heron Way,Chipping Sodbury,South Gloucestershire,BS37 6XW,South Gloucestershire,5,2025-11-21,FHRS,False,51.5318134,-2.403587,"Tern Inn, 1 Heron Way, Chipping Sodbury, South Gloucestershire, BS37 6XW"
2025-12-04,1242620,Yo!,Restaurant/Cafe/Canteen,The Avenue,The Mall,Cribbs Causeway Regional Shopping Centre,Patchway,BS34 5DG,South Gloucestershire,AwaitingInspection,,FHRS,True,51.5251574,-2.5953589,"The Avenue, The Mall, Cribbs Causeway Regional Shopping Centre, Patchway, BS34 5DG"
2025-12-04,1896247,Harbour Health,Restaurant/Cafe/Canteen,,4 Seagate,Harbour House,Peterhead,AB42 1JP,Aberdeenshire,Awaiting Inspection,2025-11-27,FHIS,False,57.5054231,-1.7740849,"4 Seagate, Harbour House, Peterhead, AB42 1JP"
2025-12-04,1896248,Yakah,Restaurant/Cafe/Canteen,,Cammies,Cammachmore,Newtonhill,AB39 3NR,Aberdeenshire,Awaiting Inspection,2025-12-02,FHIS,False,,,"Cammies, Cammachmore, Newtonhill, AB39 3NR"
2025-12-05,1896498,249 Grind,Restaurant/Cafe/Canteen,Hamilton House,Church Street,Altrincham,,WA14 4DR,Trafford,AwaitingInspection,,FHRS,False,53.3916208,-2.3508294,"Hamilton House, Church Street, Altrincham, WA14 4DR"
2025-12-05,1896497,Caf at elkin court,Restaurant/Cafe/Canteen,Elkin Court,42a Hardwick Road,Partington,Manchester,M31 4DT,Trafford,AwaitingInspection,,FHRS,False,53.418955,-2.420811,"Elkin Court, 42a Hardwick Road, Partington, Manchester, M31 4DT"
2025-12-05,1841446,La Filia,Restaurant/Cafe/Canteen,,23 The Downs,Altrincham,,WA14 2QD,Trafford,AwaitingInspection,,FHRS,False,53.383931,-2.352857,"23 The Downs, Altrincham, WA14 2QD"
2025-12-05,1896496,The Hideaway,Restaurant/Cafe/Canteen,Unit D3 Broadheath Networkcentre 2,97 Atlantic Street,Altrincham,,WA14 5EW,Trafford,AwaitingInspection,,FHRS,False,53.3961369,-2.3705185,"Unit D3 Broadheath Networkcentre 2, 97 Atlantic Street, Altrincham, WA14 5EW"
2025-12-05,706222,Barrel and Vine,Restaurant/Cafe/Canteen,,459 Lord Street,Southport,,PR9 0AQ,Sefton,AwaitingInspection,,FHRS,False,53.649797,-3.0034024,"459 Lord Street, Southport, PR9 0AQ"
2025-12-05,1896547,Formby Family Space,Restaurant/Cafe/Canteen,,93 Church Road,Formby,,L37 3NB,Sefton,AwaitingInspection,,FHRS,False,53.5618725,-3.0581376,"93 Church Road, Formby, L37 3NB"
2025-12-05,1896754,DOWNTOWN CAFE BAR & BISTRO,Restaurant/Cafe/Canteen,4 - 10 The Old Arcade,Old Market,Halifax,Calderdale,HX1 1TJ,Calderdale,AwaitingInspection,,FHRS,False,53.7233094,-1.8598729,"4 - 10 The Old Arcade, Old Market, Halifax, Calderdale, HX1 1TJ"
2025-12-05,1896541,Laias,Restaurant/Cafe/Canteen,Unit 1 To 3 The Lightworks,71-74 Market Street,,Hednesford,WS12 1AD,Cannock Chase,AwaitingInspection,,FHRS,False,52.7093411,-1.999064,"Unit 1 To 3 The Lightworks, 71-74 Market Street, Hednesford, WS12 1AD"
2025-12-05,1890127,Aston Club,Restaurant/Cafe/Canteen,24 Ashley Road,Hampton,,,TW12 2JA,Richmond-Upon-Thames,5,2025-08-05,FHRS,False,51.4164756,-0.3723226,"24 Ashley Road, Hampton, TW12 2JA"
2025-12-05,1890126,Aston House,Restaurant/Cafe/Canteen,36 Percy Road,Hampton,,,TW12 2LA,Richmond-Upon-Thames,5,2025-08-05,FHRS,False,51.4170992,-0.3731921,"36 Percy Road, Hampton, TW12 2LA"
2025-12-05,1896593,Brasserie 1600,Restaurant/Cafe/Canteen,80 High Street,Hampton Hill,,,TW12 1NY,Richmond-Upon-Thames,5,2025-11-14,FHRS,False,51.4268965,-0.3554966,"80 High Street, Hampton Hill, TW12 1NY"
2025-12-05,1896596,Elior @ Marble Hill,Restaurant/Cafe/Canteen,Marble Hill Park,Richmond Road,Twickenham,,TW1 2NL,Richmond-Upon-Thames,AwaitingInspection,,FHRS,False,51.449724,-0.315939,"Marble Hill Park, Richmond Road, Twickenham, TW1 2NL"
2025-12-05,1650724,Next Thing Education Camps,Restaurant/Cafe/Canteen,The King's C Of E Primary School,Cumberland Road,Kew,,TW9 3HJ,Richmond-Upon-Thames,AwaitingInspection,,FHRS,False,,,"The King's C Of E Primary School, Cumberland Road, Kew, TW9 3HJ"
2025-12-05,1896594,Pret A Manger (Europe) Ltd,Restaurant/Cafe/Canteen,Unit RU02,Richmond Railway Station,Kew Road,Richmond,TW9 2NA,Richmond-Upon-Thames,AwaitingInspection,,FHRS,False,51.4632321,-0.3017165,"Unit RU02, Richmond Railway Station, Kew Road, Richmond, TW9 2NA"
2025-12-05,1574231,Rosona Spice,Restaurant/Cafe/Canteen,130 Upper Richmond Road West,East Sheen,London,,SW14 8DS,Richmond-Upon-Thames,AwaitingInspection,,FHRS,False,51.465259,-0.2594307,"130 Upper Richmond Road West, East Sheen, London, SW14 8DS"
2025-12-05,1896590,The Original Maids of Honour,Restaurant/Cafe/Canteen,National Archives,Bessant Drive,Richmond,,TW9 4DU,Richmond-Upon-Thames,4,2025-10-30,FHRS,False,51.4794509,-0.2793114,"National Archives, Bessant Drive, Richmond, TW9 4DU"
2025-12-05,1538738,Nepalese Mart,Restaurant/Cafe/Canteen,43 Upper Barr,Oxford,Oxfordshire,,OX4 3UX,Oxford City,4,2024-12-05,FHRS,False,51.7318087,-1.2151408,"43 Upper Barr, Oxford, Oxfordshire, OX4 3UX"
2025-12-05,1896641,Master Grill,Restaurant/Cafe/Canteen,2 White Hart Parade,London Road,Riverhead,Kent,TN13 2BJ,Sevenoaks,AwaitingInspection,,FHRS,False,51.2842866,0.1698302,"2 White Hart Parade, London Road, Riverhead, Kent, TN13 2BJ"
2025-12-05,1896638,The Galitos,Restaurant/Cafe/Canteen,145A High Street,Sevenoaks,Kent,,TN13 1XJ,Sevenoaks,AwaitingInspection,,FHRS,False,51.27337,0.192574,"145A High Street, Sevenoaks, Kent, TN13 1XJ"
2025-12-05,1896642,Tom Bell Traditional Fish & Chips,Restaurant/Cafe/Canteen,Tom Bells Traditional Fish And Chips,84 High Street,Edenbridge,Kent,TN8 5AR,Sevenoaks,AwaitingInspection,,FHRS,False,51.1957551,0.0650307,"Tom Bells Traditional Fish And Chips, 84 High Street, Edenbridge, Kent, TN8 5AR"
2025-12-05,457539,Cakestand & Crumb,Restaurant/Cafe/Canteen,7 Kings Arms Yard,Church Street,Ampthill,Bedford,MK45 2PJ,Central Bedfordshire,5,2024-07-17,FHRS,False,52.031541,-0.49244,"7 Kings Arms Yard, Church Street, Ampthill, Bedford, MK45 2PJ"
2025-12-05,1896511,Nibs & Giggs,Restaurant/Cafe/Canteen,75 Dunstable Street,Ampthill,Bedford,,MK45 2NQ,Central Bedfordshire,AwaitingInspection,,FHRS,False,52.0290408,-0.4943968,"75 Dunstable Street, Ampthill, Bedford, MK45 2NQ"
2025-12-05,1896517,Sollers Kitchen,Restaurant/Cafe/Canteen,Flamingo Flowers,The Nursery,Great North Road,Sandy,SG19 2AJ,Central Bedfordshire,AwaitingInspection,,FHRS,False,,,"Flamingo Flowers, The Nursery, Great North Road, Sandy, SG19 2AJ"
2025-12-05,1896597,Five Spice,Restaurant/Cafe/Canteen,Stourbridge Road,Belbroughton,Worcestershire,,DY9 9TX,Bromsgrove,AwaitingInspection,,FHRS,False,,,"Stourbridge Road, Belbroughton, Worcestershire, DY9 9TX"
2025-12-05,1896539,Leavenry Ltd,Restaurant/Cafe/Canteen,316B Newchurch Road,Stacksteads,Bacup,Lancashire,OL13 0UJ,Rossendale,AwaitingInspection,,FHRS,False,53.6914083,-2.2241598,"316B Newchurch Road, Stacksteads, Bacup, Lancashire, OL13 0UJ"
2025-12-05,1792766,Project Burger,Restaurant/Cafe/Canteen,318 Newchurch Road,Stacksteads,Bacup,Lancashire,OL13 0LD,Rossendale,AwaitingInspection,,FHRS,False,53.69152,-2.227796,"318 Newchurch Road, Stacksteads, Bacup, Lancashire, OL13 0LD"
2025-12-05,1896538,Table & Thyme,Restaurant/Cafe/Canteen,95 Newchurch Road,Stacksteads,Bacup,Lancashire,OL13 0DH,Rossendale,AwaitingInspection,,FHRS,False,53.69342464,-2.20860648,"95 Newchurch Road, Stacksteads, Bacup, Lancashire, OL13 0DH"
2025-12-05,1896504,Ember Grill,Restaurant/Cafe/Canteen,47 Norwich Road,Ipswich,Suffolk,,IP1 2EP,Ipswich,AwaitingInspection,,FHRS,False,52.061284,1.143135,"47 Norwich Road, Ipswich, Suffolk, IP1 2EP"
2025-12-05,1896502,"McDonald's Ravenswood, Ipswich",Restaurant/Cafe/Canteen,2 Hening Avenue,Ipswich,Suffolk,,IP3 9QJ,Ipswich,AwaitingInspection,,FHRS,False,52.030451,1.199297,"2 Hening Avenue, Ipswich, Suffolk, IP3 9QJ"
2025-12-05,1896505,TNS Catering Limited,Restaurant/Cafe/Canteen,Brooke Lawrance House,80 Civic Drive,Ipswich,Suffolk,IP1 2AN,Ipswich,AwaitingInspection,,FHRS,False,52.0561908,1.1481461,"Brooke Lawrance House, 80 Civic Drive, Ipswich, Suffolk, IP1 2AN"
2025-12-05,1896611,Guilt Trip Coffee And Donuts,Restaurant/Cafe/Canteen,1 The Huntings,Church Close,Broadway,Worcestershire,WR12 7AH,Wychavon,AwaitingInspection,,FHRS,True,52.0349575,-1.862351,"1 The Huntings, Church Close, Broadway, Worcestershire, WR12 7AH"
2025-12-05,1894899,K And K Kitchen,Restaurant/Cafe/Canteen,,,,,,Wychavon,AwaitingInspection,,FHRS,False,,,
2025-12-05,1896563,Taste of Africa by Monsur Kitchen,Restaurant/Cafe/Canteen,19 Bull Ring,Wakefield,,,WF1 1HB,Wakefield,AwaitingInspection,,FHRS,False,53.6831855773926,-1.49841797351837,"19 Bull Ring, Wakefield, WF1 1HB"
2025-12-05,1896826,Seriti Tea & Botanicals,Restaurant/Cafe/Canteen,,,,,,Wandsworth,AwaitingInspection,,FHRS,False,,,
2025-12-05,1896588,500 Degrees,Restaurant/Cafe/Canteen,,78-80 Crewe Road,,Alsager,ST7 2HA,Cheshire East,AwaitingInspection,,FHRS,True,53.095542,-2.310693,"78-80 Crewe Road, Alsager, ST7 2HA"
2025-12-05,1896587,Sweet Story,Restaurant/Cafe/Canteen,,37-39 Knutsford Road,,Alderley Edge,SK9 7SH,Cheshire East,5,2025-12-02,FHRS,False,53.3092611,-2.259619,"37-39 Knutsford Road, Alderley Edge, SK9 7SH"
2025-12-05,1896589,Treetops Garden Centre,Restaurant/Cafe/Canteen,,Tree Tops,,Holmes Chapel Road,WA16 9RD,Cheshire East,5,2025-12-02,FHRS,False,53.2599004,-2.3550475,"Tree Tops, Holmes Chapel Road, WA16 9RD"
2025-12-05,1896720,The Bonnie Bakehouse,Restaurant/Cafe/Canteen,,,,,,Falkirk,Awaiting Inspection,,FHIS,False,,,
2025-12-05,1896799,Peter Pans Neverland,Restaurant/Cafe/Canteen,72 Meadow Lane Portadown,,Craigavon,,BT62 3NJ,"Armagh City, Banbridge and Craigavon",5,2025-11-17,FHRS,False,54.4212828,-6.4404401,"72 Meadow Lane Portadown, Craigavon, BT62 3NJ"
2025-12-05,1892384,The Super City,Restaurant/Cafe/Canteen,Unit 11f Banbridge Enterprise Centre Scarva Road,,Banbridge,,BT32 3QD,"Armagh City, Banbridge and Craigavon",5,2025-11-27,FHRS,False,54.3512985,-6.2921764,"Unit 11f Banbridge Enterprise Centre Scarva Road, Banbridge, BT32 3QD"
2025-12-05,1896733,Chill your beans,Restaurant/Cafe/Canteen,28b Dungannon Road,Gortgonis,Coalisland,Co. Tyrone,BT71 4HP,Mid Ulster,AwaitingInspection,,FHRS,False,54.538898,-6.705556,"28b Dungannon Road, Gortgonis, Coalisland, Co. Tyrone, BT71 4HP"
2025-12-05,1896722,Granny Grettas,Restaurant/Cafe/Canteen,19 William Street,Cookstown,Cookstown,Co. Tyrone,BT80 8AX,Mid Ulster,AwaitingInspection,,FHRS,False,54.647764,-6.745629,"19 William Street, Cookstown, Cookstown, Co. Tyrone, BT80 8AX"
2025-12-05,1896718,Birmingham City Football Club Ltd,Restaurant/Cafe/Canteen,Wasps Elite Performance And Innovation Centre,Stratford Road,Henley-in-Arden,,B95 6AB,Stratford-on-Avon,AwaitingInspection,,FHRS,False,52.2846107,-1.7845398,"Wasps Elite Performance And Innovation Centre, Stratford Road, Henley-in-Arden, B95 6AB"
2025-12-05,1896714,JR Hotel And Restaurants LTD,Restaurant/Cafe/Canteen,The Church Street Townhouse,16 Church Street,Stratford-upon-Avon,,CV37 6HB,Stratford-on-Avon,AwaitingInspection,,FHRS,False,52.1904927,-1.7084471,"The Church Street Townhouse, 16 Church Street, Stratford-upon-Avon, CV37 6HB"
2025-12-05,1896717,Lithos Restaurant,Restaurant/Cafe/Canteen,LITHOS,64 High Street,Henley-in-Arden,,B95 5BX,Stratford-on-Avon,AwaitingInspection,,FHRS,False,52.293749,-1.7797042,"LITHOS, 64 High Street, Henley-in-Arden, B95 5BX"
2025-12-05,503781,The Bishops Fryer,Restaurant/Cafe/Canteen,Ladbroke Road,Bishops Itchington,Southam,,CV47 2RN,Stratford-on-Avon,5,2024-09-04,FHRS,False,52.217188,-1.429707,"Ladbroke Road, Bishops Itchington, Southam, CV47 2RN"
2025-12-05,1896811,Brb Kitchen Ltd,Restaurant/Cafe/Canteen,,695 Cranbrook Road,,Ilford,IG2 6SY,Redbridge,AwaitingInspection,,FHRS,False,51.579504,0.072671,"695 Cranbrook Road, Ilford, IG2 6SY"
2025-12-05,1896815,Nova Cafe Bistro,Restaurant/Cafe/Canteen,5 Rex Parade,Snakes Lane East,,Woodford Green,IG8 7HU,Redbridge,AwaitingInspection,,FHRS,False,51.608057,0.037187,"5 Rex Parade, Snakes Lane East, Woodford Green, IG8 7HU"
2025-12-05,1896817,You Want Beef Ilford,Restaurant/Cafe/Canteen,,325 Green Lane,,Seven Kings,IG3 9TL,Redbridge,AwaitingInspection,,FHRS,False,51.561021,0.097656,"325 Green Lane, Seven Kings, IG3 9TL"
2025-12-05,1808577,Pret A Manger,Restaurant/Cafe/Canteen,FILLING STATION,,LOWER STANTON ST QUINTIN,,SN14 6BN,Wiltshire,AwaitingInspection,,FHRS,False,,,"FILLING STATION, LOWER STANTON ST QUINTIN, SN14 6BN"
2025-12-05,1896659,Al-Uruba Cafe & Restaurant,Restaurant/Cafe/Canteen,118 Stratford Road,Sparkbrook,Birmingham,,B11 1AJ,Birmingham,AwaitingInspection,,FHRS,True,52.4652747,-1.8769886,"118 Stratford Road, Sparkbrook, Birmingham, B11 1AJ"
2025-12-05,1896702,AL-ZAIKA,Restaurant/Cafe/Canteen,144 Walford Road,Birmingham,,,B11 1QB,Birmingham,AwaitingInspection,,FHRS,False,52.459587,-1.865704,"144 Walford Road, Birmingham, B11 1QB"
2025-12-05,1896688,Arwa,Restaurant/Cafe/Canteen,60 Vann Close,Birmingham,,,B10 0DE,Birmingham,AwaitingInspection,,FHRS,False,52.4678004,-1.8658515,"60 Vann Close, Birmingham, B10 0DE"
2025-12-05,1896694,CHUSKI LTD,Restaurant/Cafe/Canteen,19 Oak Tree Lane,Selly Oak,Birmingham,,B29 6JE,Birmingham,AwaitingInspection,,FHRS,False,52.438818,-1.939672,"19 Oak Tree Lane, Selly Oak, Birmingham, B29 6JE"
2025-12-05,1896679,Cosy Coffee Shop & Bruncherie,Restaurant/Cafe/Canteen,310 Clarence Road,Sutton Four Oaks,Birmingham,Birmingham,B74 4LT,Birmingham,5,2025-06-09,FHRS,False,52.59889,-1.847518,"310 Clarence Road, Sutton Four Oaks, Birmingham, Birmingham, B74 4LT"
2025-12-05,1896654,Creation Leisure Group Ltd,Restaurant/Cafe/Canteen,582 Moseley Road,Sparkbrook,Birmingham,,B12 9AA,Birmingham,AwaitingInspection,,FHRS,True,52.4542824,-1.8858022,"582 Moseley Road, Sparkbrook, Birmingham, B12 9AA"
2025-12-05,1896665,Gusto Italian,Restaurant/Cafe/Canteen,45-49 Colmore Row,Birmingham,,,B3 2BS,Birmingham,AwaitingInspection,,FHRS,False,52.4818194,-1.8993678,"45-49 Colmore Row, Birmingham, B3 2BS"
2025-12-05,1896664,Hajees pizza,Restaurant/Cafe/Canteen,1174 Coventry Road,South Yardley,Birmingham,,B25 8DA,Birmingham,AwaitingInspection,,FHRS,False,52.463281,-1.830118,"1174 Coventry Road, South Yardley, Birmingham, B25 8DA"
2025-12-05,1779532,Harborne pizzas,Restaurant/Cafe/Canteen,,,,,,Birmingham,AwaitingInspection,,FHRS,False,,,
2025-12-05,1896685,Icarus Coffee,Restaurant/Cafe/Canteen,202 Gracechurch Shopping Centre,Parade,Sutton Trinity,Birmingham,B72 1PA,Birmingham,AwaitingInspection,,FHRS,False,52.5631203,-1.8237823,"202 Gracechurch Shopping Centre, Parade, Sutton Trinity, Birmingham, B72 1PA"
2025-12-05,1896676,Juice Bar & Dessert,Restaurant/Cafe/Canteen,364 Green Lane,Bordesley Green,Birmingham,,B9 5DT,Birmingham,AwaitingInspection,,FHRS,False,52.4743783,-1.8503276,"364 Green Lane, Bordesley Green, Birmingham, B9 5DT"
2025-12-05,1896691,Laas geel restaurant,Restaurant/Cafe/Canteen,Laas geel restaurant,9 Muntz Street,Birmingham,,B10 9SN,Birmingham,AwaitingInspection,,FHRS,False,52.4697685,-1.8574548,"Laas geel restaurant, 9 Muntz Street, Birmingham, B10 9SN"
2025-12-05,1896660,MJ's,Restaurant/Cafe/Canteen,,,,,,Birmingham,AwaitingInspection,,FHRS,False,,,
2025-12-05,1896703,New Classical Chippy,Restaurant/Cafe/Canteen,307 Marsh Hill,Birmingham,,,B23 7RU,Birmingham,AwaitingInspection,,FHRS,False,52.523405,-1.872172,"307 Marsh Hill, Birmingham, B23 7RU"
2025-12-05,1896677,Premium Desserts,Restaurant/Cafe/Canteen,.,176 Station Road,Stechford And Yardley North,Birmingham,B33 8BT,Birmingham,AwaitingInspection,,FHRS,False,52.4838783,-1.8095024,"., 176 Station Road, Stechford And Yardley North, Birmingham, B33 8BT"
2025-12-05,1896710,Radhai's Food Court,Restaurant/Cafe/Canteen,Bullring Open Market,Upper Dean Street,Birmingham,,B5 4RB,Birmingham,AwaitingInspection,,FHRS,False,,,"Bullring Open Market, Upper Dean Street, Birmingham, B5 4RB"
2025-12-05,1896699,RADLEYS COFFEE & DESSERT,Restaurant/Cafe/Canteen,449 Brays Road,Birmingham,,,B26 2RR,Birmingham,AwaitingInspection,,FHRS,False,52.4638816,-1.776873,"449 Brays Road, Birmingham, B26 2RR"
2025-12-05,1896662,SHER,Restaurant/Cafe/Canteen,1-3 Manor Road,Sutton Trinity,Birmingham,Birmingham,B73 6EJ,Birmingham,AwaitingInspection,,FHRS,False,52.560743,-1.825981,"1-3 Manor Road, Sutton Trinity, Birmingham, Birmingham, B73 6EJ"
2025-12-05,1896669,Taqi's Grill,Restaurant/Cafe/Canteen,1122 Stratford Road,Hall Green,Birmingham,,B28 8AE,Birmingham,AwaitingInspection,,FHRS,False,52.4390647,-1.8478439,"1122 Stratford Road, Hall Green, Birmingham, B28 8AE"
2025-12-05,1896709,Tiger Bites Pig,Restaurant/Cafe/Canteen,Saint Paul's Market,Kiosk 5,4 Mary Ann Street,Birmingham,B3 1RL,Birmingham,AwaitingInspection,,FHRS,False,,,"Saint Paul's Market, Kiosk 5, 4 Mary Ann Street, Birmingham, B3 1RL"
2025-12-05,1896672,Victor Pizza & Cafe,Restaurant/Cafe/Canteen,228 New John Street West,Birmingham,,,B19 3UA,Birmingham,AwaitingInspection,,FHRS,False,52.49507,-1.913775,"228 New John Street West, Birmingham, B19 3UA"
2025-12-05,1896482,Hector's,Restaurant/Cafe/Canteen,32a High Street Dunbar East Lothian,,,,EH42 1JH,East Lothian,Pass,2025-11-27,FHIS,False,56.0008303,-2.5152772,"32a High Street Dunbar East Lothian, EH42 1JH"
2025-12-05,1896753,Harmony,Restaurant/Cafe/Canteen,7 Albion HouseChertsey RoadWokingSurrey,,,,GU21 5AB,Woking,5,2025-11-20,FHRS,False,51.319214,-0.5569296,"7 Albion HouseChertsey RoadWokingSurrey, GU21 5AB"
2025-12-05,1896580,AGORA,Restaurant/Cafe/Canteen,207 - 209 New Road Side,Horsforth,Leeds,,LS18 4DR,Leeds,AwaitingInspection,,FHRS,False,53.832735,-1.646938,"207 - 209 New Road Side, Horsforth, Leeds, LS18 4DR"
2025-12-05,1896584,Cinnammmm,Restaurant/Cafe/Canteen,186 Harrogate Road,Moortown,Leeds,,LS7 4NZ,Leeds,AwaitingInspection,,FHRS,False,53.830758,-1.538198,"186 Harrogate Road, Moortown, Leeds, LS7 4NZ"
2025-12-05,1896582,Ruby's Cafe Bar,Restaurant/Cafe/Canteen,12 Booths Yard,Pudsey,,,LS28 7AD,Leeds,AwaitingInspection,,FHRS,False,53.7971658,-1.6619513,"12 Booths Yard, Pudsey, LS28 7AD"
2025-12-05,1896583,Sapori Italian,Restaurant/Cafe/Canteen,151 Otley Old Road,Cookridge,Leeds,,LS16 6HN,Leeds,AwaitingInspection,,FHRS,False,53.845798,-1.602082,"151 Otley Old Road, Cookridge, Leeds, LS16 6HN"
2025-12-05,1896579,The Savvy Baker,Restaurant/Cafe/Canteen,17 Albion Street,Leeds,,,LS1 5AT,Leeds,AwaitingInspection,,FHRS,False,53.7971945,-1.5452806,"17 Albion Street, Leeds, LS1 5AT"
2025-12-05,1896570,Tuana,Restaurant/Cafe/Canteen,10 The Green,Guiseley,Leeds,,LS20 9BT,Leeds,AwaitingInspection,,FHRS,True,53.87417851,-1.70635052,"10 The Green, Guiseley, Leeds, LS20 9BT"
2025-12-05,1896778,Bosco Italian Trattoria,Restaurant/Cafe/Canteen,8 Templehill,Troon,South Ayrshire,,KA10 6BE,South Ayrshire,Awaiting Inspection,2025-11-19,FHIS,False,55.5440145,-4.6643488,"8 Templehill, Troon, South Ayrshire, KA10 6BE"
2025-12-05,1896779,BrambleCafe @UHA,Restaurant/Cafe/Canteen,University Hospital,A713 From A77t Bankfield Roundabout South East Past Ailsa Hospital To Council Boundary,Ayr,South Ayrshire,KA6 6DX,South Ayrshire,Awaiting Inspection,2025-11-19,FHIS,False,,,"University Hospital, A713 From A77t Bankfield Roundabout South East Past Ailsa Hospital To Council Boundary, Ayr, South Ayrshire, KA6 6DX"
2025-12-05,1896787,Flakes Diner,Restaurant/Cafe/Canteen,124A Main Street,Prestwick,South Ayrshire,,KA9 1PB,South Ayrshire,Awaiting Inspection,2025-11-24,FHIS,False,55.4977085,-4.6120572,"124A Main Street, Prestwick, South Ayrshire, KA9 1PB"
2025-12-05,1896781,Nae Forks Given,Restaurant/Cafe/Canteen,38 High Street,Maybole,South Ayrshire,,KA19 7BZ,South Ayrshire,Pass,2025-11-26,FHIS,False,55.3542766,-4.6817641,"38 High Street, Maybole, South Ayrshire, KA19 7BZ"
2025-12-05,1896789,New Voluntary Park Pavilion,Restaurant/Cafe/Canteen,Voluntary Park,Glenmuir Place,Ayr,South Ayrshire,KA8 9RR,South Ayrshire,Awaiting Inspection,2025-12-02,FHIS,False,55.47402,-4.5970495,"Voluntary Park, Glenmuir Place, Ayr, South Ayrshire, KA8 9RR"
2025-12-05,1896786,Outcast Coffee,Restaurant/Cafe/Canteen,169 Whitletts Road,Ayr,South Ayrshire,,KA8 0JQ,South Ayrshire,Awaiting Inspection,2025-11-28,FHIS,False,,,"169 Whitletts Road, Ayr, South Ayrshire, KA8 0JQ"
2025-12-05,1896782,River And Beans,Restaurant/Cafe/Canteen,13 Old Bridge Street,Ayr,South Ayrshire,,KA7 1QA,South Ayrshire,Awaiting Inspection,2025-11-20,FHIS,False,55.4642901,-4.630075,"13 Old Bridge Street, Ayr, South Ayrshire, KA7 1QA"
2025-12-05,1896617,Blackheath Coffee Co.,Restaurant/Cafe/Canteen,105 Station Road,Sidcup,Kent,,DA15 7AX,Bexley,AwaitingInspection,,FHRS,True,51.4333987,0.1025287,"105 Station Road, Sidcup, Kent, DA15 7AX"
2025-12-05,1896620,Wimpy Bexleyheath,Restaurant/Cafe/Canteen,213 Broadway,Bexleyheath,Kent,,DA6 7ER,Bexley,AwaitingInspection,,FHRS,False,51.457045,0.14,"213 Broadway, Bexleyheath, Kent, DA6 7ER"
2025-12-05,1896764,Solihull South (M42) Premier Inn,Restaurant/Cafe/Canteen,The Plough Beefeater And Travel Inn,Stratford Road,Shirley,Solihull,B90 4EP,Solihull,AwaitingInspection,,FHRS,False,52.3861403,-1.7993613,"The Plough Beefeater And Travel Inn, Stratford Road, Shirley, Solihull, B90 4EP"
2025-12-05,1896479,Piccolo,Restaurant/Cafe/Canteen,,7 Dundas Street East,Saltburn By The Sea,,TS12 1AH,Redcar and Cleveland,AwaitingInspection,,FHRS,False,54.5832866,-0.9724353,"7 Dundas Street East, Saltburn By The Sea, TS12 1AH"
