date_added,FHRSID,BusinessName,BusinessType,AddressLine1,AddressLine2,AddressLine3,AddressLine4,PostCode,LocalAuthorityName,RatingValue,RatingDate,SchemeType,NewRatingPending,Latitude,Longitude,AddressSingleLine
2026-01-01,1904341,Pecks Farm Coffee Shop,Restaurant/Cafe/Canteen,Stockwell Farm,Leighton Road,Eggington,Leighton Buzzard,LU7 9PA,Central Bedfordshire,5,2025-12-12,FHRS,False,51.919723,-0.616938,"Stockwell Farm, Leighton Road, Eggington, Leighton Buzzard, LU7 9PA"
2026-01-01,1904345,The Table,Restaurant/Cafe/Canteen,Marston Moreteyne Community Centre,Great Linns,Marston Moreteyne,Bedford,MK43 0DD,Central Bedfordshire,AwaitingInspection,,FHRS,False,,,"Marston Moreteyne Community Centre, Great Linns, Marston Moreteyne, Bedford, MK43 0DD"
2026-01-01,1502657,Tim Hortons,Restaurant/Cafe/Canteen,White Lion Retail Park,Boscombe Road,Dunstable,Beds,LU5 4WL,Central Bedfordshire,5,2024-08-15,FHRS,False,51.8914996,-0.5138041,"White Lion Retail Park, Boscombe Road, Dunstable, Beds, LU5 4WL"
2026-01-01,1876024,Thai Kitchen (Authentic Street Food Cafe),Restaurant/Cafe/Canteen,41 Whitehorse Road,Croydon,,,CR0 2JG,Croydon,AwaitingInspection,,FHRS,False,51.3850326538086,-0.0977829992771149,"41 Whitehorse Road, Croydon, CR0 2JG"
2026-01-01,1904384,Caspian Pizza,Restaurant/Cafe/Canteen,39 Rough Hay Road,Darlaston,Walsall,West Midlands,WS10 8NQ,Walsall,AwaitingInspection,,FHRS,False,52.572568,-2.042701,"39 Rough Hay Road, Darlaston, Walsall, West Midlands, WS10 8NQ"
2026-01-01,1904386,Crust and Grill,Restaurant/Cafe/Canteen,107-108 The Green,Darlaston,Walsall,West Midlands,WS10 8JP,Walsall,AwaitingInspection,,FHRS,False,52.5760246,-2.033603,"107-108 The Green, Darlaston, Walsall, West Midlands, WS10 8JP"
2026-01-01,1904380,Delight African Restaurant,Restaurant/Cafe/Canteen,26 Hall Street East,Darlaston,Walsall,West Midlands,WS10 8PL,Walsall,AwaitingInspection,,FHRS,False,52.573808,-2.044547,"26 Hall Street East, Darlaston, Walsall, West Midlands, WS10 8PL"
2026-01-01,1904381,Dixy Chicken Brownhills,Restaurant/Cafe/Canteen,36 High Street,Brownhills,Walsall,West Midlands,WS8 6EL,Walsall,AwaitingInspection,,FHRS,False,52.6470323,-1.9332912,"36 High Street, Brownhills, Walsall, West Midlands, WS8 6EL"
2026-01-01,1904373,GS & Deol's Ltd,Restaurant/Cafe/Canteen,181 Wolverhampton Road West,Bentley,Walsall,,WS2 0DU,Walsall,AwaitingInspection,,FHRS,False,52.585267,-2.024501,"181 Wolverhampton Road West, Bentley, Walsall, WS2 0DU"
2026-01-01,1904366,Mama Ako's Kitchen,Restaurant/Cafe/Canteen,1-3 Market Place,Willenhall,Walsall,West Midlands,WV13 2AA,Walsall,AwaitingInspection,,FHRS,False,52.583324,-2.0549164,"1-3 Market Place, Willenhall, Walsall, West Midlands, WV13 2AA"
2026-01-01,1904387,Miquill Catering Ltd,Restaurant/Cafe/Canteen,Pheasey Park Farm Primary School,Wimperis Way,Pheasey,Walsall,B43 7LH,Walsall,AwaitingInspection,,FHRS,False,,,"Pheasey Park Farm Primary School, Wimperis Way, Pheasey, Walsall, B43 7LH"
2026-01-01,1904383,Mr Grill Pizza and Peri Peri,Restaurant/Cafe/Canteen,121 Princes Avenue,Walsall,West Midlands,,WS1 2DH,Walsall,AwaitingInspection,,FHRS,False,52.5848691,-1.9648546,"121 Princes Avenue, Walsall, West Midlands, WS1 2DH"
2026-01-01,1904369,Starbelly,Restaurant/Cafe/Canteen,53C Lower Hall Lane,Walsall,West Midlands,,WS1 1RJ,Walsall,4,2025-11-25,FHRS,False,52.5830293,-1.9821028,"53C Lower Hall Lane, Walsall, West Midlands, WS1 1RJ"
2026-01-01,1904362,The Greedy Pig Cafe,Restaurant/Cafe/Canteen,1 Gipsy Lane,Willenhall,Walsall,West Midlands,WV13 2HA,Walsall,AwaitingInspection,,FHRS,False,52.583245,-2.0516535,"1 Gipsy Lane, Willenhall, Walsall, West Midlands, WV13 2HA"
2026-01-01,1904335,Dr Oetker,Restaurant/Cafe/Canteen,20 Marathon Place,Moss Side Industrial Estate,Leyland,Lancashire,PR26 7QN,South Ribble,AwaitingInspection,,FHRS,False,53.7019958496094,-2.72597408294678,"20 Marathon Place, Moss Side Industrial Estate, Leyland, Lancashire, PR26 7QN"
2026-01-01,1904333,Red Velvet Desserts,Restaurant/Cafe/Canteen,88 - 90 Hough Lane,Leyland,Lancashire,,PR25 2YB,South Ribble,AwaitingInspection,,FHRS,False,53.6958612,-2.6912877,"88 - 90 Hough Lane, Leyland, Lancashire, PR25 2YB"
2026-01-01,1904339,The Kiosk-Leyland Station,Restaurant/Cafe/Canteen,Leyland Railway Station,Golden Hill,Leyland,Lancashire,PR25 3NN,South Ribble,AwaitingInspection,,FHRS,False,53.6989946,-2.6872041,"Leyland Railway Station, Golden Hill, Leyland, Lancashire, PR25 3NN"
2026-01-01,1829603,Wokman Preston,Restaurant/Cafe/Canteen,350 Higher Walton Road,Higher Walton,Preston,Lancashire,PR5 4HT,South Ribble,AwaitingInspection,,FHRS,False,53.7435056,-2.6448699,"350 Higher Walton Road, Higher Walton, Preston, Lancashire, PR5 4HT"
2026-01-01,1904408,Pesto,Restaurant/Cafe/Canteen,Alcester Road,Wythall,,,B47 6JG,Bromsgrove,AwaitingInspection,,FHRS,False,52.37900125,-1.8849875,"Alcester Road, Wythall, B47 6JG"
2026-01-01,1904390,Artichoke Cafe,Restaurant/Cafe/Canteen,241 High Street,,Crowthorne,Bracknell Forest,RG45 7AH,Bracknell Forest,AwaitingInspection,,FHRS,False,51.3671544,-0.7942075,"241 High Street, Crowthorne, Bracknell Forest, RG45 7AH"
2026-01-01,1904391,Daruchini Brasserie,Restaurant/Cafe/Canteen,Daruchini Indian Restaurant St Marks Road,Binfield,Bracknell,Bracknell Forest,RG42 4AJ,Bracknell Forest,AwaitingInspection,,FHRS,False,,,"Daruchini Indian Restaurant St Marks Road, Binfield, Bracknell, Bracknell Forest, RG42 4AJ"
2026-01-01,1904288,Leon,Restaurant/Cafe/Canteen,157 Hamlet Court Road,Westcliff-on-sea,Essex,,SS0 7EL,Southend-On-Sea,AwaitingInspection,,FHRS,True,51.5408009,0.6948875,"157 Hamlet Court Road, Westcliff-on-sea, Essex, SS0 7EL"
2026-01-01,1904315,Leat Cafe,Restaurant/Cafe/Canteen,,,,,,Somerset,AwaitingInspection,,FHRS,False,,,
2026-01-01,1904316,Pop-Up Winter Cafe,Restaurant/Cafe/Canteen,The Key Centre Pop-Up Winter Cafe,Feltham Lane,Frome,Somerset,BA11 5AJ,Somerset,AwaitingInspection,,FHRS,False,,,"The Key Centre Pop-Up Winter Cafe, Feltham Lane, Frome, Somerset, BA11 5AJ"
2026-01-01,1904420,Falafel Hayes Corner,Restaurant/Cafe/Canteen,,63 Station Road,,Hayes,UB3 4BG,Hillingdon,AwaitingInspection,,FHRS,False,51.5051858,-0.4190061,"63 Station Road, Hayes, UB3 4BG"
2026-01-01,1904427,Kemps Grill,Restaurant/Cafe/Canteen,29 The Broadway,Joel Street,,Northwood,HA6 1NU,Hillingdon,AwaitingInspection,,FHRS,False,51.601977,-0.409066,"29 The Broadway, Joel Street, Northwood, HA6 1NU"
2026-01-01,1904424,Simply Scrumptious,Restaurant/Cafe/Canteen,Arun Building,Arundel Road,,Uxbridge,UB8 2RR,Hillingdon,AwaitingInspection,,FHRS,True,51.5356957,-0.4898974,"Arun Building, Arundel Road, Uxbridge, UB8 2RR"
2026-01-01,1904351,Honeycomb Hall,Restaurant/Cafe/Canteen,,,,,,Lichfield,5,2025-12-16,FHRS,False,,,
2026-01-01,1904412,Riverside Grill,Restaurant/Cafe/Canteen,11 Stourport Road,Bewdley,Worcestershire,,DY12 1BA,Wyre Forest,AwaitingInspection,,FHRS,False,52.3757745,-2.3111496,"11 Stourport Road, Bewdley, Worcestershire, DY12 1BA"
2026-01-01,1904439,Gate Coffee,Restaurant/Cafe/Canteen,,,,,,Enfield,AwaitingInspection,,FHRS,False,,,
2026-01-01,1904428,Skewd Asia,Restaurant/Cafe/Canteen,127-129 Cockfosters Road,BARNET,,,EN4 0DA,Enfield,AwaitingInspection,,FHRS,True,51.648637,-0.148362,"127-129 Cockfosters Road, BARNET, EN4 0DA"
2026-01-01,1904434,Today coffee,Restaurant/Cafe/Canteen,,,,,,Enfield,AwaitingInspection,,FHRS,False,,,
2026-01-01,1896604,The Cosy Corner Bistro,Restaurant/Cafe/Canteen,Crookbarrow View,3 Gotland Road,Worcester,,WR5 2GN,Worcester City,AwaitingInspection,,FHRS,False,52.1807814,-2.1900549,"Crookbarrow View, 3 Gotland Road, Worcester, WR5 2GN"
2026-01-01,1904410,Yeliz Restaurant,Restaurant/Cafe/Canteen,The Old Rectifying House,North Parade,Worcester,,WR1 3NN,Worcester City,AwaitingInspection,,FHRS,False,52.1918294,-2.2259789,"The Old Rectifying House, North Parade, Worcester, WR1 3NN"
2026-01-01,1904466,Benghazi Bites,Restaurant/Cafe/Canteen,,,,,,Wandsworth,AwaitingInspection,,FHRS,False,,,
2026-01-01,1904465,Chobo,Restaurant/Cafe/Canteen,,,,,,Wandsworth,AwaitingInspection,,FHRS,False,,,
2026-01-01,1904464,GAIL's Bakery Tooting Broadway,Restaurant/Cafe/Canteen,103-111 Mitcham Road,London,,,SW17 9PF,Wandsworth,AwaitingInspection,,FHRS,False,51.4257059,-0.1645207,"103-111 Mitcham Road, London, SW17 9PF"
2026-01-01,1904463,One Twenty Four,Restaurant/Cafe/Canteen,124 Tooting High Street,London,,,SW17 0RR,Wandsworth,AwaitingInspection,,FHRS,False,51.4258683,-0.1702455,"124 Tooting High Street, London, SW17 0RR"
2026-01-01,1904314,BILLI CASTRO SNACK BAR RESTAURANT 69,Restaurant/Cafe/Canteen,13 Norfolk Street,Wisbech,Cambridgeshire,,PE13 2LD,Fenland,AwaitingInspection,,FHRS,False,52.662695,0.163108,"13 Norfolk Street, Wisbech, Cambridgeshire, PE13 2LD"
2026-01-01,1493304,Family Shopper And Subway,Restaurant/Cafe/Canteen,9 High Street,March,Cambridgeshire,,PE15 9JA,Fenland,5,2025-09-01,FHRS,False,52.549407,0.087764,"9 High Street, March, Cambridgeshire, PE15 9JA"
2026-01-01,1904396,Lusso,Restaurant/Cafe/Canteen,30 - 31 Northbrook Street,,Newbury,West Berkshire,RG14 1DJ,West Berkshire,AwaitingInspection,,FHRS,False,51.4038061,-1.3243471,"30 - 31 Northbrook Street, Newbury, West Berkshire, RG14 1DJ"
2026-01-01,1904350,The Dirty Fries Bunker,Restaurant/Cafe/Canteen,Ff14 St Johns Market,Jubilee Way,Scunthorpe,North Lincolnshire,DN15 6RB,North Lincolnshire,AwaitingInspection,,FHRS,False,53.5912299,-0.6439193,"Ff14 St Johns Market, Jubilee Way, Scunthorpe, North Lincolnshire, DN15 6RB"
2026-01-01,1904451,Bistro Italiano,Restaurant/Cafe/Canteen,14 MARKET PLACE,,MELKSHAM,,SN12 6EX,Wiltshire,AwaitingInspection,,FHRS,False,51.3715092,-2.137886,"14 MARKET PLACE, MELKSHAM, SN12 6EX"
2026-01-01,1904448,Pronti Buon Appetito,Restaurant/Cafe/Canteen,40 MARKET PLACE,,WARMINSTER,,BA12 9AN,Wiltshire,AwaitingInspection,,FHRS,False,51.2045261,-2.1797973,"40 MARKET PLACE, WARMINSTER, BA12 9AN"
2026-01-01,262209,The Bridge,Restaurant/Cafe/Canteen,THE CARPENTERS ARMS INN EASTON TOWN,,SHERSTON,,SN16 0LS,Wiltshire,AwaitingInspection,,FHRS,False,51.5740639,-2.2106766,"THE CARPENTERS ARMS INN EASTON TOWN, SHERSTON, SN16 0LS"
2026-01-01,1904415,Sakura,Restaurant/Cafe/Canteen,4 Beeches Avenue,Carshalton,,,SM5 3LF,Sutton,AwaitingInspection,,FHRS,False,51.356884,-0.17006,"4 Beeches Avenue, Carshalton, SM5 3LF"
2026-01-01,1904297,Birk's Deli,Restaurant/Cafe/Canteen,101 Swinnow Lane,Swinnow,Leeds,,LS13 4RH,Leeds,AwaitingInspection,,FHRS,False,53.8005505,-1.6420045,"101 Swinnow Lane, Swinnow, Leeds, LS13 4RH"
2026-01-01,1904308,Black Sheep Coffee,Restaurant/Cafe/Canteen,29A Bond Street,Leeds,,,LS1 5BQ,Leeds,AwaitingInspection,,FHRS,False,53.7978285,-1.5465642,"29A Bond Street, Leeds, LS1 5BQ"
2026-01-01,1904309,Black Sheep Coffee,Restaurant/Cafe/Canteen,97 Briggate,Leeds,,,LS1 6NP,Leeds,AwaitingInspection,,FHRS,False,53.7985925,-1.5418343,"97 Briggate, Leeds, LS1 6NP"
2026-01-01,1904295,Blue Tiger Restaurant,Restaurant/Cafe/Canteen,16 Ganners Hill,Bramley,Leeds,,LS13 2NZ,Leeds,AwaitingInspection,,FHRS,False,53.818631,-1.628358,"16 Ganners Hill, Bramley, Leeds, LS13 2NZ"
2026-01-01,1904296,Clip 'n Climb Leeds,Restaurant/Cafe/Canteen,Unit 3,Tristram Centre,Brown Lane West,Holbeck,LS12 6BF,Leeds,AwaitingInspection,,FHRS,False,53.7832224,-1.5734013,"Unit 3, Tristram Centre, Brown Lane West, Holbeck, LS12 6BF"
2026-01-01,1904306,Corner House,Restaurant/Cafe/Canteen,378 Harrogate Road,Moortown,Leeds,,LS17 6PY,Leeds,AwaitingInspection,,FHRS,False,53.843537,-1.5333,"378 Harrogate Road, Moortown, Leeds, LS17 6PY"
2026-01-01,1904293,Moor Allerton Golf Club,Restaurant/Cafe/Canteen,Coal Road,Wike,Leeds,,LS17 9NH,Leeds,AwaitingInspection,,FHRS,False,53.869925,-1.480524,"Coal Road, Wike, Leeds, LS17 9NH"
2026-01-01,1904305,Red Sea Cafe/Restaurant,Restaurant/Cafe/Canteen,52B Harehills Road,Harehills,Leeds,,LS8 5PB,Leeds,AwaitingInspection,,FHRS,False,53.814111,-1.517558,"52B Harehills Road, Harehills, Leeds, LS8 5PB"
2026-01-01,1904303,Shawarma Kingdom,Restaurant/Cafe/Canteen,8 Queens Arcade,Leeds,,,LS1 6LF,Leeds,AwaitingInspection,,FHRS,False,53.7982991,-1.5426725,"8 Queens Arcade, Leeds, LS1 6LF"
2026-01-01,1904311,The Med Greek Street Food,Restaurant/Cafe/Canteen,1 The Crescent,Woodhouse,Leeds,,LS6 2NW,Leeds,AwaitingInspection,,FHRS,False,53.814719,-1.561232,"1 The Crescent, Woodhouse, Leeds, LS6 2NW"
2026-01-03,1904479,Brew And Bagel,Restaurant/Cafe/Canteen,24 The Forum,Sittingbourne,Kent,,ME10 3DL,Swale,AwaitingInspection,,FHRS,False,51.3406293,0.7357965,"24 The Forum, Sittingbourne, Kent, ME10 3DL"
2026-01-03,1904478,Mem's Mezze,Restaurant/Cafe/Canteen,Halfway House,Halfway Road,Minster-on-sea,Kent,ME12 3AU,Swale,5,2025-12-18,FHRS,False,51.42284,0.776368,"Halfway House, Halfway Road, Minster-on-sea, Kent, ME12 3AU"
2026-01-03,1904515,2 Sisters Cafe & Bistro,Restaurant/Cafe/Canteen,33 Warner Street,Accrington,Lancashire,,BB5 1HN,Hyndburn,AwaitingInspection,,FHRS,False,53.7517815,-2.3631977,"33 Warner Street, Accrington, Lancashire, BB5 1HN"
2026-01-03,1904521,A.J's Butty Box,Restaurant/Cafe/Canteen,503 Manchester Road,Accrington,Lancashire,,BB5 2QJ,Hyndburn,AwaitingInspection,,FHRS,False,53.7355971,-2.3470496,"503 Manchester Road, Accrington, Lancashire, BB5 2QJ"
2026-01-03,1904517,Frontier Park Spud Bros,Restaurant/Cafe/Canteen,Frontier Park,Burnley Road,Blackburn,,BB1 3HR,Hyndburn,AwaitingInspection,,FHRS,False,,,"Frontier Park, Burnley Road, Blackburn, BB1 3HR"
2026-01-03,1904538,Annapurna's,Restaurant/Cafe/Canteen,604 Kenton Road,Harrow,,,HA3 9NP,Harrow,AwaitingInspection,,FHRS,False,51.5862672,-0.290189,"604 Kenton Road, Harrow, HA3 9NP"
2026-01-03,1805006,Ember n mist,Restaurant/Cafe/Canteen,102-108 Pinner Road,Harrow,,,HA1 4JD,Harrow,AwaitingInspection,,FHRS,False,51.5813496,-0.3484399,"102-108 Pinner Road, Harrow, HA1 4JD"
2026-01-03,1904541,GJ23 Chatpata Ltd,Restaurant/Cafe/Canteen,Unit 21,Harrow,,,HA1 2TB,Harrow,AwaitingInspection,,FHRS,False,,,"Unit 21, Harrow, HA1 2TB"
2026-01-03,1904547,Pinner Peri Peri,Restaurant/Cafe/Canteen,499 Pinner Road,Harrow,,,HA2 6EH,Harrow,AwaitingInspection,,FHRS,False,51.588454,-0.363331,"499 Pinner Road, Harrow, HA2 6EH"
2026-01-03,1904540,Rootplains,Restaurant/Cafe/Canteen,,,,,,Harrow,AwaitingInspection,,FHRS,False,,,
2026-01-03,1904594,The Ridge Bar And Grill,Restaurant/Cafe/Canteen,Unit 19,Greenbridge Retail Park,Swindon,,SN3 3SQ,Swindon,AwaitingInspection,,FHRS,False,51.570414,-1.756701,"Unit 19, Greenbridge Retail Park, Swindon, SN3 3SQ"
2026-01-03,1904489,Tropical Bliss Jerk Centre,Restaurant/Cafe/Canteen,9  Hartlebury Road,,,Oldbury,B69 1DF,Sandwell,AwaitingInspection,,FHRS,False,,,"9  Hartlebury Road, Oldbury, B69 1DF"
2026-01-03,1904476,Mr Souvlaki,Restaurant/Cafe/Canteen,5 Broad Street,,Banbury,Oxfordshire,OX16 5BN,Cherwell,AwaitingInspection,,FHRS,False,52.0613605,-1.3345197,"5 Broad Street, Banbury, Oxfordshire, OX16 5BN"
2026-01-03,1904474,The Grain Store,Restaurant/Cafe/Canteen,The Grain Store Cafe At The Hatchery Fir Lane,,Steeple Aston,Oxfordshire,OX25 5QL,Cherwell,AwaitingInspection,,FHRS,False,,,"The Grain Store Cafe At The Hatchery Fir Lane, Steeple Aston, Oxfordshire, OX25 5QL"
2026-01-03,1513985,Baginton Event Catering,Restaurant/Cafe/Canteen,The Sports Connexion                                                                                 Leamington Road,Ryton-On-Dunsmore,,Warwickshire,CV8 3FL,Rugby,AwaitingInspection,,FHRS,False,,,"The Sports Connexion                                                                                 Leamington Road, Ryton-On-Dunsmore, Warwickshire, CV8 3FL"
2026-01-03,1904556,Rowing Club Cafe,Restaurant/Cafe/Canteen,Newquay Rowing Club,South Quay Hill,Newquay,Cornwall,TR7 1HT,Cornwall,2,2025-12-12,FHRS,False,50.416344,-5.087121,"Newquay Rowing Club, South Quay Hill, Newquay, Cornwall, TR7 1HT"
2026-01-03,1904605,Greedy Pig Cafe,Restaurant/Cafe/Canteen,6A Lawn Farm Business Centre,Main Street,Grendon Underwood,Buckinghamshire,HP18 0QX,Buckinghamshire,AwaitingInspection,,FHRS,False,51.8733194,-0.9892423,"6A Lawn Farm Business Centre, Main Street, Grendon Underwood, Buckinghamshire, HP18 0QX"
2026-01-03,1904600,The Dog and Badger,Restaurant/Cafe/Canteen,Henley Road,Medmenham,Buckinghamshire,,SL7 2HE,Buckinghamshire,AwaitingInspection,,FHRS,False,,,"Henley Road, Medmenham, Buckinghamshire, SL7 2HE"
2026-01-03,1904601,The Kashmir Gardens,Restaurant/Cafe/Canteen,122 High Street,Aylesbury,Buckinghamshire,,HP20 1RB,Buckinghamshire,AwaitingInspection,,FHRS,False,51.816093,-0.806303,"122 High Street, Aylesbury, Buckinghamshire, HP20 1RB"
2026-01-03,1904602,Urban Thai,Restaurant/Cafe/Canteen,16 Duke Street,Princes Risborough,Buckinghamshire,,HP27 0AT,Buckinghamshire,AwaitingInspection,,FHRS,False,51.725057,-0.83259,"16 Duke Street, Princes Risborough, Buckinghamshire, HP27 0AT"
2026-01-03,1904565,Esquires Coffee,Restaurant/Cafe/Canteen,,28 High Street,Oakham,,LE15 6AL,Rutland,AwaitingInspection,,FHRS,False,52.66952,-0.72843,"28 High Street, Oakham, LE15 6AL"
2026-01-03,401830,Aroma Coffee and Bakery,Restaurant/Cafe/Canteen,,6 Market Street,Newton Le Willows,,WA12 9AN,St Helens,AwaitingInspection,,FHRS,False,53.452222,-2.640993,"6 Market Street, Newton Le Willows, WA12 9AN"
2026-01-03,1904531,Burger Box,Restaurant/Cafe/Canteen,,400-402 Derby Street,Bolton,,BL3 6LS,Bolton,AwaitingInspection,,FHRS,False,53.5663113,-2.4454475,"400-402 Derby Street, Bolton, BL3 6LS"
2026-01-03,1904527,D'Cocina,Restaurant/Cafe/Canteen,,4 Mawdsley Street,,,BL1 1LF,Bolton,AwaitingInspection,,FHRS,False,53.5778879,-2.4285528,"4 Mawdsley Street, BL1 1LF"
2026-01-03,1904535,Paratha Stop Supply,Restaurant/Cafe/Canteen,Unit 51 Halliwell Industrial Estate,Rossini Street,Bolton,,BL1 8DL,Bolton,AwaitingInspection,,FHRS,False,53.5963491,-2.4409137,"Unit 51 Halliwell Industrial Estate, Rossini Street, Bolton, BL1 8DL"
2026-01-03,1904533,Roof Top Restaurant,Restaurant/Cafe/Canteen,Bolton Sixth Form College,Deane Road,Bolton,,BL3 5BG,Bolton,5,2025-11-27,FHRS,False,53.574586,-2.437095,"Bolton Sixth Form College, Deane Road, Bolton, BL3 5BG"
2026-01-03,1904486,Cafe Rust At Hove Museum,Restaurant/Cafe/Canteen,Hove Museum,19 New Church Road,Hove,,BN3 4AB,Brighton and Hove,AwaitingInspection,,FHRS,False,50.829367,-0.180299,"Hove Museum, 19 New Church Road, Hove, BN3 4AB"
2026-01-03,1904485,Indigo Indian Fusion,Restaurant/Cafe/Canteen,24 Preston Street,Brighton,,,BN1 2HN,Brighton and Hove,AwaitingInspection,,FHRS,False,50.8232308,-0.1513635,"24 Preston Street, Brighton, BN1 2HN"
2026-01-03,736555,Blitz Tearoom (The),Restaurant/Cafe/Canteen,,22 Waterloo Street,Weston-Super-Mare,,BS23 1LN,North Somerset,5,2025-06-19,FHRS,False,51.349968,-2.977638,"22 Waterloo Street, Weston-Super-Mare, BS23 1LN"
2026-01-03,1469416,Mustard,Restaurant/Cafe/Canteen,,21 Old Street,Clevedon,North Somerset,BS21 6ND,North Somerset,5,2023-02-03,FHRS,False,51.436452,-2.85094,"21 Old Street, Clevedon, North Somerset, BS21 6ND"
2026-01-03,186244,Treats Cafe,Restaurant/Cafe/Canteen,,48 Meadow Street,Weston-Super-Mare,North Somerset,BS23 1QH,North Somerset,5,2024-08-01,FHRS,False,51.348258,-2.976812,"48 Meadow Street, Weston-Super-Mare, North Somerset, BS23 1QH"
2026-01-03,1887875,Unit 27,Restaurant/Cafe/Canteen,Unit 27 Weston Business Park,Laneys Drove,Locking,Weston-Super-Mare,BS24 8RA,North Somerset,AwaitingInspection,,FHRS,False,51.338226,-2.9315,"Unit 27 Weston Business Park, Laneys Drove, Locking, Weston-Super-Mare, BS24 8RA"
2026-01-03,1904471,Ruddington Pizza Kitchen,Restaurant/Cafe/Canteen,18 High Street,Ruddington,Nottinghamshire,,NG11 6EH,Rushcliffe,AwaitingInspection,,FHRS,False,52.891963,-1.14956,"18 High Street, Ruddington, Nottinghamshire, NG11 6EH"
2026-01-03,1904473,Asian Bites,Restaurant/Cafe/Canteen,Unit 3 The Food Hall,Lockmeadow Leisure Complex,Barker Road,Maidstone,ME16 8LW,Maidstone,AwaitingInspection,,FHRS,False,51.2698482,0.5188143,"Unit 3 The Food Hall, Lockmeadow Leisure Complex, Barker Road, Maidstone, ME16 8LW"
2026-01-03,1904472,Masala Banks,Restaurant/Cafe/Canteen,76 Bank Street,Maidstone,Kent,,ME14 1SJ,Maidstone,AwaitingInspection,,FHRS,False,51.272943,0.52146,"76 Bank Street, Maidstone, Kent, ME14 1SJ"
2026-01-03,1904572,Dessert Haus,Restaurant/Cafe/Canteen,,601 Lincoln Road,Peterborough,,PE1 3HA,Peterborough City,AwaitingInspection,,FHRS,False,52.5923801,-0.2546216,"601 Lincoln Road, Peterborough, PE1 3HA"
2026-01-05,1904613,Yi-Ban Restaurant,Restaurant/Cafe/Canteen,Yi Ban Restaurant,London Regatta Centre,1010 Dockside Road,West Beckton,E16 2QT,Newham,AwaitingInspection,,FHRS,True,,,"Yi Ban Restaurant, London Regatta Centre, 1010 Dockside Road, West Beckton, E16 2QT"
2026-01-06,1904838,BAR 82,Restaurant/Cafe/Canteen,16 Red Lion Yard,Colchester,Essex,,CO1 1DX,Colchester,AwaitingInspection,,FHRS,False,,,"16 Red Lion Yard, Colchester, Essex, CO1 1DX"
2026-01-06,1904839,DARPAN,Restaurant/Cafe/Canteen,39-39A St Johns Street,Colchester,Essex,,CO2 7AD,Colchester,AwaitingInspection,,FHRS,False,51.887761,0.8982048,"39-39A St Johns Street, Colchester, Essex, CO2 7AD"
2026-01-06,1904729,CAFETRUMPINGTON LTD,Restaurant/Cafe/Canteen,77 Osprey Drive,,South Trumpington,Cambridgeshire,CB2 9FU,South Cambridgeshire,AwaitingInspection,,FHRS,False,52.1691685,0.1047037,"77 Osprey Drive, South Trumpington, Cambridgeshire, CB2 9FU"
2026-01-06,1904649,Griff's,Restaurant/Cafe/Canteen,Sixth Floor To Seventh Floor 4 Capital Quarter Tyndall Street,Butetown,Cardiff,,CF10 4BZ,Caerdydd,AwaitingInspection,,FHRS,False,51.476567,-3.1704788,"Sixth Floor To Seventh Floor 4 Capital Quarter Tyndall Street, Butetown, Cardiff, CF10 4BZ"
2026-01-06,1904645,HF SPOT,Restaurant/Cafe/Canteen,132A Albany Road,Roath,Cardiff,,CF24 3RU,Caerdydd,AwaitingInspection,,FHRS,False,51.4940033,-3.1636116,"132A Albany Road, Roath, Cardiff, CF24 3RU"
2026-01-06,1904651,Syriana Grill House,Restaurant/Cafe/Canteen,72 - 74 City Road,Roath,Cardiff,,CF24 3DD,Caerdydd,AwaitingInspection,,FHRS,False,51.4878666,-3.1667393,"72 - 74 City Road, Roath, Cardiff, CF24 3DD"
2026-01-06,1904648,WHOCULT,Restaurant/Cafe/Canteen,Red Dragon Centre Hemingway Road,Butetown,Cardiff,,,Caerdydd,AwaitingInspection,,FHRS,False,51.4668115,-3.1636112,"Red Dragon Centre Hemingway Road, Butetown, Cardiff"
2026-01-06,1904691,Eastbourne Indian & Nepalese Spice,Restaurant/Cafe/Canteen,6 Susans Road,Eastbourne,East Sussex,,BN21 3HA,Eastbourne,AwaitingInspection,,FHRS,False,50.768288,0.289593,"6 Susans Road, Eastbourne, East Sussex, BN21 3HA"
2026-01-06,1904697,9 Elms Burgers,Restaurant/Cafe/Canteen,355A - 355B Wandsworth Road,London,,,SW8 2JH,Lambeth,AwaitingInspection,,FHRS,False,51.475156,-0.131361,"355A - 355B Wandsworth Road, London, SW8 2JH"
2026-01-06,1904705,Biryaniology,Restaurant/Cafe/Canteen,18 The High Parade,Streatham High Road,London,,SW16 1EX,Lambeth,AwaitingInspection,,FHRS,False,51.434615,-0.12788,"18 The High Parade, Streatham High Road, London, SW16 1EX"
2026-01-06,1904702,Crumble Mania,Restaurant/Cafe/Canteen,7 - 11 South Lambeth Place,London,,,SW8 1SP,Lambeth,AwaitingInspection,,FHRS,False,51.485563,-0.123662,"7 - 11 South Lambeth Place, London, SW8 1SP"
2026-01-06,1904703,Fergani Trading,Restaurant/Cafe/Canteen,383 Wandsworth Road,London,,,SW8 2JL,Lambeth,AwaitingInspection,,FHRS,False,51.4742721,-0.1323246,"383 Wandsworth Road, London, SW8 2JL"
2026-01-06,1904706,Monaco,Restaurant/Cafe/Canteen,Arch 574,30 Brixton Station Road,London,,SW9 8PD,Lambeth,AwaitingInspection,,FHRS,False,51.4631462,-0.113113,"Arch 574, 30 Brixton Station Road, London, SW9 8PD"
2026-01-06,1904832,OPO Bakery - Slab City,Restaurant/Cafe/Canteen,76 Landor Road,London,,,SW9 9PH,Lambeth,AwaitingInspection,,FHRS,False,51.4657133,-0.1257055,"76 Landor Road, London, SW9 9PH"
2026-01-06,1904709,Rehoboth Eatery,Restaurant/Cafe/Canteen,1 Brixton Station Road,London,,,SW9 8PA,Lambeth,AwaitingInspection,,FHRS,False,51.463558,-0.114128,"1 Brixton Station Road, London, SW9 8PA"
2026-01-06,1904698,Sana Desserts,Restaurant/Cafe/Canteen,355A - 355B Wandsworth Road,London,,,SW8 2JH,Lambeth,AwaitingInspection,,FHRS,False,51.475156,-0.131361,"355A - 355B Wandsworth Road, London, SW8 2JH"
2026-01-06,1904704,Umo,Restaurant/Cafe/Canteen,6 Station Rise,London,,,SE27 9BW,Lambeth,AwaitingInspection,,FHRS,False,51.439898,-0.105721,"6 Station Rise, London, SE27 9BW"
2026-01-06,1904660,Cool Beans,Restaurant/Cafe/Canteen,,12 Willow Sage Court,,Stockton-on-tees,TS18 3UQ,Stockton On Tees,AwaitingInspection,,FHRS,False,54.5420234,-1.3166971,"12 Willow Sage Court, Stockton-on-tees, TS18 3UQ"
2026-01-06,1422003,Mak Halal,Restaurant/Cafe/Canteen,42 Bradford Street,Walsall,,West Mids,WS1 3QA,Walsall,5,2022-01-12,FHRS,False,52.58132593,-1.98458709,"42 Bradford Street, Walsall, West Mids, WS1 3QA"
2026-01-06,1904842,Kurdistan Cafe,Restaurant/Cafe/Canteen,21 Bargate Drive,Wolverhampton,West Midlands,,WV6 0QW,Wolverhampton,AwaitingInspection,,FHRS,False,52.5937046,-2.1429533,"21 Bargate Drive, Wolverhampton, West Midlands, WV6 0QW"
2026-01-06,1904649,Griff's,Restaurant/Cafe/Canteen,Sixth Floor To Seventh Floor 4 Capital Quarter Tyndall Street,Butetown,Cardiff,,CF10 4BZ,Cardiff,AwaitingInspection,,FHRS,False,51.476567,-3.1704788,"Sixth Floor To Seventh Floor 4 Capital Quarter Tyndall Street, Butetown, Cardiff, CF10 4BZ"
2026-01-06,1904645,HF SPOT,Restaurant/Cafe/Canteen,132A Albany Road,Roath,Cardiff,,CF24 3RU,Cardiff,AwaitingInspection,,FHRS,False,51.4940033,-3.1636116,"132A Albany Road, Roath, Cardiff, CF24 3RU"
2026-01-06,1904651,Syriana Grill House,Restaurant/Cafe/Canteen,72 - 74 City Road,Roath,Cardiff,,CF24 3DD,Cardiff,AwaitingInspection,,FHRS,False,51.4878666,-3.1667393,"72 - 74 City Road, Roath, Cardiff, CF24 3DD"
2026-01-06,1904648,WHOCULT,Restaurant/Cafe/Canteen,Red Dragon Centre Hemingway Road,Butetown,Cardiff,,,Cardiff,AwaitingInspection,,FHRS,False,51.4668115,-3.1636112,"Red Dragon Centre Hemingway Road, Butetown, Cardiff"
2026-01-06,1904752,BaxterStorey - Nisbets A18,Restaurant/Cafe/Canteen,Unit 8,Access 18,Avonmouth,Bristol,BS11 8HT,Bristol,AwaitingInspection,,FHRS,False,,,"Unit 8, Access 18, Avonmouth, Bristol, BS11 8HT"
2026-01-06,1904751,Butters Bakery,Restaurant/Cafe/Canteen,,,,,,Bristol,AwaitingInspection,,FHRS,False,,,
2026-01-06,1904759,Drinkbrink,Restaurant/Cafe/Canteen,,,,,,Bristol,AwaitingInspection,,FHRS,False,,,
2026-01-06,1904748,Gyreefic/Gyreeka/La Grano,Restaurant/Cafe/Canteen,,2 Harcourt Road,Westbury Park,Bristol,BS6 7RG,Bristol,AwaitingInspection,,FHRS,False,51.47737,-2.60723,"2 Harcourt Road, Westbury Park, Bristol, BS6 7RG"
2026-01-06,1278278,On A Roll,Restaurant/Cafe/Canteen,,3 Arnside Road,Southmead,Bristol,BS10 6AT,Bristol,3,2025-05-01,FHRS,False,51.503732,-2.60225,"3 Arnside Road, Southmead, Bristol, BS10 6AT"
2026-01-06,1904749,Vel Distributors,Restaurant/Cafe/Canteen,,,,,,Bristol,AwaitingInspection,,FHRS,False,,,
2026-01-06,1904758,Yummiz,Restaurant/Cafe/Canteen,,3 Gas Lane,St Philips,Bristol,BS2 0QL,Bristol,AwaitingInspection,,FHRS,False,51.450832,-2.57411,"3 Gas Lane, St Philips, Bristol, BS2 0QL"
2026-01-06,1904617,P’s Pizzeria,Restaurant/Cafe/Canteen,6 New Road,,Warboys,Cambridgeshire,PE28 2SS,Huntingdonshire,AwaitingInspection,,FHRS,False,52.401588,-0.0722889,"6 New Road, Warboys, Cambridgeshire, PE28 2SS"
2026-01-06,1904686,Nando's,Restaurant/Cafe/Canteen,Nando's,1 Queens Drive,Kilmarnock,East Ayrshire,KA1 3XF,East Ayrshire,Awaiting Inspection,2026-01-05,FHIS,False,55.6010579,-4.4899281,"Nando's, 1 Queens Drive, Kilmarnock, East Ayrshire, KA1 3XF"
2026-01-06,1904767,Cappadocia,Restaurant/Cafe/Canteen,,84-86 Mersey Street,,,WA1 2BP,Warrington,AwaitingInspection,,FHRS,False,53.3886492,-2.5885184,"84-86 Mersey Street, WA1 2BP"
2026-01-06,1904763,Jamaica Blue,Restaurant/Cafe/Canteen,"""Golden Square Shopping Centre",34 The Mall,,,WA1 1QP,Warrington,AwaitingInspection,,FHRS,False,53.3905728,-2.5966235,"""Golden Square Shopping Centre, 34 The Mall, WA1 1QP"
2026-01-06,1904769,Orford Perk,Restaurant/Cafe/Canteen,,9a School Road,,,WA2 9AB,Warrington,AwaitingInspection,,FHRS,False,53.4073167,-2.5815581,"9a School Road, WA2 9AB"
2026-01-06,1904760,Village Farmhouse & Coffee Shop,Restaurant/Cafe/Canteen,,22-24 Bridge Street,,,WA1 2QW,Warrington,AwaitingInspection,,FHRS,False,53.3882989,-2.593445,"22-24 Bridge Street, WA1 2QW"
2026-01-06,1904830,Craft Burger,Restaurant/Cafe/Canteen,,567 Durham Road,Gateshead,,NE9 5EY,Gateshead,AwaitingInspection,,FHRS,False,54.9343091,-1.5990122,"567 Durham Road, Gateshead, NE9 5EY"
2026-01-06,1904822,Dript,Restaurant/Cafe/Canteen,Units 45 To 46 Birtley Business Centre,Station Lane,Birtley Central,Birtley,DH3 1QT,Gateshead,AwaitingInspection,,FHRS,False,54.8959854,-1.5838624,"Units 45 To 46 Birtley Business Centre, Station Lane, Birtley Central, Birtley, DH3 1QT"
2026-01-06,1904826,Primavera,Restaurant/Cafe/Canteen,,568a Durham Road,Gateshead,,NE9 6HX,Gateshead,AwaitingInspection,,FHRS,False,54.9352014,-1.5998462,"568a Durham Road, Gateshead, NE9 6HX"
2026-01-06,1904823,The Lounge,Restaurant/Cafe/Canteen,Community Lounge,Boltons Bungalows,Chopwell,Newcastle Upon Tyne,NE17 7EP,Gateshead,AwaitingInspection,,FHRS,False,54.9135231,-1.8155721,"Community Lounge, Boltons Bungalows, Chopwell, Newcastle Upon Tyne, NE17 7EP"
2026-01-06,1904807,5 Dumplings,Restaurant/Cafe/Canteen,3 Wheatfield Street,Edinburgh,,,EH11 2NZ,Edinburgh (City of),Awaiting Inspection,2025-12-30,FHIS,False,55.937833,-3.233987,"3 Wheatfield Street, Edinburgh, EH11 2NZ"
2026-01-06,1904802,Buon Gusto,Restaurant/Cafe/Canteen,16 Buckstone Terrace,Edinburgh,,,EH10 6PZ,Edinburgh (City of),Awaiting Inspection,,FHIS,False,55.90854,-3.209572,"16 Buckstone Terrace, Edinburgh, EH10 6PZ"
2026-01-06,1904797,Chickoop,Restaurant/Cafe/Canteen,214 Dalry Road,Edinburgh,,,EH11 2ES,Edinburgh (City of),Awaiting Inspection,2025-12-22,FHIS,False,55.940658,-3.224647,"214 Dalry Road, Edinburgh, EH11 2ES"
2026-01-06,1904789,Edinburgh Zoo - Staff Canteen,Restaurant/Cafe/Canteen,134 Corstorphine Road,Edinburgh,,,EH12 6TS,Edinburgh (City of),Awaiting Inspection,2025-12-19,FHIS,False,55.942182,-3.269349,"134 Corstorphine Road, Edinburgh, EH12 6TS"
2026-01-06,1904806,Five Dumpling Street,Restaurant/Cafe/Canteen,87 Newhaven Road,Edinburgh,,,EH6 5QJ,Edinburgh (City of),Awaiting Inspection,2025-12-30,FHIS,False,,,"87 Newhaven Road, Edinburgh, EH6 5QJ"
2026-01-06,1904809,Frenchie,Restaurant/Cafe/Canteen,14 Broughton Street,Edinburgh,,,EH1 3RH,Edinburgh (City of),Awaiting Inspection,2025-12-30,FHIS,False,55.957176,-3.188601,"14 Broughton Street, Edinburgh, EH1 3RH"
2026-01-06,1904790,Grasslands Restaurant,Restaurant/Cafe/Canteen,134 Corstorphine Road,Edinburgh,,,EH12 6TS,Edinburgh (City of),Awaiting Inspection,2025-12-19,FHIS,False,55.942182,-3.269349,"134 Corstorphine Road, Edinburgh, EH12 6TS"
2026-01-06,1904796,Koko Bean,Restaurant/Cafe/Canteen,88 Easter Road,Edinburgh,,,EH7 5RQ,Edinburgh (City of),Awaiting Inspection,2025-12-22,FHIS,False,55.9587731,-3.1715104,"88 Easter Road, Edinburgh, EH7 5RQ"
2026-01-06,1904803,Korean BBQ,Restaurant/Cafe/Canteen,22 Coates Crescent,Edinburgh,,,EH3 7AF,Edinburgh (City of),Awaiting Inspection,2025-12-28,FHIS,False,55.9483413696289,-3.21352005004883,"22 Coates Crescent, Edinburgh, EH3 7AF"
2026-01-06,1904798,Malay Laska,Restaurant/Cafe/Canteen,Registered Street Trader,Edinburgh,,,EH5 1QD,Edinburgh (City of),Awaiting Inspection,2025-12-22,FHIS,False,,,"Registered Street Trader, Edinburgh, EH5 1QD"
2026-01-06,1904793,Penguin Cafe,Restaurant/Cafe/Canteen,134 Corstorphine Road,Edinburgh,,,EH12 6TS,Edinburgh (City of),Awaiting Inspection,2025-12-19,FHIS,False,55.942182,-3.269349,"134 Corstorphine Road, Edinburgh, EH12 6TS"
2026-01-06,1904792,Sloth Kiosk,Restaurant/Cafe/Canteen,134 Corstorphine Road,Edinburgh,,,EH12 6TS,Edinburgh (City of),Awaiting Inspection,2025-12-19,FHIS,False,55.942182,-3.269349,"134 Corstorphine Road, Edinburgh, EH12 6TS"
2026-01-06,1904799,Tapas3,Restaurant/Cafe/Canteen,6-8 Howden Street,Edinburgh,,,EH8 9HL,Edinburgh (City of),Awaiting Inspection,2025-12-23,FHIS,False,55.944089,-3.1821107,"6-8 Howden Street, Edinburgh, EH8 9HL"
2026-01-06,1904804,The Daaler,Restaurant/Cafe/Canteen,Registered Street Trader,Edinburgh,,,EH16 4AW,Edinburgh (City of),Awaiting Inspection,2025-12-29,FHIS,False,,,"Registered Street Trader, Edinburgh, EH16 4AW"
2026-01-06,1904808,The Elephant House,Restaurant/Cafe/Canteen,21 George Iv Bridge,Edinburgh,,,EH1 1EN,Edinburgh (City of),Awaiting Inspection,2025-12-30,FHIS,False,55.9475363,-3.1917793,"21 George Iv Bridge, Edinburgh, EH1 1EN"
2026-01-06,1904791,The Gannet,Restaurant/Cafe/Canteen,134 Corstorphine Road,Edinburgh,,,EH12 6TS,Edinburgh (City of),Awaiting Inspection,2025-12-19,FHIS,False,55.942182,-3.269349,"134 Corstorphine Road, Edinburgh, EH12 6TS"
2026-01-06,1904788,The Mansion House,Restaurant/Cafe/Canteen,134 Corstorphine Road,Edinburgh,,,EH12 6TS,Edinburgh (City of),Awaiting Inspection,2025-12-19,FHIS,False,55.942182,-3.269349,"134 Corstorphine Road, Edinburgh, EH12 6TS"
2026-01-06,1904787,The Tartan Loft Ltd,Restaurant/Cafe/Canteen,16 Buckstone Terrace,Edinburgh,,,EH10 6PZ,Edinburgh (City of),Awaiting Inspection,2025-12-19,FHIS,False,55.90854,-3.209572,"16 Buckstone Terrace, Edinburgh, EH10 6PZ"
2026-01-06,1904786,Zavi Wholesale,Restaurant/Cafe/Canteen,3b Bankhead Avenue,Edinburgh,,,EH11 4AA,Edinburgh (City of),Awaiting Inspection,,FHIS,False,55.9235076,-3.2925984,"3b Bankhead Avenue, Edinburgh, EH11 4AA"
2026-01-06,1904626,Planet Pizza & Chicken,Restaurant/Cafe/Canteen,313 High Street,Chatham,Medway,,ME4 4BN,Medway,AwaitingInspection,,FHRS,False,51.380711,0.5294185,"313 High Street, Chatham, Medway, ME4 4BN"
2026-01-06,1904667,Bara london limited,Restaurant/Cafe/Canteen,,44,Choumert Road,London,SE15 4SE,Southwark,AwaitingInspection,,FHRS,False,51.468194,-0.068554,"44, Choumert Road, London, SE15 4SE"
2026-01-06,1904673,Brandon burger,Restaurant/Cafe/Canteen,,1-3,Maddock Way,London,SE17 3NH,Southwark,AwaitingInspection,,FHRS,False,51.48273,-0.102967,"1-3, Maddock Way, London, SE17 3NH"
2026-01-06,1556854,Taggs coffee co.,Restaurant/Cafe/Canteen,,114,Camberwell Road,London,SE5 0EE,Southwark,5,2022-11-01,FHRS,False,51.4806348,-0.0946195,"114, Camberwell Road, London, SE5 0EE"
2026-01-06,1904677,Ensorcell and brew,Restaurant/Cafe/Canteen,5-6 Harold Place,Hastings,East Sussex,,TN34 1JA,Hastings,AwaitingInspection,,FHRS,False,50.855252,0.579966,"5-6 Harold Place, Hastings, East Sussex, TN34 1JA"
2026-01-06,1904678,Rustico Via,Restaurant/Cafe/Canteen,395 Old London Road,Hastings,East Sussex,,TN35 5BD,Hastings,AwaitingInspection,,FHRS,False,50.8718553,0.6084718,"395 Old London Road, Hastings, East Sussex, TN35 5BD"
2026-01-06,1904812,Baba Turkish Restaurant,Restaurant/Cafe/Canteen,,3-5 Gedling Street,,Nottingham,NG1 1DS,Nottingham City,AwaitingInspection,,FHRS,False,52.9540997,-1.1394384,"3-5 Gedling Street, Nottingham, NG1 1DS"
2026-01-06,1904821,Pulp & Prints Community Café,Restaurant/Cafe/Canteen,,553 Farnborough Road,,Nottingham,NG11 9DG,Nottingham City,AwaitingInspection,,FHRS,False,,,"553 Farnborough Road, Nottingham, NG11 9DG"
2026-01-06,1904820,Sipping Boba City Centre,Restaurant/Cafe/Canteen,,7 Beastmarket Hill,,Nottingham,NG1 6FB,Nottingham City,AwaitingInspection,,FHRS,False,52.95315,-1.151456,"7 Beastmarket Hill, Nottingham, NG1 6FB"
2026-01-06,1904777,Dalewood Trust- Calla Cafe,Restaurant/Cafe/Canteen,Eastside Community Centre Abbots Road,,,Whitby,YO22 4EB,North Yorkshire,AwaitingInspection,,FHRS,False,54.4775117,-0.6050874,"Eastside Community Centre Abbots Road, Whitby, YO22 4EB"
2026-01-06,1887101,Ivy's Tea Rooms,Restaurant/Cafe/Canteen,2 Market Place,,,Pickering,YO18 7AA,North Yorkshire,5,2025-08-11,FHRS,False,54.245845,-0.7769929,"2 Market Place, Pickering, YO18 7AA"
2026-01-06,1879433,Scarborough Cricket Club,Restaurant/Cafe/Canteen,118 North Marine Road,,,Scarborough,YO12 7TJ,North Yorkshire,5,2024-03-22,FHRS,False,54.2887303,-0.404131,"118 North Marine Road, Scarborough, YO12 7TJ"
2026-01-06,1879568,Scarborough RUFC,Restaurant/Cafe/Canteen,Silver Royd 569 Scalby Road,,,Scarborough,YO13 0NL,North Yorkshire,5,2024-06-19,FHRS,False,54.3080947,-0.4443602,"Silver Royd 569 Scalby Road, Scarborough, YO13 0NL"
2026-01-06,1904775,Sunkissed Studio,Restaurant/Cafe/Canteen,Unit 3 Apex Court,Sowerby,,Thirsk,YO7 3TQ,North Yorkshire,AwaitingInspection,,FHRS,False,54.2196501,-1.3553351,"Unit 3 Apex Court, Sowerby, Thirsk, YO7 3TQ"
2026-01-06,1904690,COCO NELSON,Restaurant/Cafe/Canteen,56 Manchester Road,Nelson,Lancashire,,BB9 7EJ,Pendle,AwaitingInspection,,FHRS,False,53.8357416,-2.2169275,"56 Manchester Road, Nelson, Lancashire, BB9 7EJ"
2026-01-06,1904781,George Caffee,Restaurant/Cafe/Canteen,1 Aberdare Market,Market Street,Aberdare,,CF44 7EB,Rhondda Cynon Taf,AwaitingInspection,,FHRS,False,51.7131117,-3.443626,"1 Aberdare Market, Market Street, Aberdare, CF44 7EB"
2026-01-06,1904782,Mount Ash Munchies,Restaurant/Cafe/Canteen,Rhydyfelin Non Political Club,Poplar Road,Rhydyfelin,Pontypridd,CF37 5LS,Rhondda Cynon Taf,AwaitingInspection,,FHRS,False,,,"Rhydyfelin Non Political Club, Poplar Road, Rhydyfelin, Pontypridd, CF37 5LS"
2026-01-06,1904783,Rhigos Community Coffee Morning,Restaurant/Cafe/Canteen,The Community Hall,Heol Esgyn,Rhigos,Aberdare,CF44 9BJ,Rhondda Cynon Taf,AwaitingInspection,,FHRS,False,,,"The Community Hall, Heol Esgyn, Rhigos, Aberdare, CF44 9BJ"
2026-01-06,1904780,The Rhondda Herb Project,Restaurant/Cafe/Canteen,Municipal Offices,Llewellyn Street,Pentre,,CF41 7BT,Rhondda Cynon Taf,AwaitingInspection,,FHRS,False,51.6535797,-3.4901026,"Municipal Offices, Llewellyn Street, Pentre, CF41 7BT"
2026-01-06,1904640,Cedar Cafe,Restaurant/Cafe/Canteen,Highfield Park Llangwyfan,,Denbigh,,LL16 4LU,Denbighshire,AwaitingInspection,,FHRS,False,,,"Highfield Park Llangwyfan, Denbigh, LL16 4LU"
2026-01-06,1904640,Cedar Cafe,Restaurant/Cafe/Canteen,Highfield Park Llangwyfan,,Denbigh,,LL16 4LU,Sir Ddinbych,AwaitingInspection,,FHRS,False,,,"Highfield Park Llangwyfan, Denbigh, LL16 4LU"
2026-01-06,1904620,Indian Brewery Company,Restaurant/Cafe/Canteen,Terminal 1,Birmingham International Airport,Airport Way,Birmingham Airport,B26 3QZ,Solihull,AwaitingInspection,,FHRS,False,,,"Terminal 1, Birmingham International Airport, Airport Way, Birmingham Airport, B26 3QZ"
2026-01-06,1904781,George Caffee,Restaurant/Cafe/Canteen,1 Aberdare Market,Market Street,Aberdare,,CF44 7EB,Rhondda Cynon Taf,AwaitingInspection,,FHRS,False,51.7131117,-3.443626,"1 Aberdare Market, Market Street, Aberdare, CF44 7EB"
2026-01-06,1904782,Mount Ash Munchies,Restaurant/Cafe/Canteen,Rhydyfelin Non Political Club,Poplar Road,Rhydyfelin,Pontypridd,CF37 5LS,Rhondda Cynon Taf,AwaitingInspection,,FHRS,False,,,"Rhydyfelin Non Political Club, Poplar Road, Rhydyfelin, Pontypridd, CF37 5LS"
2026-01-06,1904783,Rhigos Community Coffee Morning,Restaurant/Cafe/Canteen,The Community Hall,Heol Esgyn,Rhigos,Aberdare,CF44 9BJ,Rhondda Cynon Taf,AwaitingInspection,,FHRS,False,,,"The Community Hall, Heol Esgyn, Rhigos, Aberdare, CF44 9BJ"
2026-01-06,1904780,The Rhondda Herb Project,Restaurant/Cafe/Canteen,Municipal Offices,Llewellyn Street,Pentre,,CF41 7BT,Rhondda Cynon Taf,AwaitingInspection,,FHRS,False,51.6535797,-3.4901026,"Municipal Offices, Llewellyn Street, Pentre, CF41 7BT"
2026-01-07,1904876,The Cakery,Restaurant/Cafe/Canteen,,,,,,Wigan,AwaitingInspection,,FHRS,False,,,
2026-01-07,1905127,The View Cafe,Restaurant/Cafe/Canteen,Osea Leisure Park,Goldhanger Road,Heybridge,Maldon,CM9 4SA,Maldon,AwaitingInspection,,FHRS,False,51.733957,0.727761,"Osea Leisure Park, Goldhanger Road, Heybridge, Maldon, CM9 4SA"
2026-01-07,1905103,Desserts At The Gate,Restaurant/Cafe/Canteen,Kiosk 2,Westgate,Halifax,Calderdale,HX1 1DJ,Calderdale,AwaitingInspection,,FHRS,False,53.7215428,-1.8596233,"Kiosk 2, Westgate, Halifax, Calderdale, HX1 1DJ"
2026-01-07,1905100,Simple Food,Restaurant/Cafe/Canteen,Lowfields Business Park,Lowfields Way,Lowfields,Elland,,Calderdale,AwaitingInspection,,FHRS,False,,,"Lowfields Business Park, Lowfields Way, Lowfields, Elland"
2026-01-07,1905102,Street Food At The Gate,Restaurant/Cafe/Canteen,Kiosk 1,Westgate,Halifax,Calderdale,HX1 1DJ,Calderdale,AwaitingInspection,,FHRS,False,53.7215443,-1.859622,"Kiosk 1, Westgate, Halifax, Calderdale, HX1 1DJ"
2026-01-07,1905105,The Brow Cafe,Restaurant/Cafe/Canteen,14 Rochdale Road,Greetland,Elland,Calderdale,HX4 8AL,Calderdale,AwaitingInspection,,FHRS,False,53.6879535,-1.8550381,"14 Rochdale Road, Greetland, Elland, Calderdale, HX4 8AL"
2026-01-07,1905106,The Snackery,Restaurant/Cafe/Canteen,Unit 6,Kirklees Steel Works,Grove Street,Brighouse,HD6 1PL,Calderdale,AwaitingInspection,,FHRS,False,53.7011334,-1.7753512,"Unit 6, Kirklees Steel Works, Grove Street, Brighouse, HD6 1PL"
2026-01-07,1904928,Malikas Asian Fusion,Restaurant/Cafe/Canteen,491 Marston Road,Oxford,Oxfordshire,,OX3 0JQ,Oxford City,AwaitingInspection,,FHRS,False,51.767112,-1.232747,"491 Marston Road, Oxford, Oxfordshire, OX3 0JQ"
2026-01-07,1904923,Namaskar,Restaurant/Cafe/Canteen,6 Park End Street,Oxford,Oxfordshire,,OX1 1HH,Oxford City,AwaitingInspection,,FHRS,False,51.752936,-1.265583,"6 Park End Street, Oxford, Oxfordshire, OX1 1HH"
2026-01-07,1904922,Ramen Koncept,Restaurant/Cafe/Canteen,1 The Parade,Windmill Road,Oxford,Oxfordshire,OX3 7BL,Oxford City,AwaitingInspection,,FHRS,False,51.759871,-1.210514,"1 The Parade, Windmill Road, Oxford, Oxfordshire, OX3 7BL"
2026-01-07,1904926,Santander Work Cafe,Restaurant/Cafe/Canteen,Ground Basement And First Floor,Abbey House,121 St Aldate's,Oxford,OX1 1EJ,Oxford City,AwaitingInspection,,FHRS,False,51.7517589,-1.2577916,"Ground Basement And First Floor, Abbey House, 121 St Aldate's, Oxford, OX1 1EJ"
2026-01-07,1904883,Ranch Cafe,Restaurant/Cafe/Canteen,30 Croftlands,Dewsbury,,,WF12 7EP,Kirklees,AwaitingInspection,,FHRS,False,53.7024588,-1.6113786,"30 Croftlands, Dewsbury, WF12 7EP"
2026-01-07,1904881,The Bridge Kitchen,Restaurant/Cafe/Canteen,3 Huddersfield Road,Honley,Holmfirth,,HD9 6PE,Kirklees,AwaitingInspection,,FHRS,False,53.6046337,-1.7887373,"3 Huddersfield Road, Honley, Holmfirth, HD9 6PE"
2026-01-07,1905000,AL AREZ,Restaurant/Cafe/Canteen,,268 West End Lane,,London,NW6 1LJ,Camden,AwaitingInspection,,FHRS,False,51.5517933,-0.1917235,"268 West End Lane, London, NW6 1LJ"
2026-01-07,1904973,ART & BAZZAR Ltd,Restaurant/Cafe/Canteen,,119 Kentish Town Road,,London,NW1 8PB,Camden,AwaitingInspection,,FHRS,False,51.5443932,-0.1416984,"119 Kentish Town Road, London, NW1 8PB"
2026-01-07,1905002,"Casa Jako,",Restaurant/Cafe/Canteen,,29-30 High Holborn,,London,WC1V 6AZ,Camden,AwaitingInspection,,FHRS,False,51.5185425,-0.1131739,"29-30 High Holborn, London, WC1V 6AZ"
2026-01-07,1904999,CHULAH,Restaurant/Cafe/Canteen,,18 Store Street,,London,WC1E 7DH,Camden,AwaitingInspection,,FHRS,False,51.5199395,-0.1319125,"18 Store Street, London, WC1E 7DH"
2026-01-07,1905003,Copains,Restaurant/Cafe/Canteen,,54 Neal Street,,London,WC2H 9PA,Camden,AwaitingInspection,,FHRS,False,51.5146447,-0.1258308,"54 Neal Street, London, WC2H 9PA"
2026-01-07,1904987,CREAMS,Restaurant/Cafe/Canteen,246-248,Kentish Town Road,,London,NW5 2AB,Camden,AwaitingInspection,,FHRS,False,51.5493677,-0.1406591,"246-248, Kentish Town Road, London, NW5 2AB"
2026-01-07,1904981,JAQUERIA DON CHUY,Restaurant/Cafe/Canteen,,109 Camden High Street,,London,NW1 7JN,Camden,AwaitingInspection,,FHRS,False,51.5369404,-0.1412667,"109 Camden High Street, London, NW1 7JN"
2026-01-07,1904988,KILL BEAN,Restaurant/Cafe/Canteen,,207 Belsize Road,,London,NW6 4AA,Camden,AwaitingInspection,,FHRS,False,51.5383761,-0.1905395,"207 Belsize Road, London, NW6 4AA"
2026-01-07,1904976,Lexington @ BT Tower,Restaurant/Cafe/Canteen,,60 Cleveland Street,,London,W1T 4JZ,Camden,5,2025-11-24,FHRS,False,,,"60 Cleveland Street, London, W1T 4JZ"
2026-01-07,1904997,MASA TACOS,Restaurant/Cafe/Canteen,Seven Dials Market,Earlham Street,,London,WC2H 9LX,Camden,AwaitingInspection,,FHRS,False,51.5140571594238,-0.125710994005203,"Seven Dials Market, Earlham Street, London, WC2H 9LX"
2026-01-07,1904977,MITSURYU,Restaurant/Cafe/Canteen,,9 South End Road,,London,NW3 2PT,Camden,AwaitingInspection,,FHRS,True,51.5543239,-0.1658886,"9 South End Road, London, NW3 2PT"
2026-01-07,1904990,Ning Fresh Beef Hot Pot + Cantonese,Restaurant/Cafe/Canteen,,5-7 Tottenham Street,,,W1T 2AG,Camden,AwaitingInspection,,FHRS,True,51.5205895,-0.1348985,"5-7 Tottenham Street, W1T 2AG"
2026-01-07,1904991,PAD THAI CAFE,Restaurant/Cafe/Canteen,Unit M178 Upper Ground Floor A2 Lower Lock,Hawley Wharf,,London,NW1 8RP,Camden,AwaitingInspection,,FHRS,False,,,"Unit M178 Upper Ground Floor A2 Lower Lock, Hawley Wharf, London, NW1 8RP"
2026-01-07,1904993,Restaurant Associates at Virgin,Restaurant/Cafe/Canteen,,50a Charlotte Street,,London,W1T 2NS,Camden,AwaitingInspection,,FHRS,False,51.519861,-0.1354936,"50a Charlotte Street, London, W1T 2NS"
2026-01-07,1904984,Under The Canopy Play Cafe,Restaurant/Cafe/Canteen,,87 Fortess Road,,London,NW5 1AG,Camden,AwaitingInspection,,FHRS,False,51.5547121,-0.140268,"87 Fortess Road, London, NW5 1AG"
2026-01-07,1904937,Aromas Cafe,Restaurant/Cafe/Canteen,Aromas Cafe,11 Church Street,Weybridge,Surrey,KT13 8DE,Elmbridge,AwaitingInspection,,FHRS,False,51.3722954,-0.4595344,"Aromas Cafe, 11 Church Street, Weybridge, Surrey, KT13 8DE"
2026-01-07,1904942,Olive and basil pizzeria,Restaurant/Cafe/Canteen,Olive and basil pizzeria,1 Hampton Court Parade,East Molesey,Surrey,KT8 9HB,Elmbridge,AwaitingInspection,,FHRS,False,51.4015118,-0.3434684,"Olive and basil pizzeria, 1 Hampton Court Parade, East Molesey, Surrey, KT8 9HB"
2026-01-07,1904936,Weybridge Community Hub,Restaurant/Cafe/Canteen,Weybridge Community Hub,Weybridge Library,Church Street,Weybridge,KT13 8DE,Elmbridge,AwaitingInspection,,FHRS,False,51.3720627,-0.4603037,"Weybridge Community Hub, Weybridge Library, Church Street, Weybridge, KT13 8DE"
2026-01-07,1905129,Abercromby Arms,Restaurant/Cafe/Canteen,14 Stirling Road,Tullibody,Clackmannanshire,,FK10 2QE,Clackmannanshire,Awaiting Inspection,2026-01-05,FHIS,False,56.1354873,-3.8369606,"14 Stirling Road, Tullibody, Clackmannanshire, FK10 2QE"
2026-01-07,1905029,DCC Gala Theatre,Restaurant/Cafe/Canteen,1-2 MILLENNIUM PLACE,,DURHAM,,DH1 1WA,Durham,AwaitingInspection,,FHRS,False,,,"1-2 MILLENNIUM PLACE, DURHAM, DH1 1WA"
2026-01-07,1905042,Glasshouse,Restaurant/Cafe/Canteen,9-11 BURNHOPE WAY,,PETERLEE,,SR8 1BT,Durham,AwaitingInspection,,FHRS,False,54.7600699,-1.3361868,"9-11 BURNHOPE WAY, PETERLEE, SR8 1BT"
2026-01-07,1905045,Hobson Golf Club LTD,Restaurant/Cafe/Canteen,HOBSON GOLF CLUB,,HOBSON,,NE16 6BZ,Durham,AwaitingInspection,,FHRS,False,,,"HOBSON GOLF CLUB, HOBSON, NE16 6BZ"
2026-01-07,1905041,Jim's Golden Fry,Restaurant/Cafe/Canteen,2 CRAGHEAD ROAD,,PELTON FELL,,DH2 2NH,Durham,AwaitingInspection,,FHRS,False,54.8583341,-1.6085827,"2 CRAGHEAD ROAD, PELTON FELL, DH2 2NH"
2026-01-07,1905032,Mondo?s Pizzeria,Restaurant/Cafe/Canteen,1 GRANBY TERRACE,,WINGATE,,TS28 5HZ,Durham,AwaitingInspection,,FHRS,False,54.7356115,-1.3801313,"1 GRANBY TERRACE, WINGATE, TS28 5HZ"
2026-01-07,1905050,Pizza Bella,Restaurant/Cafe/Canteen,51 HIGH STREET SOUTH,,LANGLEY MOOR,,DH7 8EU,Durham,AwaitingInspection,,FHRS,False,,,"51 HIGH STREET SOUTH, LANGLEY MOOR, DH7 8EU"
2026-01-07,1905044,Pizza Nova,Restaurant/Cafe/Canteen,PIZZA NOVA PETER LEE COTTAGES,,WHEATLEY HILL,,DH6 3RH,Durham,AwaitingInspection,,FHRS,False,,,"PIZZA NOVA PETER LEE COTTAGES, WHEATLEY HILL, DH6 3RH"
2026-01-07,1905035,SAMBUCA CONSETT,Restaurant/Cafe/Canteen,THE OLD COURTHOUSE VICTORIA ROAD,,CONSETT,,DH8 5AX,Durham,AwaitingInspection,,FHRS,False,,,"THE OLD COURTHOUSE VICTORIA ROAD, CONSETT, DH8 5AX"
2026-01-07,1905025,The Armoury,Restaurant/Cafe/Canteen,21 NORTH TERRACE,,SEAHAM,,SR7 7EU,Durham,AwaitingInspection,,FHRS,False,54.8396165,-1.3325933,"21 NORTH TERRACE, SEAHAM, SR7 7EU"
2026-01-07,1905024,The Bengal Merchant*,Restaurant/Cafe/Canteen,7 THE BANK,,BARNARD CASTLE,,DL12 8PH,Durham,AwaitingInspection,,FHRS,False,54.5419477,-1.9240527,"7 THE BANK, BARNARD CASTLE, DL12 8PH"
2026-01-07,1905047,The Luxury Little Play Company Play Café,Restaurant/Cafe/Canteen,YOUTH CENTRE BURN LANE,,NEWTON AYCLIFFE,,DL5 4HT,Durham,AwaitingInspection,,FHRS,False,,,"YOUTH CENTRE BURN LANE, NEWTON AYCLIFFE, DL5 4HT"
2026-01-07,1905018,The Pavilion Restaurant,Restaurant/Cafe/Canteen,THE PAVILION IVESTON LANE,,IVESTON,,DH8 7TE,Durham,AwaitingInspection,,FHRS,False,,,"THE PAVILION IVESTON LANE, IVESTON, DH8 7TE"
2026-01-07,1891236,Seacrest Fish And Chips,Restaurant/Cafe/Canteen,369 Westborough Road,Westcliff-on-sea,Essex,,SS0 9TS,Southend-On-Sea,AwaitingInspection,,FHRS,True,51.5476194,0.6830866,"369 Westborough Road, Westcliff-on-sea, Essex, SS0 9TS"
2026-01-07,1904555,Subway,Restaurant/Cafe/Canteen,Unit 2,Creation Centre,Back Quay,Truro,TR1 2LL,Cornwall,AwaitingInspection,,FHRS,False,50.2624094,-5.0497348,"Unit 2, Creation Centre, Back Quay, Truro, TR1 2LL"
2026-01-07,510779,The Boathouse Charlestown,Restaurant/Cafe/Canteen,Charlies Boathouse,Charlestown Road,Charlestown,St Austell,PL25 3NJ,Cornwall,5,2022-11-10,FHRS,False,50.33165,-4.75778,"Charlies Boathouse, Charlestown Road, Charlestown, St Austell, PL25 3NJ"
2026-01-07,1905098,Bistro Balsamico,Restaurant/Cafe/Canteen,19 High Street,Edwinstowe,,,NG21 9QP,Newark and Sherwood,AwaitingInspection,,FHRS,False,53.1944278,-1.0641651,"19 High Street, Edwinstowe, NG21 9QP"
2026-01-07,1905139,The Good Shepherds,Restaurant/Cafe/Canteen,Vicarage At Christ The Redeemer,Allenby Road,Southall,,UB1 2HE,Ealing,AwaitingInspection,,FHRS,False,51.5259665,-0.3658408,"Vicarage At Christ The Redeemer, Allenby Road, Southall, UB1 2HE"
2026-01-07,1905056,239 AfroFusion,Restaurant/Cafe/Canteen,,106-108 Sharrow Lane,Sheffield,,S11 8AL,Sheffield,AwaitingInspection,,FHRS,False,53.3677587,-1.4790888,"106-108 Sharrow Lane, Sheffield, S11 8AL"
2026-01-07,1905063,Hanar Cafe,Restaurant/Cafe/Canteen,,560 Abbeydale Road,Sheffield,,S7 1TD,Sheffield,AwaitingInspection,,FHRS,False,53.3563166,-1.4847062,"560 Abbeydale Road, Sheffield, S7 1TD"
2026-01-07,1767555,HARC - Homeless & Rootless at Christmas,Restaurant/Cafe/Canteen,Victoria Hall Methodist Church,Norfolk Street,Sheffield,,S1 2JB,Sheffield,AwaitingInspection,,FHRS,False,53.381728,-1.467043,"Victoria Hall Methodist Church, Norfolk Street, Sheffield, S1 2JB"
2026-01-07,451885,Hawk and Dove,Restaurant/Cafe/Canteen,,7 Thorpe Green,Sheffield,,S20 7HH,Sheffield,AwaitingInspection,,FHRS,True,53.3379359,-1.3558689,"7 Thorpe Green, Sheffield, S20 7HH"
2026-01-07,436426,Heeley Artisan,Restaurant/Cafe/Canteen,,631-633 London Road,Sheffield,,S2 4HT,Sheffield,AwaitingInspection,,FHRS,False,53.359799,-1.473958,"631-633 London Road, Sheffield, S2 4HT"
2026-01-07,1905064,Joe’s Cafe,Restaurant/Cafe/Canteen,,15A Beighton Road,Woodhouse,Sheffield,S13 7PL,Sheffield,AwaitingInspection,,FHRS,False,53.3580452,-1.3649486,"15A Beighton Road, Woodhouse, Sheffield, S13 7PL"
2026-01-07,1905071,Signature falafel and grill,Restaurant/Cafe/Canteen,,419 Ecclesall Road,Sheffield,,S11 8PG,Sheffield,AwaitingInspection,,FHRS,False,53.36985033,-1.49302552,"419 Ecclesall Road, Sheffield, S11 8PG"
2026-01-07,1904872,Dinkys Dinah,Restaurant/Cafe/Canteen,Dinkys Dinah Lay By,Ford,Shrewsbury,Shropshire,SY5 9LG,Shropshire,AwaitingInspection,,FHRS,False,,,"Dinkys Dinah Lay By, Ford, Shrewsbury, Shropshire, SY5 9LG"
2026-01-07,1705909,Shifnal Golf Club,Restaurant/Cafe/Canteen,Shifnal Golf Club,Decker Hill,Shifnal,Shropshire,TF11 8QL,Shropshire,5,2025-12-09,FHRS,False,,,"Shifnal Golf Club, Decker Hill, Shifnal, Shropshire, TF11 8QL"
2026-01-07,1905099,Brotherdough Co.,Restaurant/Cafe/Canteen,4 Arcade Parade,Elm Road,Chessington,,KT9 1AB,Kingston-Upon-Thames,AwaitingInspection,,FHRS,False,51.3674259,-0.3060999,"4 Arcade Parade, Elm Road, Chessington, KT9 1AB"
2026-01-07,1905083,Afghan Imperial Restaurant (AIR),Restaurant/Cafe/Canteen,203  Alum Rock Road,Birmingham,,,B8 1EU,Birmingham,AwaitingInspection,,FHRS,False,,,"203  Alum Rock Road, Birmingham, B8 1EU"
2026-01-07,1905087,Bun and Peri,Restaurant/Cafe/Canteen,870  Washwood Heath Road,Birmingham,,,B8 2NG,Birmingham,AwaitingInspection,,FHRS,False,52.493245,-1.8215624,"870  Washwood Heath Road, Birmingham, B8 2NG"
2026-01-07,1905091,Burst & Bite,Restaurant/Cafe/Canteen,,,,,,Birmingham,AwaitingInspection,,FHRS,False,,,
2026-01-07,1524164,Royal Shinwari,Restaurant/Cafe/Canteen,883 Washwood Heath Road,Birmingham,,,B8 2NA.,Birmingham,5,2025-04-28,FHRS,False,52.4929368,-1.818776,"883 Washwood Heath Road, Birmingham, B8 2NA."
2026-01-07,1905084,Rudy's Pizza,Restaurant/Cafe/Canteen,10 Birmingham Road,Sutton Trinity,Birmingham,Birmingham,B72 1QG,Birmingham,AwaitingInspection,,FHRS,False,52.558992,-1.826888,"10 Birmingham Road, Sutton Trinity, Birmingham, Birmingham, B72 1QG"
2026-01-07,1905090,Toronto Crispy,Restaurant/Cafe/Canteen,17 Muntz Street,Birmingham,,,B10 9SN,Birmingham,2,2025-11-20,FHRS,False,52.469939,-1.8572481,"17 Muntz Street, Birmingham, B10 9SN"
2026-01-07,306146,Abbot's Kitchen,Restaurant/Cafe/Canteen,The Chapter House,The Cathedral And Abbey Church Of St Alban,Holywell Hill,St Albans,AL1 1BY,St Albans City,5,2025-06-19,FHRS,False,,,"The Chapter House, The Cathedral And Abbey Church Of St Alban, Holywell Hill, St Albans, AL1 1BY"
2026-01-07,1904958,Pret a Manger St Albans,Restaurant/Cafe/Canteen,25-27 St Peters Street,St Albans,Hertfordshire,,AL1 3DP,St Albans City,5,2025-04-09,FHRS,False,51.753199,-0.338461,"25-27 St Peters Street, St Albans, Hertfordshire, AL1 3DP"
2026-01-07,1904852,Late Night Kitchen,Restaurant/Cafe/Canteen,,77 Marsh Wall,London,,E14 9SH,Tower Hamlets,AwaitingInspection,,FHRS,False,51.5007256,-0.0166099,"77 Marsh Wall, London, E14 9SH"
2026-01-07,1905096,Buona Bottega,Restaurant/Cafe/Canteen,111 High Street,Brentwood,Essex,,CM14 4RX,Brentwood,AwaitingInspection,,FHRS,False,51.619891,0.299096,"111 High Street, Brentwood, Essex, CM14 4RX"
2026-01-07,1904877,The Mahal Restaurant,Restaurant/Cafe/Canteen,Montpellier House,Montpellier Drive,Cheltenham,Gloucestershire,GL50 1TY,Cheltenham,AwaitingInspection,,FHRS,False,51.8943904,-2.0764856,"Montpellier House, Montpellier Drive, Cheltenham, Gloucestershire, GL50 1TY"
2026-01-07,1905119,AWS Cafe,Restaurant/Cafe/Canteen,134 Roundhay Road,Leeds,,,LS8 5NA,Leeds,AwaitingInspection,,FHRS,True,53.810903,-1.5248578,"134 Roundhay Road, Leeds, LS8 5NA"
2026-01-07,1905111,Bolt And Bean,Restaurant/Cafe/Canteen,44 - 50 Green Road,Meanwood,Leeds,,LS6 4JP,Leeds,AwaitingInspection,,FHRS,False,53.8292007,-1.5671164,"44 - 50 Green Road, Meanwood, Leeds, LS6 4JP"
2026-01-07,1823300,India Bistro,Restaurant/Cafe/Canteen,33 - 35 Harrogate Road,Moortown,Leeds,,LS7 3PD,Leeds,AwaitingInspection,,FHRS,False,53.828093,-1.5376083,"33 - 35 Harrogate Road, Moortown, Leeds, LS7 3PD"
2026-01-07,1905114,Little Athens,Restaurant/Cafe/Canteen,570 Meanwood Road,Meanwood,Leeds,,LS6 4AZ,Leeds,AwaitingInspection,,FHRS,False,53.82769,-1.566414,"570 Meanwood Road, Meanwood, Leeds, LS6 4AZ"
2026-01-07,1905122,Mabgate Campus - UC,Restaurant/Cafe/Canteen,Mabgate Campus,68 Mabgate,Sheepscar,Leeds,LS9 7DZ,Leeds,AwaitingInspection,,FHRS,False,53.80257025,-1.53015373,"Mabgate Campus, 68 Mabgate, Sheepscar, Leeds, LS9 7DZ"
2026-01-07,1905115,Rajas Food House,Restaurant/Cafe/Canteen,324 Stanningley Road,Leeds,,,LS13 3EG,Leeds,AwaitingInspection,,FHRS,False,53.8065754,-1.6369575,"324 Stanningley Road, Leeds, LS13 3EG"
2026-01-07,1905118,Shaftesbury Fisheries,Restaurant/Cafe/Canteen,603 Harehills Lane,Leeds,,,LS9 6NQ,Leeds,AwaitingInspection,,FHRS,False,53.8021254,-1.4992659,"603 Harehills Lane, Leeds, LS9 6NQ"
2026-01-07,1905109,Spice Chilli Hut,Restaurant/Cafe/Canteen,189 Chapeltown Road,Chapeltown,Leeds,,LS7 3DU,Leeds,AwaitingInspection,,FHRS,False,53.814632,-1.533196,"189 Chapeltown Road, Chapeltown, Leeds, LS7 3DU"
2026-01-07,1905113,T Chippy LTD,Restaurant/Cafe/Canteen,9 Coldcotes Circus,Gipton,Leeds,,LS9 6QE,Leeds,AwaitingInspection,,FHRS,False,53.808567,-1.494008,"9 Coldcotes Circus, Gipton, Leeds, LS9 6QE"
2026-01-07,1905121,The Golden Calabash,Restaurant/Cafe/Canteen,480 Harehills Lane,Leeds,,,LS9 6NG,Leeds,AwaitingInspection,,FHRS,False,53.8021465,-1.5000248,"480 Harehills Lane, Leeds, LS9 6NG"
2026-01-07,375058,Barton Grange Group Limited,Restaurant/Cafe/Canteen,The Flower Bowl Entertainment Centre,Garstang Road,Claughton-on-brock,Preston,PR3 0BT,Wyre,5,2025-01-09,FHRS,False,,,"The Flower Bowl Entertainment Centre, Garstang Road, Claughton-on-brock, Preston, PR3 0BT"
2026-01-07,1905161,Cafe Idil,Restaurant/Cafe/Canteen,362 Aigburth Road,,Liverpool,,L17 6AE,Liverpool,AwaitingInspection,,FHRS,False,53.3672173,-2.9255288,"362 Aigburth Road, Liverpool, L17 6AE"
2026-01-07,1905159,D MOMENT,Restaurant/Cafe/Canteen,469 - 471 Smithdown Road,,Liverpool,,L15 5AE,Liverpool,AwaitingInspection,,FHRS,False,53.3898587,-2.9266287,"469 - 471 Smithdown Road, Liverpool, L15 5AE"
2026-01-07,1905162,Top Burgers,Restaurant/Cafe/Canteen,60 Lark Lane,,Liverpool,,L17 8UU,Liverpool,AwaitingInspection,,FHRS,False,53.3814461,-2.9451409,"60 Lark Lane, Liverpool, L17 8UU"
2026-01-07,1019618,Dollys Pantry,Restaurant/Cafe/Canteen,The Village Inn,Club Parade,St Osyth,Clacton On Sea,CO16 8SX,Tendring,3,2024-02-28,FHRS,False,51.7734680175781,1.08061897754669,"The Village Inn, Club Parade, St Osyth, Clacton On Sea, CO16 8SX"
2026-01-07,1904969,Hot Shots Restaurant & Event Catering,Restaurant/Cafe/Canteen,Clacton and District Indoor Bowling Club,Valley Road,Clacton On Sea,Essex,CO15 6NA,Tendring,5,2025-12-10,FHRS,False,,,"Clacton and District Indoor Bowling Club, Valley Road, Clacton On Sea, Essex, CO15 6NA"
2026-01-07,1899282,Inclusion Ventures,Restaurant/Cafe/Canteen,Coppins Hall Community Centre,Maldon Way,Clacton On Sea,Essex,CO16 7PA,Tendring,4,2025-11-28,FHRS,False,51.797446,1.1276297,"Coppins Hall Community Centre, Maldon Way, Clacton On Sea, Essex, CO16 7PA"
2026-01-07,1904850,Boars Head,Restaurant/Cafe/Canteen,4 Clwyd Street,,Ruthin,Denbighshire,LL15 1HW,Denbighshire,AwaitingInspection,,FHRS,False,53.114268,-3.312248,"4 Clwyd Street, Ruthin, Denbighshire, LL15 1HW"
2026-01-07,1904850,Boars Head,Restaurant/Cafe/Canteen,4 Clwyd Street,,Ruthin,Denbighshire,LL15 1HW,Sir Ddinbych,AwaitingInspection,,FHRS,False,53.114268,-3.312248,"4 Clwyd Street, Ruthin, Denbighshire, LL15 1HW"
2026-01-07,1904916,Backstreet Bowls,Restaurant/Cafe/Canteen,,Kitchen at 23 The Terrace,Wokingham,,RG40 1BP,Wokingham,AwaitingInspection,,FHRS,False,51.4123353,-0.8382982,"Kitchen at 23 The Terrace, Wokingham, RG40 1BP"
2026-01-07,1843956,Coco Creams,Restaurant/Cafe/Canteen,12 Church Street,Ruddington,Nottinghamshire,,NG11 6HA,Rushcliffe,AwaitingInspection,,FHRS,False,52.892289,-1.14997,"12 Church Street, Ruddington, Nottinghamshire, NG11 6HA"
2026-01-07,1904913,Chichas Restaurant,Restaurant/Cafe/Canteen,,4 Lodge Avenue,,Dagenham,RM8 2JA,Barking and Dagenham,AwaitingInspection,,FHRS,False,51.550701,0.113481,"4 Lodge Avenue, Dagenham, RM8 2JA"
2026-01-07,1904914,Eyeware Cafe,Restaurant/Cafe/Canteen,Unit 3 Leslie Hitchcock House,21 Minter Road,,Barking,IG11 0TH,Barking and Dagenham,AwaitingInspection,,FHRS,False,51.5205837,0.1077655,"Unit 3 Leslie Hitchcock House, 21 Minter Road, Barking, IG11 0TH"
2026-01-07,1904866,Omnia Coffee & Roaster,Restaurant/Cafe/Canteen,89 Wollaton Road,Beeston,Nottinghamshire,,NG9 2NP,Broxtowe,AwaitingInspection,,FHRS,False,52.9296629,-1.2188726,"89 Wollaton Road, Beeston, Nottinghamshire, NG9 2NP"
