date_added,FHRSID,BusinessName,BusinessType,AddressLine1,AddressLine2,AddressLine3,AddressLine4,PostCode,LocalAuthorityName,RatingValue,RatingDate,SchemeType,NewRatingPending,Latitude,Longitude,AddressSingleLine
2026-01-01,1904341,Pecks Farm Coffee Shop,Restaurant/Cafe/Canteen,Stockwell Farm,Leighton Road,Eggington,Leighton Buzzard,LU7 9PA,Central Bedfordshire,5,2025-12-12,FHRS,False,51.919723,-0.616938,"Stockwell Farm, Leighton Road, Eggington, Leighton Buzzard, LU7 9PA"
2026-01-01,1904345,The Table,Restaurant/Cafe/Canteen,Marston Moreteyne Community Centre,Great Linns,Marston Moreteyne,Bedford,MK43 0DD,Central Bedfordshire,AwaitingInspection,,FHRS,False,,,"Marston Moreteyne Community Centre, Great Linns, Marston Moreteyne, Bedford, MK43 0DD"
2026-01-01,1502657,Tim Hortons,Restaurant/Cafe/Canteen,White Lion Retail Park,Boscombe Road,Dunstable,Beds,LU5 4WL,Central Bedfordshire,5,2024-08-15,FHRS,False,51.8914996,-0.5138041,"White Lion Retail Park, Boscombe Road, Dunstable, Beds, LU5 4WL"
2026-01-01,1876024,Thai Kitchen (Authentic Street Food Cafe),Restaurant/Cafe/Canteen,41 Whitehorse Road,Croydon,,,CR0 2JG,Croydon,AwaitingInspection,,FHRS,False,51.3850326538086,-0.0977829992771149,"41 Whitehorse Road, Croydon, CR0 2JG"
2026-01-01,1904384,Caspian Pizza,Restaurant/Cafe/Canteen,39 Rough Hay Road,Darlaston,Walsall,West Midlands,WS10 8NQ,Walsall,AwaitingInspection,,FHRS,False,52.572568,-2.042701,"39 Rough Hay Road, Darlaston, Walsall, West Midlands, WS10 8NQ"
2026-01-01,1904386,Crust and Grill,Restaurant/Cafe/Canteen,107-108 The Green,Darlaston,Walsall,West Midlands,WS10 8JP,Walsall,AwaitingInspection,,FHRS,False,52.5760246,-2.033603,"107-108 The Green, Darlaston, Walsall, West Midlands, WS10 8JP"
2026-01-01,1904380,Delight African Restaurant,Restaurant/Cafe/Canteen,26 Hall Street East,Darlaston,Walsall,West Midlands,WS10 8PL,Walsall,AwaitingInspection,,FHRS,False,52.573808,-2.044547,"26 Hall Street East, Darlaston, Walsall, West Midlands, WS10 8PL"
2026-01-01,1904381,Dixy Chicken Brownhills,Restaurant/Cafe/Canteen,36 High Street,Brownhills,Walsall,West Midlands,WS8 6EL,Walsall,AwaitingInspection,,FHRS,False,52.6470323,-1.9332912,"36 High Street, Brownhills, Walsall, West Midlands, WS8 6EL"
2026-01-01,1904373,GS & Deol's Ltd,Restaurant/Cafe/Canteen,181 Wolverhampton Road West,Bentley,Walsall,,WS2 0DU,Walsall,AwaitingInspection,,FHRS,False,52.585267,-2.024501,"181 Wolverhampton Road West, Bentley, Walsall, WS2 0DU"
2026-01-01,1904366,Mama Ako's Kitchen,Restaurant/Cafe/Canteen,1-3 Market Place,Willenhall,Walsall,West Midlands,WV13 2AA,Walsall,AwaitingInspection,,FHRS,False,52.583324,-2.0549164,"1-3 Market Place, Willenhall, Walsall, West Midlands, WV13 2AA"
2026-01-01,1904387,Miquill Catering Ltd,Restaurant/Cafe/Canteen,Pheasey Park Farm Primary School,Wimperis Way,Pheasey,Walsall,B43 7LH,Walsall,AwaitingInspection,,FHRS,False,,,"Pheasey Park Farm Primary School, Wimperis Way, Pheasey, Walsall, B43 7LH"
2026-01-01,1904383,Mr Grill Pizza and Peri Peri,Restaurant/Cafe/Canteen,121 Princes Avenue,Walsall,West Midlands,,WS1 2DH,Walsall,AwaitingInspection,,FHRS,False,52.5848691,-1.9648546,"121 Princes Avenue, Walsall, West Midlands, WS1 2DH"
2026-01-01,1904369,Starbelly,Restaurant/Cafe/Canteen,53C Lower Hall Lane,Walsall,West Midlands,,WS1 1RJ,Walsall,4,2025-11-25,FHRS,False,52.5830293,-1.9821028,"53C Lower Hall Lane, Walsall, West Midlands, WS1 1RJ"
2026-01-01,1904362,The Greedy Pig Cafe,Restaurant/Cafe/Canteen,1 Gipsy Lane,Willenhall,Walsall,West Midlands,WV13 2HA,Walsall,AwaitingInspection,,FHRS,False,52.583245,-2.0516535,"1 Gipsy Lane, Willenhall, Walsall, West Midlands, WV13 2HA"
2026-01-01,1904335,Dr Oetker,Restaurant/Cafe/Canteen,20 Marathon Place,Moss Side Industrial Estate,Leyland,Lancashire,PR26 7QN,South Ribble,AwaitingInspection,,FHRS,False,53.7019958496094,-2.72597408294678,"20 Marathon Place, Moss Side Industrial Estate, Leyland, Lancashire, PR26 7QN"
2026-01-01,1904333,Red Velvet Desserts,Restaurant/Cafe/Canteen,88 - 90 Hough Lane,Leyland,Lancashire,,PR25 2YB,South Ribble,AwaitingInspection,,FHRS,False,53.6958612,-2.6912877,"88 - 90 Hough Lane, Leyland, Lancashire, PR25 2YB"
2026-01-01,1904339,The Kiosk-Leyland Station,Restaurant/Cafe/Canteen,Leyland Railway Station,Golden Hill,Leyland,Lancashire,PR25 3NN,South Ribble,AwaitingInspection,,FHRS,False,53.6989946,-2.6872041,"Leyland Railway Station, Golden Hill, Leyland, Lancashire, PR25 3NN"
2026-01-01,1829603,Wokman Preston,Restaurant/Cafe/Canteen,350 Higher Walton Road,Higher Walton,Preston,Lancashire,PR5 4HT,South Ribble,AwaitingInspection,,FHRS,False,53.7435056,-2.6448699,"350 Higher Walton Road, Higher Walton, Preston, Lancashire, PR5 4HT"
2026-01-01,1904408,Pesto,Restaurant/Cafe/Canteen,Alcester Road,Wythall,,,B47 6JG,Bromsgrove,AwaitingInspection,,FHRS,False,52.37900125,-1.8849875,"Alcester Road, Wythall, B47 6JG"
2026-01-01,1904390,Artichoke Cafe,Restaurant/Cafe/Canteen,241 High Street,,Crowthorne,Bracknell Forest,RG45 7AH,Bracknell Forest,AwaitingInspection,,FHRS,False,51.3671544,-0.7942075,"241 High Street, Crowthorne, Bracknell Forest, RG45 7AH"
2026-01-01,1904391,Daruchini Brasserie,Restaurant/Cafe/Canteen,Daruchini Indian Restaurant St Marks Road,Binfield,Bracknell,Bracknell Forest,RG42 4AJ,Bracknell Forest,AwaitingInspection,,FHRS,False,,,"Daruchini Indian Restaurant St Marks Road, Binfield, Bracknell, Bracknell Forest, RG42 4AJ"
2026-01-01,1904288,Leon,Restaurant/Cafe/Canteen,157 Hamlet Court Road,Westcliff-on-sea,Essex,,SS0 7EL,Southend-On-Sea,AwaitingInspection,,FHRS,True,51.5408009,0.6948875,"157 Hamlet Court Road, Westcliff-on-sea, Essex, SS0 7EL"
2026-01-01,1904315,Leat Cafe,Restaurant/Cafe/Canteen,,,,,,Somerset,AwaitingInspection,,FHRS,False,,,
2026-01-01,1904316,Pop-Up Winter Cafe,Restaurant/Cafe/Canteen,The Key Centre Pop-Up Winter Cafe,Feltham Lane,Frome,Somerset,BA11 5AJ,Somerset,AwaitingInspection,,FHRS,False,,,"The Key Centre Pop-Up Winter Cafe, Feltham Lane, Frome, Somerset, BA11 5AJ"
2026-01-01,1904420,Falafel Hayes Corner,Restaurant/Cafe/Canteen,,63 Station Road,,Hayes,UB3 4BG,Hillingdon,AwaitingInspection,,FHRS,False,51.5051858,-0.4190061,"63 Station Road, Hayes, UB3 4BG"
2026-01-01,1904427,Kemps Grill,Restaurant/Cafe/Canteen,29 The Broadway,Joel Street,,Northwood,HA6 1NU,Hillingdon,AwaitingInspection,,FHRS,False,51.601977,-0.409066,"29 The Broadway, Joel Street, Northwood, HA6 1NU"
2026-01-01,1904424,Simply Scrumptious,Restaurant/Cafe/Canteen,Arun Building,Arundel Road,,Uxbridge,UB8 2RR,Hillingdon,AwaitingInspection,,FHRS,True,51.5356957,-0.4898974,"Arun Building, Arundel Road, Uxbridge, UB8 2RR"
2026-01-01,1904351,Honeycomb Hall,Restaurant/Cafe/Canteen,,,,,,Lichfield,5,2025-12-16,FHRS,False,,,
2026-01-01,1904412,Riverside Grill,Restaurant/Cafe/Canteen,11 Stourport Road,Bewdley,Worcestershire,,DY12 1BA,Wyre Forest,AwaitingInspection,,FHRS,False,52.3757745,-2.3111496,"11 Stourport Road, Bewdley, Worcestershire, DY12 1BA"
2026-01-01,1904439,Gate Coffee,Restaurant/Cafe/Canteen,,,,,,Enfield,AwaitingInspection,,FHRS,False,,,
2026-01-01,1904428,Skewd Asia,Restaurant/Cafe/Canteen,127-129 Cockfosters Road,BARNET,,,EN4 0DA,Enfield,AwaitingInspection,,FHRS,True,51.648637,-0.148362,"127-129 Cockfosters Road, BARNET, EN4 0DA"
2026-01-01,1904434,Today coffee,Restaurant/Cafe/Canteen,,,,,,Enfield,AwaitingInspection,,FHRS,False,,,
2026-01-01,1896604,The Cosy Corner Bistro,Restaurant/Cafe/Canteen,Crookbarrow View,3 Gotland Road,Worcester,,WR5 2GN,Worcester City,AwaitingInspection,,FHRS,False,52.1807814,-2.1900549,"Crookbarrow View, 3 Gotland Road, Worcester, WR5 2GN"
2026-01-01,1904410,Yeliz Restaurant,Restaurant/Cafe/Canteen,The Old Rectifying House,North Parade,Worcester,,WR1 3NN,Worcester City,AwaitingInspection,,FHRS,False,52.1918294,-2.2259789,"The Old Rectifying House, North Parade, Worcester, WR1 3NN"
2026-01-01,1904466,Benghazi Bites,Restaurant/Cafe/Canteen,,,,,,Wandsworth,AwaitingInspection,,FHRS,False,,,
2026-01-01,1904465,Chobo,Restaurant/Cafe/Canteen,,,,,,Wandsworth,AwaitingInspection,,FHRS,False,,,
2026-01-01,1904464,GAIL's Bakery Tooting Broadway,Restaurant/Cafe/Canteen,103-111 Mitcham Road,London,,,SW17 9PF,Wandsworth,AwaitingInspection,,FHRS,False,51.4257059,-0.1645207,"103-111 Mitcham Road, London, SW17 9PF"
2026-01-01,1904463,One Twenty Four,Restaurant/Cafe/Canteen,124 Tooting High Street,London,,,SW17 0RR,Wandsworth,AwaitingInspection,,FHRS,False,51.4258683,-0.1702455,"124 Tooting High Street, London, SW17 0RR"
2026-01-01,1904314,BILLI CASTRO SNACK BAR RESTAURANT 69,Restaurant/Cafe/Canteen,13 Norfolk Street,Wisbech,Cambridgeshire,,PE13 2LD,Fenland,AwaitingInspection,,FHRS,False,52.662695,0.163108,"13 Norfolk Street, Wisbech, Cambridgeshire, PE13 2LD"
2026-01-01,1493304,Family Shopper And Subway,Restaurant/Cafe/Canteen,9 High Street,March,Cambridgeshire,,PE15 9JA,Fenland,5,2025-09-01,FHRS,False,52.549407,0.087764,"9 High Street, March, Cambridgeshire, PE15 9JA"
2026-01-01,1904396,Lusso,Restaurant/Cafe/Canteen,30 - 31 Northbrook Street,,Newbury,West Berkshire,RG14 1DJ,West Berkshire,AwaitingInspection,,FHRS,False,51.4038061,-1.3243471,"30 - 31 Northbrook Street, Newbury, West Berkshire, RG14 1DJ"
2026-01-01,1904350,The Dirty Fries Bunker,Restaurant/Cafe/Canteen,Ff14 St Johns Market,Jubilee Way,Scunthorpe,North Lincolnshire,DN15 6RB,North Lincolnshire,AwaitingInspection,,FHRS,False,53.5912299,-0.6439193,"Ff14 St Johns Market, Jubilee Way, Scunthorpe, North Lincolnshire, DN15 6RB"
2026-01-01,1904451,Bistro Italiano,Restaurant/Cafe/Canteen,14 MARKET PLACE,,MELKSHAM,,SN12 6EX,Wiltshire,AwaitingInspection,,FHRS,False,51.3715092,-2.137886,"14 MARKET PLACE, MELKSHAM, SN12 6EX"
2026-01-01,1904448,Pronti Buon Appetito,Restaurant/Cafe/Canteen,40 MARKET PLACE,,WARMINSTER,,BA12 9AN,Wiltshire,AwaitingInspection,,FHRS,False,51.2045261,-2.1797973,"40 MARKET PLACE, WARMINSTER, BA12 9AN"
2026-01-01,262209,The Bridge,Restaurant/Cafe/Canteen,THE CARPENTERS ARMS INN EASTON TOWN,,SHERSTON,,SN16 0LS,Wiltshire,AwaitingInspection,,FHRS,False,51.5740639,-2.2106766,"THE CARPENTERS ARMS INN EASTON TOWN, SHERSTON, SN16 0LS"
2026-01-01,1904415,Sakura,Restaurant/Cafe/Canteen,4 Beeches Avenue,Carshalton,,,SM5 3LF,Sutton,AwaitingInspection,,FHRS,False,51.356884,-0.17006,"4 Beeches Avenue, Carshalton, SM5 3LF"
2026-01-01,1904297,Birk's Deli,Restaurant/Cafe/Canteen,101 Swinnow Lane,Swinnow,Leeds,,LS13 4RH,Leeds,AwaitingInspection,,FHRS,False,53.8005505,-1.6420045,"101 Swinnow Lane, Swinnow, Leeds, LS13 4RH"
2026-01-01,1904308,Black Sheep Coffee,Restaurant/Cafe/Canteen,29A Bond Street,Leeds,,,LS1 5BQ,Leeds,AwaitingInspection,,FHRS,False,53.7978285,-1.5465642,"29A Bond Street, Leeds, LS1 5BQ"
2026-01-01,1904309,Black Sheep Coffee,Restaurant/Cafe/Canteen,97 Briggate,Leeds,,,LS1 6NP,Leeds,AwaitingInspection,,FHRS,False,53.7985925,-1.5418343,"97 Briggate, Leeds, LS1 6NP"
2026-01-01,1904295,Blue Tiger Restaurant,Restaurant/Cafe/Canteen,16 Ganners Hill,Bramley,Leeds,,LS13 2NZ,Leeds,AwaitingInspection,,FHRS,False,53.818631,-1.628358,"16 Ganners Hill, Bramley, Leeds, LS13 2NZ"
2026-01-01,1904296,Clip 'n Climb Leeds,Restaurant/Cafe/Canteen,Unit 3,Tristram Centre,Brown Lane West,Holbeck,LS12 6BF,Leeds,AwaitingInspection,,FHRS,False,53.7832224,-1.5734013,"Unit 3, Tristram Centre, Brown Lane West, Holbeck, LS12 6BF"
2026-01-01,1904306,Corner House,Restaurant/Cafe/Canteen,378 Harrogate Road,Moortown,Leeds,,LS17 6PY,Leeds,AwaitingInspection,,FHRS,False,53.843537,-1.5333,"378 Harrogate Road, Moortown, Leeds, LS17 6PY"
2026-01-01,1904293,Moor Allerton Golf Club,Restaurant/Cafe/Canteen,Coal Road,Wike,Leeds,,LS17 9NH,Leeds,AwaitingInspection,,FHRS,False,53.869925,-1.480524,"Coal Road, Wike, Leeds, LS17 9NH"
2026-01-01,1904305,Red Sea Cafe/Restaurant,Restaurant/Cafe/Canteen,52B Harehills Road,Harehills,Leeds,,LS8 5PB,Leeds,AwaitingInspection,,FHRS,False,53.814111,-1.517558,"52B Harehills Road, Harehills, Leeds, LS8 5PB"
2026-01-01,1904303,Shawarma Kingdom,Restaurant/Cafe/Canteen,8 Queens Arcade,Leeds,,,LS1 6LF,Leeds,AwaitingInspection,,FHRS,False,53.7982991,-1.5426725,"8 Queens Arcade, Leeds, LS1 6LF"
2026-01-01,1904311,The Med Greek Street Food,Restaurant/Cafe/Canteen,1 The Crescent,Woodhouse,Leeds,,LS6 2NW,Leeds,AwaitingInspection,,FHRS,False,53.814719,-1.561232,"1 The Crescent, Woodhouse, Leeds, LS6 2NW"
2026-01-03,1904479,Brew And Bagel,Restaurant/Cafe/Canteen,24 The Forum,Sittingbourne,Kent,,ME10 3DL,Swale,AwaitingInspection,,FHRS,False,51.3406293,0.7357965,"24 The Forum, Sittingbourne, Kent, ME10 3DL"
2026-01-03,1904478,Mem's Mezze,Restaurant/Cafe/Canteen,Halfway House,Halfway Road,Minster-on-sea,Kent,ME12 3AU,Swale,5,2025-12-18,FHRS,False,51.42284,0.776368,"Halfway House, Halfway Road, Minster-on-sea, Kent, ME12 3AU"
2026-01-03,1904515,2 Sisters Cafe & Bistro,Restaurant/Cafe/Canteen,33 Warner Street,Accrington,Lancashire,,BB5 1HN,Hyndburn,AwaitingInspection,,FHRS,False,53.7517815,-2.3631977,"33 Warner Street, Accrington, Lancashire, BB5 1HN"
2026-01-03,1904521,A.J's Butty Box,Restaurant/Cafe/Canteen,503 Manchester Road,Accrington,Lancashire,,BB5 2QJ,Hyndburn,AwaitingInspection,,FHRS,False,53.7355971,-2.3470496,"503 Manchester Road, Accrington, Lancashire, BB5 2QJ"
2026-01-03,1904517,Frontier Park Spud Bros,Restaurant/Cafe/Canteen,Frontier Park,Burnley Road,Blackburn,,BB1 3HR,Hyndburn,AwaitingInspection,,FHRS,False,,,"Frontier Park, Burnley Road, Blackburn, BB1 3HR"
2026-01-03,1904538,Annapurna's,Restaurant/Cafe/Canteen,604 Kenton Road,Harrow,,,HA3 9NP,Harrow,AwaitingInspection,,FHRS,False,51.5862672,-0.290189,"604 Kenton Road, Harrow, HA3 9NP"
2026-01-03,1805006,Ember n mist,Restaurant/Cafe/Canteen,102-108 Pinner Road,Harrow,,,HA1 4JD,Harrow,AwaitingInspection,,FHRS,False,51.5813496,-0.3484399,"102-108 Pinner Road, Harrow, HA1 4JD"
2026-01-03,1904541,GJ23 Chatpata Ltd,Restaurant/Cafe/Canteen,Unit 21,Harrow,,,HA1 2TB,Harrow,AwaitingInspection,,FHRS,False,,,"Unit 21, Harrow, HA1 2TB"
2026-01-03,1904547,Pinner Peri Peri,Restaurant/Cafe/Canteen,499 Pinner Road,Harrow,,,HA2 6EH,Harrow,AwaitingInspection,,FHRS,False,51.588454,-0.363331,"499 Pinner Road, Harrow, HA2 6EH"
2026-01-03,1904540,Rootplains,Restaurant/Cafe/Canteen,,,,,,Harrow,AwaitingInspection,,FHRS,False,,,
2026-01-03,1904594,The Ridge Bar And Grill,Restaurant/Cafe/Canteen,Unit 19,Greenbridge Retail Park,Swindon,,SN3 3SQ,Swindon,AwaitingInspection,,FHRS,False,51.570414,-1.756701,"Unit 19, Greenbridge Retail Park, Swindon, SN3 3SQ"
2026-01-03,1904489,Tropical Bliss Jerk Centre,Restaurant/Cafe/Canteen,9  Hartlebury Road,,,Oldbury,B69 1DF,Sandwell,AwaitingInspection,,FHRS,False,,,"9  Hartlebury Road, Oldbury, B69 1DF"
2026-01-03,1904476,Mr Souvlaki,Restaurant/Cafe/Canteen,5 Broad Street,,Banbury,Oxfordshire,OX16 5BN,Cherwell,AwaitingInspection,,FHRS,False,52.0613605,-1.3345197,"5 Broad Street, Banbury, Oxfordshire, OX16 5BN"
2026-01-03,1904474,The Grain Store,Restaurant/Cafe/Canteen,The Grain Store Cafe At The Hatchery Fir Lane,,Steeple Aston,Oxfordshire,OX25 5QL,Cherwell,AwaitingInspection,,FHRS,False,,,"The Grain Store Cafe At The Hatchery Fir Lane, Steeple Aston, Oxfordshire, OX25 5QL"
2026-01-03,1513985,Baginton Event Catering,Restaurant/Cafe/Canteen,The Sports Connexion                                                                                 Leamington Road,Ryton-On-Dunsmore,,Warwickshire,CV8 3FL,Rugby,AwaitingInspection,,FHRS,False,,,"The Sports Connexion                                                                                 Leamington Road, Ryton-On-Dunsmore, Warwickshire, CV8 3FL"
2026-01-03,1904556,Rowing Club Cafe,Restaurant/Cafe/Canteen,Newquay Rowing Club,South Quay Hill,Newquay,Cornwall,TR7 1HT,Cornwall,2,2025-12-12,FHRS,False,50.416344,-5.087121,"Newquay Rowing Club, South Quay Hill, Newquay, Cornwall, TR7 1HT"
2026-01-03,1904605,Greedy Pig Cafe,Restaurant/Cafe/Canteen,6A Lawn Farm Business Centre,Main Street,Grendon Underwood,Buckinghamshire,HP18 0QX,Buckinghamshire,AwaitingInspection,,FHRS,False,51.8733194,-0.9892423,"6A Lawn Farm Business Centre, Main Street, Grendon Underwood, Buckinghamshire, HP18 0QX"
2026-01-03,1904600,The Dog and Badger,Restaurant/Cafe/Canteen,Henley Road,Medmenham,Buckinghamshire,,SL7 2HE,Buckinghamshire,AwaitingInspection,,FHRS,False,,,"Henley Road, Medmenham, Buckinghamshire, SL7 2HE"
2026-01-03,1904601,The Kashmir Gardens,Restaurant/Cafe/Canteen,122 High Street,Aylesbury,Buckinghamshire,,HP20 1RB,Buckinghamshire,AwaitingInspection,,FHRS,False,51.816093,-0.806303,"122 High Street, Aylesbury, Buckinghamshire, HP20 1RB"
2026-01-03,1904602,Urban Thai,Restaurant/Cafe/Canteen,16 Duke Street,Princes Risborough,Buckinghamshire,,HP27 0AT,Buckinghamshire,AwaitingInspection,,FHRS,False,51.725057,-0.83259,"16 Duke Street, Princes Risborough, Buckinghamshire, HP27 0AT"
2026-01-03,1904565,Esquires Coffee,Restaurant/Cafe/Canteen,,28 High Street,Oakham,,LE15 6AL,Rutland,AwaitingInspection,,FHRS,False,52.66952,-0.72843,"28 High Street, Oakham, LE15 6AL"
2026-01-03,401830,Aroma Coffee and Bakery,Restaurant/Cafe/Canteen,,6 Market Street,Newton Le Willows,,WA12 9AN,St Helens,AwaitingInspection,,FHRS,False,53.452222,-2.640993,"6 Market Street, Newton Le Willows, WA12 9AN"
2026-01-03,1904531,Burger Box,Restaurant/Cafe/Canteen,,400-402 Derby Street,Bolton,,BL3 6LS,Bolton,AwaitingInspection,,FHRS,False,53.5663113,-2.4454475,"400-402 Derby Street, Bolton, BL3 6LS"
2026-01-03,1904527,D'Cocina,Restaurant/Cafe/Canteen,,4 Mawdsley Street,,,BL1 1LF,Bolton,AwaitingInspection,,FHRS,False,53.5778879,-2.4285528,"4 Mawdsley Street, BL1 1LF"
2026-01-03,1904535,Paratha Stop Supply,Restaurant/Cafe/Canteen,Unit 51 Halliwell Industrial Estate,Rossini Street,Bolton,,BL1 8DL,Bolton,AwaitingInspection,,FHRS,False,53.5963491,-2.4409137,"Unit 51 Halliwell Industrial Estate, Rossini Street, Bolton, BL1 8DL"
2026-01-03,1904533,Roof Top Restaurant,Restaurant/Cafe/Canteen,Bolton Sixth Form College,Deane Road,Bolton,,BL3 5BG,Bolton,5,2025-11-27,FHRS,False,53.574586,-2.437095,"Bolton Sixth Form College, Deane Road, Bolton, BL3 5BG"
2026-01-03,1904486,Cafe Rust At Hove Museum,Restaurant/Cafe/Canteen,Hove Museum,19 New Church Road,Hove,,BN3 4AB,Brighton and Hove,AwaitingInspection,,FHRS,False,50.829367,-0.180299,"Hove Museum, 19 New Church Road, Hove, BN3 4AB"
2026-01-03,1904485,Indigo Indian Fusion,Restaurant/Cafe/Canteen,24 Preston Street,Brighton,,,BN1 2HN,Brighton and Hove,AwaitingInspection,,FHRS,False,50.8232308,-0.1513635,"24 Preston Street, Brighton, BN1 2HN"
2026-01-03,736555,Blitz Tearoom (The),Restaurant/Cafe/Canteen,,22 Waterloo Street,Weston-Super-Mare,,BS23 1LN,North Somerset,5,2025-06-19,FHRS,False,51.349968,-2.977638,"22 Waterloo Street, Weston-Super-Mare, BS23 1LN"
2026-01-03,1469416,Mustard,Restaurant/Cafe/Canteen,,21 Old Street,Clevedon,North Somerset,BS21 6ND,North Somerset,5,2023-02-03,FHRS,False,51.436452,-2.85094,"21 Old Street, Clevedon, North Somerset, BS21 6ND"
2026-01-03,186244,Treats Cafe,Restaurant/Cafe/Canteen,,48 Meadow Street,Weston-Super-Mare,North Somerset,BS23 1QH,North Somerset,5,2024-08-01,FHRS,False,51.348258,-2.976812,"48 Meadow Street, Weston-Super-Mare, North Somerset, BS23 1QH"
2026-01-03,1887875,Unit 27,Restaurant/Cafe/Canteen,Unit 27 Weston Business Park,Laneys Drove,Locking,Weston-Super-Mare,BS24 8RA,North Somerset,AwaitingInspection,,FHRS,False,51.338226,-2.9315,"Unit 27 Weston Business Park, Laneys Drove, Locking, Weston-Super-Mare, BS24 8RA"
2026-01-03,1904471,Ruddington Pizza Kitchen,Restaurant/Cafe/Canteen,18 High Street,Ruddington,Nottinghamshire,,NG11 6EH,Rushcliffe,AwaitingInspection,,FHRS,False,52.891963,-1.14956,"18 High Street, Ruddington, Nottinghamshire, NG11 6EH"
2026-01-03,1904473,Asian Bites,Restaurant/Cafe/Canteen,Unit 3 The Food Hall,Lockmeadow Leisure Complex,Barker Road,Maidstone,ME16 8LW,Maidstone,AwaitingInspection,,FHRS,False,51.2698482,0.5188143,"Unit 3 The Food Hall, Lockmeadow Leisure Complex, Barker Road, Maidstone, ME16 8LW"
2026-01-03,1904472,Masala Banks,Restaurant/Cafe/Canteen,76 Bank Street,Maidstone,Kent,,ME14 1SJ,Maidstone,AwaitingInspection,,FHRS,False,51.272943,0.52146,"76 Bank Street, Maidstone, Kent, ME14 1SJ"
2026-01-03,1904572,Dessert Haus,Restaurant/Cafe/Canteen,,601 Lincoln Road,Peterborough,,PE1 3HA,Peterborough City,AwaitingInspection,,FHRS,False,52.5923801,-0.2546216,"601 Lincoln Road, Peterborough, PE1 3HA"
2026-01-05,1904613,Yi-Ban Restaurant,Restaurant/Cafe/Canteen,Yi Ban Restaurant,London Regatta Centre,1010 Dockside Road,West Beckton,E16 2QT,Newham,AwaitingInspection,,FHRS,True,,,"Yi Ban Restaurant, London Regatta Centre, 1010 Dockside Road, West Beckton, E16 2QT"
2026-01-06,1904838,BAR 82,Restaurant/Cafe/Canteen,16 Red Lion Yard,Colchester,Essex,,CO1 1DX,Colchester,AwaitingInspection,,FHRS,False,,,"16 Red Lion Yard, Colchester, Essex, CO1 1DX"
2026-01-06,1904839,DARPAN,Restaurant/Cafe/Canteen,39-39A St Johns Street,Colchester,Essex,,CO2 7AD,Colchester,AwaitingInspection,,FHRS,False,51.887761,0.8982048,"39-39A St Johns Street, Colchester, Essex, CO2 7AD"
2026-01-06,1904729,CAFETRUMPINGTON LTD,Restaurant/Cafe/Canteen,77 Osprey Drive,,South Trumpington,Cambridgeshire,CB2 9FU,South Cambridgeshire,AwaitingInspection,,FHRS,False,52.1691685,0.1047037,"77 Osprey Drive, South Trumpington, Cambridgeshire, CB2 9FU"
2026-01-06,1904649,Griff's,Restaurant/Cafe/Canteen,Sixth Floor To Seventh Floor 4 Capital Quarter Tyndall Street,Butetown,Cardiff,,CF10 4BZ,Caerdydd,AwaitingInspection,,FHRS,False,51.476567,-3.1704788,"Sixth Floor To Seventh Floor 4 Capital Quarter Tyndall Street, Butetown, Cardiff, CF10 4BZ"
2026-01-06,1904645,HF SPOT,Restaurant/Cafe/Canteen,132A Albany Road,Roath,Cardiff,,CF24 3RU,Caerdydd,AwaitingInspection,,FHRS,False,51.4940033,-3.1636116,"132A Albany Road, Roath, Cardiff, CF24 3RU"
2026-01-06,1904651,Syriana Grill House,Restaurant/Cafe/Canteen,72 - 74 City Road,Roath,Cardiff,,CF24 3DD,Caerdydd,AwaitingInspection,,FHRS,False,51.4878666,-3.1667393,"72 - 74 City Road, Roath, Cardiff, CF24 3DD"
2026-01-06,1904648,WHOCULT,Restaurant/Cafe/Canteen,Red Dragon Centre Hemingway Road,Butetown,Cardiff,,,Caerdydd,AwaitingInspection,,FHRS,False,51.4668115,-3.1636112,"Red Dragon Centre Hemingway Road, Butetown, Cardiff"
2026-01-06,1904691,Eastbourne Indian & Nepalese Spice,Restaurant/Cafe/Canteen,6 Susans Road,Eastbourne,East Sussex,,BN21 3HA,Eastbourne,AwaitingInspection,,FHRS,False,50.768288,0.289593,"6 Susans Road, Eastbourne, East Sussex, BN21 3HA"
2026-01-06,1904697,9 Elms Burgers,Restaurant/Cafe/Canteen,355A - 355B Wandsworth Road,London,,,SW8 2JH,Lambeth,AwaitingInspection,,FHRS,False,51.475156,-0.131361,"355A - 355B Wandsworth Road, London, SW8 2JH"
2026-01-06,1904705,Biryaniology,Restaurant/Cafe/Canteen,18 The High Parade,Streatham High Road,London,,SW16 1EX,Lambeth,AwaitingInspection,,FHRS,False,51.434615,-0.12788,"18 The High Parade, Streatham High Road, London, SW16 1EX"
2026-01-06,1904702,Crumble Mania,Restaurant/Cafe/Canteen,7 - 11 South Lambeth Place,London,,,SW8 1SP,Lambeth,AwaitingInspection,,FHRS,False,51.485563,-0.123662,"7 - 11 South Lambeth Place, London, SW8 1SP"
2026-01-06,1904703,Fergani Trading,Restaurant/Cafe/Canteen,383 Wandsworth Road,London,,,SW8 2JL,Lambeth,AwaitingInspection,,FHRS,False,51.4742721,-0.1323246,"383 Wandsworth Road, London, SW8 2JL"
2026-01-06,1904706,Monaco,Restaurant/Cafe/Canteen,Arch 574,30 Brixton Station Road,London,,SW9 8PD,Lambeth,AwaitingInspection,,FHRS,False,51.4631462,-0.113113,"Arch 574, 30 Brixton Station Road, London, SW9 8PD"
2026-01-06,1904832,OPO Bakery - Slab City,Restaurant/Cafe/Canteen,76 Landor Road,London,,,SW9 9PH,Lambeth,AwaitingInspection,,FHRS,False,51.4657133,-0.1257055,"76 Landor Road, London, SW9 9PH"
2026-01-06,1904709,Rehoboth Eatery,Restaurant/Cafe/Canteen,1 Brixton Station Road,London,,,SW9 8PA,Lambeth,AwaitingInspection,,FHRS,False,51.463558,-0.114128,"1 Brixton Station Road, London, SW9 8PA"
2026-01-06,1904698,Sana Desserts,Restaurant/Cafe/Canteen,355A - 355B Wandsworth Road,London,,,SW8 2JH,Lambeth,AwaitingInspection,,FHRS,False,51.475156,-0.131361,"355A - 355B Wandsworth Road, London, SW8 2JH"
2026-01-06,1904704,Umo,Restaurant/Cafe/Canteen,6 Station Rise,London,,,SE27 9BW,Lambeth,AwaitingInspection,,FHRS,False,51.439898,-0.105721,"6 Station Rise, London, SE27 9BW"
2026-01-06,1904660,Cool Beans,Restaurant/Cafe/Canteen,,12 Willow Sage Court,,Stockton-on-tees,TS18 3UQ,Stockton On Tees,AwaitingInspection,,FHRS,False,54.5420234,-1.3166971,"12 Willow Sage Court, Stockton-on-tees, TS18 3UQ"
2026-01-06,1422003,Mak Halal,Restaurant/Cafe/Canteen,42 Bradford Street,Walsall,,West Mids,WS1 3QA,Walsall,5,2022-01-12,FHRS,False,52.58132593,-1.98458709,"42 Bradford Street, Walsall, West Mids, WS1 3QA"
2026-01-06,1904842,Kurdistan Cafe,Restaurant/Cafe/Canteen,21 Bargate Drive,Wolverhampton,West Midlands,,WV6 0QW,Wolverhampton,AwaitingInspection,,FHRS,False,52.5937046,-2.1429533,"21 Bargate Drive, Wolverhampton, West Midlands, WV6 0QW"
2026-01-06,1904649,Griff's,Restaurant/Cafe/Canteen,Sixth Floor To Seventh Floor 4 Capital Quarter Tyndall Street,Butetown,Cardiff,,CF10 4BZ,Cardiff,AwaitingInspection,,FHRS,False,51.476567,-3.1704788,"Sixth Floor To Seventh Floor 4 Capital Quarter Tyndall Street, Butetown, Cardiff, CF10 4BZ"
2026-01-06,1904645,HF SPOT,Restaurant/Cafe/Canteen,132A Albany Road,Roath,Cardiff,,CF24 3RU,Cardiff,AwaitingInspection,,FHRS,False,51.4940033,-3.1636116,"132A Albany Road, Roath, Cardiff, CF24 3RU"
2026-01-06,1904651,Syriana Grill House,Restaurant/Cafe/Canteen,72 - 74 City Road,Roath,Cardiff,,CF24 3DD,Cardiff,AwaitingInspection,,FHRS,False,51.4878666,-3.1667393,"72 - 74 City Road, Roath, Cardiff, CF24 3DD"
2026-01-06,1904648,WHOCULT,Restaurant/Cafe/Canteen,Red Dragon Centre Hemingway Road,Butetown,Cardiff,,,Cardiff,AwaitingInspection,,FHRS,False,51.4668115,-3.1636112,"Red Dragon Centre Hemingway Road, Butetown, Cardiff"
2026-01-06,1904752,BaxterStorey - Nisbets A18,Restaurant/Cafe/Canteen,Unit 8,Access 18,Avonmouth,Bristol,BS11 8HT,Bristol,AwaitingInspection,,FHRS,False,,,"Unit 8, Access 18, Avonmouth, Bristol, BS11 8HT"
2026-01-06,1904751,Butters Bakery,Restaurant/Cafe/Canteen,,,,,,Bristol,AwaitingInspection,,FHRS,False,,,
2026-01-06,1904759,Drinkbrink,Restaurant/Cafe/Canteen,,,,,,Bristol,AwaitingInspection,,FHRS,False,,,
2026-01-06,1904748,Gyreefic/Gyreeka/La Grano,Restaurant/Cafe/Canteen,,2 Harcourt Road,Westbury Park,Bristol,BS6 7RG,Bristol,AwaitingInspection,,FHRS,False,51.47737,-2.60723,"2 Harcourt Road, Westbury Park, Bristol, BS6 7RG"
2026-01-06,1278278,On A Roll,Restaurant/Cafe/Canteen,,3 Arnside Road,Southmead,Bristol,BS10 6AT,Bristol,3,2025-05-01,FHRS,False,51.503732,-2.60225,"3 Arnside Road, Southmead, Bristol, BS10 6AT"
2026-01-06,1904749,Vel Distributors,Restaurant/Cafe/Canteen,,,,,,Bristol,AwaitingInspection,,FHRS,False,,,
2026-01-06,1904758,Yummiz,Restaurant/Cafe/Canteen,,3 Gas Lane,St Philips,Bristol,BS2 0QL,Bristol,AwaitingInspection,,FHRS,False,51.450832,-2.57411,"3 Gas Lane, St Philips, Bristol, BS2 0QL"
2026-01-06,1904617,P’s Pizzeria,Restaurant/Cafe/Canteen,6 New Road,,Warboys,Cambridgeshire,PE28 2SS,Huntingdonshire,AwaitingInspection,,FHRS,False,52.401588,-0.0722889,"6 New Road, Warboys, Cambridgeshire, PE28 2SS"
2026-01-06,1904686,Nando's,Restaurant/Cafe/Canteen,Nando's,1 Queens Drive,Kilmarnock,East Ayrshire,KA1 3XF,East Ayrshire,Awaiting Inspection,2026-01-05,FHIS,False,55.6010579,-4.4899281,"Nando's, 1 Queens Drive, Kilmarnock, East Ayrshire, KA1 3XF"
2026-01-06,1904767,Cappadocia,Restaurant/Cafe/Canteen,,84-86 Mersey Street,,,WA1 2BP,Warrington,AwaitingInspection,,FHRS,False,53.3886492,-2.5885184,"84-86 Mersey Street, WA1 2BP"
2026-01-06,1904763,Jamaica Blue,Restaurant/Cafe/Canteen,"""Golden Square Shopping Centre",34 The Mall,,,WA1 1QP,Warrington,AwaitingInspection,,FHRS,False,53.3905728,-2.5966235,"""Golden Square Shopping Centre, 34 The Mall, WA1 1QP"
2026-01-06,1904769,Orford Perk,Restaurant/Cafe/Canteen,,9a School Road,,,WA2 9AB,Warrington,AwaitingInspection,,FHRS,False,53.4073167,-2.5815581,"9a School Road, WA2 9AB"
2026-01-06,1904760,Village Farmhouse & Coffee Shop,Restaurant/Cafe/Canteen,,22-24 Bridge Street,,,WA1 2QW,Warrington,AwaitingInspection,,FHRS,False,53.3882989,-2.593445,"22-24 Bridge Street, WA1 2QW"
2026-01-06,1904830,Craft Burger,Restaurant/Cafe/Canteen,,567 Durham Road,Gateshead,,NE9 5EY,Gateshead,AwaitingInspection,,FHRS,False,54.9343091,-1.5990122,"567 Durham Road, Gateshead, NE9 5EY"
2026-01-06,1904822,Dript,Restaurant/Cafe/Canteen,Units 45 To 46 Birtley Business Centre,Station Lane,Birtley Central,Birtley,DH3 1QT,Gateshead,AwaitingInspection,,FHRS,False,54.8959854,-1.5838624,"Units 45 To 46 Birtley Business Centre, Station Lane, Birtley Central, Birtley, DH3 1QT"
2026-01-06,1904826,Primavera,Restaurant/Cafe/Canteen,,568a Durham Road,Gateshead,,NE9 6HX,Gateshead,AwaitingInspection,,FHRS,False,54.9352014,-1.5998462,"568a Durham Road, Gateshead, NE9 6HX"
2026-01-06,1904823,The Lounge,Restaurant/Cafe/Canteen,Community Lounge,Boltons Bungalows,Chopwell,Newcastle Upon Tyne,NE17 7EP,Gateshead,AwaitingInspection,,FHRS,False,54.9135231,-1.8155721,"Community Lounge, Boltons Bungalows, Chopwell, Newcastle Upon Tyne, NE17 7EP"
2026-01-06,1904807,5 Dumplings,Restaurant/Cafe/Canteen,3 Wheatfield Street,Edinburgh,,,EH11 2NZ,Edinburgh (City of),Awaiting Inspection,2025-12-30,FHIS,False,55.937833,-3.233987,"3 Wheatfield Street, Edinburgh, EH11 2NZ"
2026-01-06,1904802,Buon Gusto,Restaurant/Cafe/Canteen,16 Buckstone Terrace,Edinburgh,,,EH10 6PZ,Edinburgh (City of),Awaiting Inspection,,FHIS,False,55.90854,-3.209572,"16 Buckstone Terrace, Edinburgh, EH10 6PZ"
2026-01-06,1904797,Chickoop,Restaurant/Cafe/Canteen,214 Dalry Road,Edinburgh,,,EH11 2ES,Edinburgh (City of),Awaiting Inspection,2025-12-22,FHIS,False,55.940658,-3.224647,"214 Dalry Road, Edinburgh, EH11 2ES"
2026-01-06,1904789,Edinburgh Zoo - Staff Canteen,Restaurant/Cafe/Canteen,134 Corstorphine Road,Edinburgh,,,EH12 6TS,Edinburgh (City of),Awaiting Inspection,2025-12-19,FHIS,False,55.942182,-3.269349,"134 Corstorphine Road, Edinburgh, EH12 6TS"
2026-01-06,1904806,Five Dumpling Street,Restaurant/Cafe/Canteen,87 Newhaven Road,Edinburgh,,,EH6 5QJ,Edinburgh (City of),Awaiting Inspection,2025-12-30,FHIS,False,,,"87 Newhaven Road, Edinburgh, EH6 5QJ"
2026-01-06,1904809,Frenchie,Restaurant/Cafe/Canteen,14 Broughton Street,Edinburgh,,,EH1 3RH,Edinburgh (City of),Awaiting Inspection,2025-12-30,FHIS,False,55.957176,-3.188601,"14 Broughton Street, Edinburgh, EH1 3RH"
2026-01-06,1904790,Grasslands Restaurant,Restaurant/Cafe/Canteen,134 Corstorphine Road,Edinburgh,,,EH12 6TS,Edinburgh (City of),Awaiting Inspection,2025-12-19,FHIS,False,55.942182,-3.269349,"134 Corstorphine Road, Edinburgh, EH12 6TS"
2026-01-06,1904796,Koko Bean,Restaurant/Cafe/Canteen,88 Easter Road,Edinburgh,,,EH7 5RQ,Edinburgh (City of),Awaiting Inspection,2025-12-22,FHIS,False,55.9587731,-3.1715104,"88 Easter Road, Edinburgh, EH7 5RQ"
2026-01-06,1904803,Korean BBQ,Restaurant/Cafe/Canteen,22 Coates Crescent,Edinburgh,,,EH3 7AF,Edinburgh (City of),Awaiting Inspection,2025-12-28,FHIS,False,55.9483413696289,-3.21352005004883,"22 Coates Crescent, Edinburgh, EH3 7AF"
2026-01-06,1904798,Malay Laska,Restaurant/Cafe/Canteen,Registered Street Trader,Edinburgh,,,EH5 1QD,Edinburgh (City of),Awaiting Inspection,2025-12-22,FHIS,False,,,"Registered Street Trader, Edinburgh, EH5 1QD"
2026-01-06,1904793,Penguin Cafe,Restaurant/Cafe/Canteen,134 Corstorphine Road,Edinburgh,,,EH12 6TS,Edinburgh (City of),Awaiting Inspection,2025-12-19,FHIS,False,55.942182,-3.269349,"134 Corstorphine Road, Edinburgh, EH12 6TS"
2026-01-06,1904792,Sloth Kiosk,Restaurant/Cafe/Canteen,134 Corstorphine Road,Edinburgh,,,EH12 6TS,Edinburgh (City of),Awaiting Inspection,2025-12-19,FHIS,False,55.942182,-3.269349,"134 Corstorphine Road, Edinburgh, EH12 6TS"
2026-01-06,1904799,Tapas3,Restaurant/Cafe/Canteen,6-8 Howden Street,Edinburgh,,,EH8 9HL,Edinburgh (City of),Awaiting Inspection,2025-12-23,FHIS,False,55.944089,-3.1821107,"6-8 Howden Street, Edinburgh, EH8 9HL"
2026-01-06,1904804,The Daaler,Restaurant/Cafe/Canteen,Registered Street Trader,Edinburgh,,,EH16 4AW,Edinburgh (City of),Awaiting Inspection,2025-12-29,FHIS,False,,,"Registered Street Trader, Edinburgh, EH16 4AW"
2026-01-06,1904808,The Elephant House,Restaurant/Cafe/Canteen,21 George Iv Bridge,Edinburgh,,,EH1 1EN,Edinburgh (City of),Awaiting Inspection,2025-12-30,FHIS,False,55.9475363,-3.1917793,"21 George Iv Bridge, Edinburgh, EH1 1EN"
2026-01-06,1904791,The Gannet,Restaurant/Cafe/Canteen,134 Corstorphine Road,Edinburgh,,,EH12 6TS,Edinburgh (City of),Awaiting Inspection,2025-12-19,FHIS,False,55.942182,-3.269349,"134 Corstorphine Road, Edinburgh, EH12 6TS"
2026-01-06,1904788,The Mansion House,Restaurant/Cafe/Canteen,134 Corstorphine Road,Edinburgh,,,EH12 6TS,Edinburgh (City of),Awaiting Inspection,2025-12-19,FHIS,False,55.942182,-3.269349,"134 Corstorphine Road, Edinburgh, EH12 6TS"
2026-01-06,1904787,The Tartan Loft Ltd,Restaurant/Cafe/Canteen,16 Buckstone Terrace,Edinburgh,,,EH10 6PZ,Edinburgh (City of),Awaiting Inspection,2025-12-19,FHIS,False,55.90854,-3.209572,"16 Buckstone Terrace, Edinburgh, EH10 6PZ"
2026-01-06,1904786,Zavi Wholesale,Restaurant/Cafe/Canteen,3b Bankhead Avenue,Edinburgh,,,EH11 4AA,Edinburgh (City of),Awaiting Inspection,,FHIS,False,55.9235076,-3.2925984,"3b Bankhead Avenue, Edinburgh, EH11 4AA"
2026-01-06,1904626,Planet Pizza & Chicken,Restaurant/Cafe/Canteen,313 High Street,Chatham,Medway,,ME4 4BN,Medway,AwaitingInspection,,FHRS,False,51.380711,0.5294185,"313 High Street, Chatham, Medway, ME4 4BN"
2026-01-06,1904667,Bara london limited,Restaurant/Cafe/Canteen,,44,Choumert Road,London,SE15 4SE,Southwark,AwaitingInspection,,FHRS,False,51.468194,-0.068554,"44, Choumert Road, London, SE15 4SE"
2026-01-06,1904673,Brandon burger,Restaurant/Cafe/Canteen,,1-3,Maddock Way,London,SE17 3NH,Southwark,AwaitingInspection,,FHRS,False,51.48273,-0.102967,"1-3, Maddock Way, London, SE17 3NH"
2026-01-06,1556854,Taggs coffee co.,Restaurant/Cafe/Canteen,,114,Camberwell Road,London,SE5 0EE,Southwark,5,2022-11-01,FHRS,False,51.4806348,-0.0946195,"114, Camberwell Road, London, SE5 0EE"
2026-01-06,1904677,Ensorcell and brew,Restaurant/Cafe/Canteen,5-6 Harold Place,Hastings,East Sussex,,TN34 1JA,Hastings,AwaitingInspection,,FHRS,False,50.855252,0.579966,"5-6 Harold Place, Hastings, East Sussex, TN34 1JA"
2026-01-06,1904678,Rustico Via,Restaurant/Cafe/Canteen,395 Old London Road,Hastings,East Sussex,,TN35 5BD,Hastings,AwaitingInspection,,FHRS,False,50.8718553,0.6084718,"395 Old London Road, Hastings, East Sussex, TN35 5BD"
2026-01-06,1904812,Baba Turkish Restaurant,Restaurant/Cafe/Canteen,,3-5 Gedling Street,,Nottingham,NG1 1DS,Nottingham City,AwaitingInspection,,FHRS,False,52.9540997,-1.1394384,"3-5 Gedling Street, Nottingham, NG1 1DS"
2026-01-06,1904821,Pulp & Prints Community Café,Restaurant/Cafe/Canteen,,553 Farnborough Road,,Nottingham,NG11 9DG,Nottingham City,AwaitingInspection,,FHRS,False,,,"553 Farnborough Road, Nottingham, NG11 9DG"
2026-01-06,1904820,Sipping Boba City Centre,Restaurant/Cafe/Canteen,,7 Beastmarket Hill,,Nottingham,NG1 6FB,Nottingham City,AwaitingInspection,,FHRS,False,52.95315,-1.151456,"7 Beastmarket Hill, Nottingham, NG1 6FB"
2026-01-06,1904777,Dalewood Trust- Calla Cafe,Restaurant/Cafe/Canteen,Eastside Community Centre Abbots Road,,,Whitby,YO22 4EB,North Yorkshire,AwaitingInspection,,FHRS,False,54.4775117,-0.6050874,"Eastside Community Centre Abbots Road, Whitby, YO22 4EB"
2026-01-06,1887101,Ivy's Tea Rooms,Restaurant/Cafe/Canteen,2 Market Place,,,Pickering,YO18 7AA,North Yorkshire,5,2025-08-11,FHRS,False,54.245845,-0.7769929,"2 Market Place, Pickering, YO18 7AA"
2026-01-06,1879433,Scarborough Cricket Club,Restaurant/Cafe/Canteen,118 North Marine Road,,,Scarborough,YO12 7TJ,North Yorkshire,5,2024-03-22,FHRS,False,54.2887303,-0.404131,"118 North Marine Road, Scarborough, YO12 7TJ"
2026-01-06,1879568,Scarborough RUFC,Restaurant/Cafe/Canteen,Silver Royd 569 Scalby Road,,,Scarborough,YO13 0NL,North Yorkshire,5,2024-06-19,FHRS,False,54.3080947,-0.4443602,"Silver Royd 569 Scalby Road, Scarborough, YO13 0NL"
2026-01-06,1904775,Sunkissed Studio,Restaurant/Cafe/Canteen,Unit 3 Apex Court,Sowerby,,Thirsk,YO7 3TQ,North Yorkshire,AwaitingInspection,,FHRS,False,54.2196501,-1.3553351,"Unit 3 Apex Court, Sowerby, Thirsk, YO7 3TQ"
2026-01-06,1904690,COCO NELSON,Restaurant/Cafe/Canteen,56 Manchester Road,Nelson,Lancashire,,BB9 7EJ,Pendle,AwaitingInspection,,FHRS,False,53.8357416,-2.2169275,"56 Manchester Road, Nelson, Lancashire, BB9 7EJ"
2026-01-06,1904781,George Caffee,Restaurant/Cafe/Canteen,1 Aberdare Market,Market Street,Aberdare,,CF44 7EB,Rhondda Cynon Taf,AwaitingInspection,,FHRS,False,51.7131117,-3.443626,"1 Aberdare Market, Market Street, Aberdare, CF44 7EB"
2026-01-06,1904782,Mount Ash Munchies,Restaurant/Cafe/Canteen,Rhydyfelin Non Political Club,Poplar Road,Rhydyfelin,Pontypridd,CF37 5LS,Rhondda Cynon Taf,AwaitingInspection,,FHRS,False,,,"Rhydyfelin Non Political Club, Poplar Road, Rhydyfelin, Pontypridd, CF37 5LS"
2026-01-06,1904783,Rhigos Community Coffee Morning,Restaurant/Cafe/Canteen,The Community Hall,Heol Esgyn,Rhigos,Aberdare,CF44 9BJ,Rhondda Cynon Taf,AwaitingInspection,,FHRS,False,,,"The Community Hall, Heol Esgyn, Rhigos, Aberdare, CF44 9BJ"
2026-01-06,1904780,The Rhondda Herb Project,Restaurant/Cafe/Canteen,Municipal Offices,Llewellyn Street,Pentre,,CF41 7BT,Rhondda Cynon Taf,AwaitingInspection,,FHRS,False,51.6535797,-3.4901026,"Municipal Offices, Llewellyn Street, Pentre, CF41 7BT"
2026-01-06,1904640,Cedar Cafe,Restaurant/Cafe/Canteen,Highfield Park Llangwyfan,,Denbigh,,LL16 4LU,Denbighshire,AwaitingInspection,,FHRS,False,,,"Highfield Park Llangwyfan, Denbigh, LL16 4LU"
2026-01-06,1904640,Cedar Cafe,Restaurant/Cafe/Canteen,Highfield Park Llangwyfan,,Denbigh,,LL16 4LU,Sir Ddinbych,AwaitingInspection,,FHRS,False,,,"Highfield Park Llangwyfan, Denbigh, LL16 4LU"
2026-01-06,1904620,Indian Brewery Company,Restaurant/Cafe/Canteen,Terminal 1,Birmingham International Airport,Airport Way,Birmingham Airport,B26 3QZ,Solihull,AwaitingInspection,,FHRS,False,,,"Terminal 1, Birmingham International Airport, Airport Way, Birmingham Airport, B26 3QZ"
2026-01-06,1904781,George Caffee,Restaurant/Cafe/Canteen,1 Aberdare Market,Market Street,Aberdare,,CF44 7EB,Rhondda Cynon Taf,AwaitingInspection,,FHRS,False,51.7131117,-3.443626,"1 Aberdare Market, Market Street, Aberdare, CF44 7EB"
2026-01-06,1904782,Mount Ash Munchies,Restaurant/Cafe/Canteen,Rhydyfelin Non Political Club,Poplar Road,Rhydyfelin,Pontypridd,CF37 5LS,Rhondda Cynon Taf,AwaitingInspection,,FHRS,False,,,"Rhydyfelin Non Political Club, Poplar Road, Rhydyfelin, Pontypridd, CF37 5LS"
2026-01-06,1904783,Rhigos Community Coffee Morning,Restaurant/Cafe/Canteen,The Community Hall,Heol Esgyn,Rhigos,Aberdare,CF44 9BJ,Rhondda Cynon Taf,AwaitingInspection,,FHRS,False,,,"The Community Hall, Heol Esgyn, Rhigos, Aberdare, CF44 9BJ"
2026-01-06,1904780,The Rhondda Herb Project,Restaurant/Cafe/Canteen,Municipal Offices,Llewellyn Street,Pentre,,CF41 7BT,Rhondda Cynon Taf,AwaitingInspection,,FHRS,False,51.6535797,-3.4901026,"Municipal Offices, Llewellyn Street, Pentre, CF41 7BT"
2026-01-07,1904876,The Cakery,Restaurant/Cafe/Canteen,,,,,,Wigan,AwaitingInspection,,FHRS,False,,,
2026-01-07,1905127,The View Cafe,Restaurant/Cafe/Canteen,Osea Leisure Park,Goldhanger Road,Heybridge,Maldon,CM9 4SA,Maldon,AwaitingInspection,,FHRS,False,51.733957,0.727761,"Osea Leisure Park, Goldhanger Road, Heybridge, Maldon, CM9 4SA"
2026-01-07,1905103,Desserts At The Gate,Restaurant/Cafe/Canteen,Kiosk 2,Westgate,Halifax,Calderdale,HX1 1DJ,Calderdale,AwaitingInspection,,FHRS,False,53.7215428,-1.8596233,"Kiosk 2, Westgate, Halifax, Calderdale, HX1 1DJ"
2026-01-07,1905100,Simple Food,Restaurant/Cafe/Canteen,Lowfields Business Park,Lowfields Way,Lowfields,Elland,,Calderdale,AwaitingInspection,,FHRS,False,,,"Lowfields Business Park, Lowfields Way, Lowfields, Elland"
2026-01-07,1905102,Street Food At The Gate,Restaurant/Cafe/Canteen,Kiosk 1,Westgate,Halifax,Calderdale,HX1 1DJ,Calderdale,AwaitingInspection,,FHRS,False,53.7215443,-1.859622,"Kiosk 1, Westgate, Halifax, Calderdale, HX1 1DJ"
2026-01-07,1905105,The Brow Cafe,Restaurant/Cafe/Canteen,14 Rochdale Road,Greetland,Elland,Calderdale,HX4 8AL,Calderdale,AwaitingInspection,,FHRS,False,53.6879535,-1.8550381,"14 Rochdale Road, Greetland, Elland, Calderdale, HX4 8AL"
2026-01-07,1905106,The Snackery,Restaurant/Cafe/Canteen,Unit 6,Kirklees Steel Works,Grove Street,Brighouse,HD6 1PL,Calderdale,AwaitingInspection,,FHRS,False,53.7011334,-1.7753512,"Unit 6, Kirklees Steel Works, Grove Street, Brighouse, HD6 1PL"
2026-01-07,1904928,Malikas Asian Fusion,Restaurant/Cafe/Canteen,491 Marston Road,Oxford,Oxfordshire,,OX3 0JQ,Oxford City,AwaitingInspection,,FHRS,False,51.767112,-1.232747,"491 Marston Road, Oxford, Oxfordshire, OX3 0JQ"
2026-01-07,1904923,Namaskar,Restaurant/Cafe/Canteen,6 Park End Street,Oxford,Oxfordshire,,OX1 1HH,Oxford City,AwaitingInspection,,FHRS,False,51.752936,-1.265583,"6 Park End Street, Oxford, Oxfordshire, OX1 1HH"
2026-01-07,1904922,Ramen Koncept,Restaurant/Cafe/Canteen,1 The Parade,Windmill Road,Oxford,Oxfordshire,OX3 7BL,Oxford City,AwaitingInspection,,FHRS,False,51.759871,-1.210514,"1 The Parade, Windmill Road, Oxford, Oxfordshire, OX3 7BL"
2026-01-07,1904926,Santander Work Cafe,Restaurant/Cafe/Canteen,Ground Basement And First Floor,Abbey House,121 St Aldate's,Oxford,OX1 1EJ,Oxford City,AwaitingInspection,,FHRS,False,51.7517589,-1.2577916,"Ground Basement And First Floor, Abbey House, 121 St Aldate's, Oxford, OX1 1EJ"
2026-01-07,1904883,Ranch Cafe,Restaurant/Cafe/Canteen,30 Croftlands,Dewsbury,,,WF12 7EP,Kirklees,AwaitingInspection,,FHRS,False,53.7024588,-1.6113786,"30 Croftlands, Dewsbury, WF12 7EP"
2026-01-07,1904881,The Bridge Kitchen,Restaurant/Cafe/Canteen,3 Huddersfield Road,Honley,Holmfirth,,HD9 6PE,Kirklees,AwaitingInspection,,FHRS,False,53.6046337,-1.7887373,"3 Huddersfield Road, Honley, Holmfirth, HD9 6PE"
2026-01-07,1905000,AL AREZ,Restaurant/Cafe/Canteen,,268 West End Lane,,London,NW6 1LJ,Camden,AwaitingInspection,,FHRS,False,51.5517933,-0.1917235,"268 West End Lane, London, NW6 1LJ"
2026-01-07,1904973,ART & BAZZAR Ltd,Restaurant/Cafe/Canteen,,119 Kentish Town Road,,London,NW1 8PB,Camden,AwaitingInspection,,FHRS,False,51.5443932,-0.1416984,"119 Kentish Town Road, London, NW1 8PB"
2026-01-07,1905002,"Casa Jako,",Restaurant/Cafe/Canteen,,29-30 High Holborn,,London,WC1V 6AZ,Camden,AwaitingInspection,,FHRS,False,51.5185425,-0.1131739,"29-30 High Holborn, London, WC1V 6AZ"
2026-01-07,1904999,CHULAH,Restaurant/Cafe/Canteen,,18 Store Street,,London,WC1E 7DH,Camden,AwaitingInspection,,FHRS,False,51.5199395,-0.1319125,"18 Store Street, London, WC1E 7DH"
2026-01-07,1905003,Copains,Restaurant/Cafe/Canteen,,54 Neal Street,,London,WC2H 9PA,Camden,AwaitingInspection,,FHRS,False,51.5146447,-0.1258308,"54 Neal Street, London, WC2H 9PA"
2026-01-07,1904987,CREAMS,Restaurant/Cafe/Canteen,246-248,Kentish Town Road,,London,NW5 2AB,Camden,AwaitingInspection,,FHRS,False,51.5493677,-0.1406591,"246-248, Kentish Town Road, London, NW5 2AB"
2026-01-07,1904981,JAQUERIA DON CHUY,Restaurant/Cafe/Canteen,,109 Camden High Street,,London,NW1 7JN,Camden,AwaitingInspection,,FHRS,False,51.5369404,-0.1412667,"109 Camden High Street, London, NW1 7JN"
2026-01-07,1904988,KILL BEAN,Restaurant/Cafe/Canteen,,207 Belsize Road,,London,NW6 4AA,Camden,AwaitingInspection,,FHRS,False,51.5383761,-0.1905395,"207 Belsize Road, London, NW6 4AA"
2026-01-07,1904976,Lexington @ BT Tower,Restaurant/Cafe/Canteen,,60 Cleveland Street,,London,W1T 4JZ,Camden,5,2025-11-24,FHRS,False,,,"60 Cleveland Street, London, W1T 4JZ"
2026-01-07,1904997,MASA TACOS,Restaurant/Cafe/Canteen,Seven Dials Market,Earlham Street,,London,WC2H 9LX,Camden,AwaitingInspection,,FHRS,False,51.5140571594238,-0.125710994005203,"Seven Dials Market, Earlham Street, London, WC2H 9LX"
2026-01-07,1904977,MITSURYU,Restaurant/Cafe/Canteen,,9 South End Road,,London,NW3 2PT,Camden,AwaitingInspection,,FHRS,True,51.5543239,-0.1658886,"9 South End Road, London, NW3 2PT"
2026-01-07,1904990,Ning Fresh Beef Hot Pot + Cantonese,Restaurant/Cafe/Canteen,,5-7 Tottenham Street,,,W1T 2AG,Camden,AwaitingInspection,,FHRS,True,51.5205895,-0.1348985,"5-7 Tottenham Street, W1T 2AG"
2026-01-07,1904991,PAD THAI CAFE,Restaurant/Cafe/Canteen,Unit M178 Upper Ground Floor A2 Lower Lock,Hawley Wharf,,London,NW1 8RP,Camden,AwaitingInspection,,FHRS,False,,,"Unit M178 Upper Ground Floor A2 Lower Lock, Hawley Wharf, London, NW1 8RP"
2026-01-07,1904993,Restaurant Associates at Virgin,Restaurant/Cafe/Canteen,,50a Charlotte Street,,London,W1T 2NS,Camden,AwaitingInspection,,FHRS,False,51.519861,-0.1354936,"50a Charlotte Street, London, W1T 2NS"
2026-01-07,1904984,Under The Canopy Play Cafe,Restaurant/Cafe/Canteen,,87 Fortess Road,,London,NW5 1AG,Camden,AwaitingInspection,,FHRS,False,51.5547121,-0.140268,"87 Fortess Road, London, NW5 1AG"
2026-01-07,1904937,Aromas Cafe,Restaurant/Cafe/Canteen,Aromas Cafe,11 Church Street,Weybridge,Surrey,KT13 8DE,Elmbridge,AwaitingInspection,,FHRS,False,51.3722954,-0.4595344,"Aromas Cafe, 11 Church Street, Weybridge, Surrey, KT13 8DE"
2026-01-07,1904942,Olive and basil pizzeria,Restaurant/Cafe/Canteen,Olive and basil pizzeria,1 Hampton Court Parade,East Molesey,Surrey,KT8 9HB,Elmbridge,AwaitingInspection,,FHRS,False,51.4015118,-0.3434684,"Olive and basil pizzeria, 1 Hampton Court Parade, East Molesey, Surrey, KT8 9HB"
2026-01-07,1904936,Weybridge Community Hub,Restaurant/Cafe/Canteen,Weybridge Community Hub,Weybridge Library,Church Street,Weybridge,KT13 8DE,Elmbridge,AwaitingInspection,,FHRS,False,51.3720627,-0.4603037,"Weybridge Community Hub, Weybridge Library, Church Street, Weybridge, KT13 8DE"
2026-01-07,1905129,Abercromby Arms,Restaurant/Cafe/Canteen,14 Stirling Road,Tullibody,Clackmannanshire,,FK10 2QE,Clackmannanshire,Awaiting Inspection,2026-01-05,FHIS,False,56.1354873,-3.8369606,"14 Stirling Road, Tullibody, Clackmannanshire, FK10 2QE"
2026-01-07,1905029,DCC Gala Theatre,Restaurant/Cafe/Canteen,1-2 MILLENNIUM PLACE,,DURHAM,,DH1 1WA,Durham,AwaitingInspection,,FHRS,False,,,"1-2 MILLENNIUM PLACE, DURHAM, DH1 1WA"
2026-01-07,1905042,Glasshouse,Restaurant/Cafe/Canteen,9-11 BURNHOPE WAY,,PETERLEE,,SR8 1BT,Durham,AwaitingInspection,,FHRS,False,54.7600699,-1.3361868,"9-11 BURNHOPE WAY, PETERLEE, SR8 1BT"
2026-01-07,1905045,Hobson Golf Club LTD,Restaurant/Cafe/Canteen,HOBSON GOLF CLUB,,HOBSON,,NE16 6BZ,Durham,AwaitingInspection,,FHRS,False,,,"HOBSON GOLF CLUB, HOBSON, NE16 6BZ"
2026-01-07,1905041,Jim's Golden Fry,Restaurant/Cafe/Canteen,2 CRAGHEAD ROAD,,PELTON FELL,,DH2 2NH,Durham,AwaitingInspection,,FHRS,False,54.8583341,-1.6085827,"2 CRAGHEAD ROAD, PELTON FELL, DH2 2NH"
2026-01-07,1905032,Mondo?s Pizzeria,Restaurant/Cafe/Canteen,1 GRANBY TERRACE,,WINGATE,,TS28 5HZ,Durham,AwaitingInspection,,FHRS,False,54.7356115,-1.3801313,"1 GRANBY TERRACE, WINGATE, TS28 5HZ"
2026-01-07,1905050,Pizza Bella,Restaurant/Cafe/Canteen,51 HIGH STREET SOUTH,,LANGLEY MOOR,,DH7 8EU,Durham,AwaitingInspection,,FHRS,False,,,"51 HIGH STREET SOUTH, LANGLEY MOOR, DH7 8EU"
2026-01-07,1905044,Pizza Nova,Restaurant/Cafe/Canteen,PIZZA NOVA PETER LEE COTTAGES,,WHEATLEY HILL,,DH6 3RH,Durham,AwaitingInspection,,FHRS,False,,,"PIZZA NOVA PETER LEE COTTAGES, WHEATLEY HILL, DH6 3RH"
2026-01-07,1905035,SAMBUCA CONSETT,Restaurant/Cafe/Canteen,THE OLD COURTHOUSE VICTORIA ROAD,,CONSETT,,DH8 5AX,Durham,AwaitingInspection,,FHRS,False,,,"THE OLD COURTHOUSE VICTORIA ROAD, CONSETT, DH8 5AX"
2026-01-07,1905025,The Armoury,Restaurant/Cafe/Canteen,21 NORTH TERRACE,,SEAHAM,,SR7 7EU,Durham,AwaitingInspection,,FHRS,False,54.8396165,-1.3325933,"21 NORTH TERRACE, SEAHAM, SR7 7EU"
2026-01-07,1905024,The Bengal Merchant*,Restaurant/Cafe/Canteen,7 THE BANK,,BARNARD CASTLE,,DL12 8PH,Durham,AwaitingInspection,,FHRS,False,54.5419477,-1.9240527,"7 THE BANK, BARNARD CASTLE, DL12 8PH"
2026-01-07,1905047,The Luxury Little Play Company Play Café,Restaurant/Cafe/Canteen,YOUTH CENTRE BURN LANE,,NEWTON AYCLIFFE,,DL5 4HT,Durham,AwaitingInspection,,FHRS,False,,,"YOUTH CENTRE BURN LANE, NEWTON AYCLIFFE, DL5 4HT"
2026-01-07,1905018,The Pavilion Restaurant,Restaurant/Cafe/Canteen,THE PAVILION IVESTON LANE,,IVESTON,,DH8 7TE,Durham,AwaitingInspection,,FHRS,False,,,"THE PAVILION IVESTON LANE, IVESTON, DH8 7TE"
2026-01-07,1891236,Seacrest Fish And Chips,Restaurant/Cafe/Canteen,369 Westborough Road,Westcliff-on-sea,Essex,,SS0 9TS,Southend-On-Sea,AwaitingInspection,,FHRS,True,51.5476194,0.6830866,"369 Westborough Road, Westcliff-on-sea, Essex, SS0 9TS"
2026-01-07,1904555,Subway,Restaurant/Cafe/Canteen,Unit 2,Creation Centre,Back Quay,Truro,TR1 2LL,Cornwall,AwaitingInspection,,FHRS,False,50.2624094,-5.0497348,"Unit 2, Creation Centre, Back Quay, Truro, TR1 2LL"
2026-01-07,510779,The Boathouse Charlestown,Restaurant/Cafe/Canteen,Charlies Boathouse,Charlestown Road,Charlestown,St Austell,PL25 3NJ,Cornwall,5,2022-11-10,FHRS,False,50.33165,-4.75778,"Charlies Boathouse, Charlestown Road, Charlestown, St Austell, PL25 3NJ"
2026-01-07,1905098,Bistro Balsamico,Restaurant/Cafe/Canteen,19 High Street,Edwinstowe,,,NG21 9QP,Newark and Sherwood,AwaitingInspection,,FHRS,False,53.1944278,-1.0641651,"19 High Street, Edwinstowe, NG21 9QP"
2026-01-07,1905139,The Good Shepherds,Restaurant/Cafe/Canteen,Vicarage At Christ The Redeemer,Allenby Road,Southall,,UB1 2HE,Ealing,AwaitingInspection,,FHRS,False,51.5259665,-0.3658408,"Vicarage At Christ The Redeemer, Allenby Road, Southall, UB1 2HE"
2026-01-07,1905056,239 AfroFusion,Restaurant/Cafe/Canteen,,106-108 Sharrow Lane,Sheffield,,S11 8AL,Sheffield,AwaitingInspection,,FHRS,False,53.3677587,-1.4790888,"106-108 Sharrow Lane, Sheffield, S11 8AL"
2026-01-07,1905063,Hanar Cafe,Restaurant/Cafe/Canteen,,560 Abbeydale Road,Sheffield,,S7 1TD,Sheffield,AwaitingInspection,,FHRS,False,53.3563166,-1.4847062,"560 Abbeydale Road, Sheffield, S7 1TD"
2026-01-07,1767555,HARC - Homeless & Rootless at Christmas,Restaurant/Cafe/Canteen,Victoria Hall Methodist Church,Norfolk Street,Sheffield,,S1 2JB,Sheffield,AwaitingInspection,,FHRS,False,53.381728,-1.467043,"Victoria Hall Methodist Church, Norfolk Street, Sheffield, S1 2JB"
2026-01-07,451885,Hawk and Dove,Restaurant/Cafe/Canteen,,7 Thorpe Green,Sheffield,,S20 7HH,Sheffield,AwaitingInspection,,FHRS,True,53.3379359,-1.3558689,"7 Thorpe Green, Sheffield, S20 7HH"
2026-01-07,436426,Heeley Artisan,Restaurant/Cafe/Canteen,,631-633 London Road,Sheffield,,S2 4HT,Sheffield,AwaitingInspection,,FHRS,False,53.359799,-1.473958,"631-633 London Road, Sheffield, S2 4HT"
2026-01-07,1905064,Joe’s Cafe,Restaurant/Cafe/Canteen,,15A Beighton Road,Woodhouse,Sheffield,S13 7PL,Sheffield,AwaitingInspection,,FHRS,False,53.3580452,-1.3649486,"15A Beighton Road, Woodhouse, Sheffield, S13 7PL"
2026-01-07,1905071,Signature falafel and grill,Restaurant/Cafe/Canteen,,419 Ecclesall Road,Sheffield,,S11 8PG,Sheffield,AwaitingInspection,,FHRS,False,53.36985033,-1.49302552,"419 Ecclesall Road, Sheffield, S11 8PG"
2026-01-07,1904872,Dinkys Dinah,Restaurant/Cafe/Canteen,Dinkys Dinah Lay By,Ford,Shrewsbury,Shropshire,SY5 9LG,Shropshire,AwaitingInspection,,FHRS,False,,,"Dinkys Dinah Lay By, Ford, Shrewsbury, Shropshire, SY5 9LG"
2026-01-07,1705909,Shifnal Golf Club,Restaurant/Cafe/Canteen,Shifnal Golf Club,Decker Hill,Shifnal,Shropshire,TF11 8QL,Shropshire,5,2025-12-09,FHRS,False,,,"Shifnal Golf Club, Decker Hill, Shifnal, Shropshire, TF11 8QL"
2026-01-07,1905099,Brotherdough Co.,Restaurant/Cafe/Canteen,4 Arcade Parade,Elm Road,Chessington,,KT9 1AB,Kingston-Upon-Thames,AwaitingInspection,,FHRS,False,51.3674259,-0.3060999,"4 Arcade Parade, Elm Road, Chessington, KT9 1AB"
2026-01-07,1905083,Afghan Imperial Restaurant (AIR),Restaurant/Cafe/Canteen,203  Alum Rock Road,Birmingham,,,B8 1EU,Birmingham,AwaitingInspection,,FHRS,False,,,"203  Alum Rock Road, Birmingham, B8 1EU"
2026-01-07,1905087,Bun and Peri,Restaurant/Cafe/Canteen,870  Washwood Heath Road,Birmingham,,,B8 2NG,Birmingham,AwaitingInspection,,FHRS,False,52.493245,-1.8215624,"870  Washwood Heath Road, Birmingham, B8 2NG"
2026-01-07,1905091,Burst & Bite,Restaurant/Cafe/Canteen,,,,,,Birmingham,AwaitingInspection,,FHRS,False,,,
2026-01-07,1524164,Royal Shinwari,Restaurant/Cafe/Canteen,883 Washwood Heath Road,Birmingham,,,B8 2NA.,Birmingham,5,2025-04-28,FHRS,False,52.4929368,-1.818776,"883 Washwood Heath Road, Birmingham, B8 2NA."
2026-01-07,1905084,Rudy's Pizza,Restaurant/Cafe/Canteen,10 Birmingham Road,Sutton Trinity,Birmingham,Birmingham,B72 1QG,Birmingham,AwaitingInspection,,FHRS,False,52.558992,-1.826888,"10 Birmingham Road, Sutton Trinity, Birmingham, Birmingham, B72 1QG"
2026-01-07,1905090,Toronto Crispy,Restaurant/Cafe/Canteen,17 Muntz Street,Birmingham,,,B10 9SN,Birmingham,2,2025-11-20,FHRS,False,52.469939,-1.8572481,"17 Muntz Street, Birmingham, B10 9SN"
2026-01-07,306146,Abbot's Kitchen,Restaurant/Cafe/Canteen,The Chapter House,The Cathedral And Abbey Church Of St Alban,Holywell Hill,St Albans,AL1 1BY,St Albans City,5,2025-06-19,FHRS,False,,,"The Chapter House, The Cathedral And Abbey Church Of St Alban, Holywell Hill, St Albans, AL1 1BY"
2026-01-07,1904958,Pret a Manger St Albans,Restaurant/Cafe/Canteen,25-27 St Peters Street,St Albans,Hertfordshire,,AL1 3DP,St Albans City,5,2025-04-09,FHRS,False,51.753199,-0.338461,"25-27 St Peters Street, St Albans, Hertfordshire, AL1 3DP"
2026-01-07,1904852,Late Night Kitchen,Restaurant/Cafe/Canteen,,77 Marsh Wall,London,,E14 9SH,Tower Hamlets,AwaitingInspection,,FHRS,False,51.5007256,-0.0166099,"77 Marsh Wall, London, E14 9SH"
2026-01-07,1905096,Buona Bottega,Restaurant/Cafe/Canteen,111 High Street,Brentwood,Essex,,CM14 4RX,Brentwood,AwaitingInspection,,FHRS,False,51.619891,0.299096,"111 High Street, Brentwood, Essex, CM14 4RX"
2026-01-07,1904877,The Mahal Restaurant,Restaurant/Cafe/Canteen,Montpellier House,Montpellier Drive,Cheltenham,Gloucestershire,GL50 1TY,Cheltenham,AwaitingInspection,,FHRS,False,51.8943904,-2.0764856,"Montpellier House, Montpellier Drive, Cheltenham, Gloucestershire, GL50 1TY"
2026-01-07,1905119,AWS Cafe,Restaurant/Cafe/Canteen,134 Roundhay Road,Leeds,,,LS8 5NA,Leeds,AwaitingInspection,,FHRS,True,53.810903,-1.5248578,"134 Roundhay Road, Leeds, LS8 5NA"
2026-01-07,1905111,Bolt And Bean,Restaurant/Cafe/Canteen,44 - 50 Green Road,Meanwood,Leeds,,LS6 4JP,Leeds,AwaitingInspection,,FHRS,False,53.8292007,-1.5671164,"44 - 50 Green Road, Meanwood, Leeds, LS6 4JP"
2026-01-07,1823300,India Bistro,Restaurant/Cafe/Canteen,33 - 35 Harrogate Road,Moortown,Leeds,,LS7 3PD,Leeds,AwaitingInspection,,FHRS,False,53.828093,-1.5376083,"33 - 35 Harrogate Road, Moortown, Leeds, LS7 3PD"
2026-01-07,1905114,Little Athens,Restaurant/Cafe/Canteen,570 Meanwood Road,Meanwood,Leeds,,LS6 4AZ,Leeds,AwaitingInspection,,FHRS,False,53.82769,-1.566414,"570 Meanwood Road, Meanwood, Leeds, LS6 4AZ"
2026-01-07,1905122,Mabgate Campus - UC,Restaurant/Cafe/Canteen,Mabgate Campus,68 Mabgate,Sheepscar,Leeds,LS9 7DZ,Leeds,AwaitingInspection,,FHRS,False,53.80257025,-1.53015373,"Mabgate Campus, 68 Mabgate, Sheepscar, Leeds, LS9 7DZ"
2026-01-07,1905115,Rajas Food House,Restaurant/Cafe/Canteen,324 Stanningley Road,Leeds,,,LS13 3EG,Leeds,AwaitingInspection,,FHRS,False,53.8065754,-1.6369575,"324 Stanningley Road, Leeds, LS13 3EG"
2026-01-07,1905118,Shaftesbury Fisheries,Restaurant/Cafe/Canteen,603 Harehills Lane,Leeds,,,LS9 6NQ,Leeds,AwaitingInspection,,FHRS,False,53.8021254,-1.4992659,"603 Harehills Lane, Leeds, LS9 6NQ"
2026-01-07,1905109,Spice Chilli Hut,Restaurant/Cafe/Canteen,189 Chapeltown Road,Chapeltown,Leeds,,LS7 3DU,Leeds,AwaitingInspection,,FHRS,False,53.814632,-1.533196,"189 Chapeltown Road, Chapeltown, Leeds, LS7 3DU"
2026-01-07,1905113,T Chippy LTD,Restaurant/Cafe/Canteen,9 Coldcotes Circus,Gipton,Leeds,,LS9 6QE,Leeds,AwaitingInspection,,FHRS,False,53.808567,-1.494008,"9 Coldcotes Circus, Gipton, Leeds, LS9 6QE"
2026-01-07,1905121,The Golden Calabash,Restaurant/Cafe/Canteen,480 Harehills Lane,Leeds,,,LS9 6NG,Leeds,AwaitingInspection,,FHRS,False,53.8021465,-1.5000248,"480 Harehills Lane, Leeds, LS9 6NG"
2026-01-07,375058,Barton Grange Group Limited,Restaurant/Cafe/Canteen,The Flower Bowl Entertainment Centre,Garstang Road,Claughton-on-brock,Preston,PR3 0BT,Wyre,5,2025-01-09,FHRS,False,,,"The Flower Bowl Entertainment Centre, Garstang Road, Claughton-on-brock, Preston, PR3 0BT"
2026-01-07,1905161,Cafe Idil,Restaurant/Cafe/Canteen,362 Aigburth Road,,Liverpool,,L17 6AE,Liverpool,AwaitingInspection,,FHRS,False,53.3672173,-2.9255288,"362 Aigburth Road, Liverpool, L17 6AE"
2026-01-07,1905159,D MOMENT,Restaurant/Cafe/Canteen,469 - 471 Smithdown Road,,Liverpool,,L15 5AE,Liverpool,AwaitingInspection,,FHRS,False,53.3898587,-2.9266287,"469 - 471 Smithdown Road, Liverpool, L15 5AE"
2026-01-07,1905162,Top Burgers,Restaurant/Cafe/Canteen,60 Lark Lane,,Liverpool,,L17 8UU,Liverpool,AwaitingInspection,,FHRS,False,53.3814461,-2.9451409,"60 Lark Lane, Liverpool, L17 8UU"
2026-01-07,1019618,Dollys Pantry,Restaurant/Cafe/Canteen,The Village Inn,Club Parade,St Osyth,Clacton On Sea,CO16 8SX,Tendring,3,2024-02-28,FHRS,False,51.7734680175781,1.08061897754669,"The Village Inn, Club Parade, St Osyth, Clacton On Sea, CO16 8SX"
2026-01-07,1904969,Hot Shots Restaurant & Event Catering,Restaurant/Cafe/Canteen,Clacton and District Indoor Bowling Club,Valley Road,Clacton On Sea,Essex,CO15 6NA,Tendring,5,2025-12-10,FHRS,False,,,"Clacton and District Indoor Bowling Club, Valley Road, Clacton On Sea, Essex, CO15 6NA"
2026-01-07,1899282,Inclusion Ventures,Restaurant/Cafe/Canteen,Coppins Hall Community Centre,Maldon Way,Clacton On Sea,Essex,CO16 7PA,Tendring,4,2025-11-28,FHRS,False,51.797446,1.1276297,"Coppins Hall Community Centre, Maldon Way, Clacton On Sea, Essex, CO16 7PA"
2026-01-07,1904850,Boars Head,Restaurant/Cafe/Canteen,4 Clwyd Street,,Ruthin,Denbighshire,LL15 1HW,Denbighshire,AwaitingInspection,,FHRS,False,53.114268,-3.312248,"4 Clwyd Street, Ruthin, Denbighshire, LL15 1HW"
2026-01-07,1904850,Boars Head,Restaurant/Cafe/Canteen,4 Clwyd Street,,Ruthin,Denbighshire,LL15 1HW,Sir Ddinbych,AwaitingInspection,,FHRS,False,53.114268,-3.312248,"4 Clwyd Street, Ruthin, Denbighshire, LL15 1HW"
2026-01-07,1904916,Backstreet Bowls,Restaurant/Cafe/Canteen,,Kitchen at 23 The Terrace,Wokingham,,RG40 1BP,Wokingham,AwaitingInspection,,FHRS,False,51.4123353,-0.8382982,"Kitchen at 23 The Terrace, Wokingham, RG40 1BP"
2026-01-07,1843956,Coco Creams,Restaurant/Cafe/Canteen,12 Church Street,Ruddington,Nottinghamshire,,NG11 6HA,Rushcliffe,AwaitingInspection,,FHRS,False,52.892289,-1.14997,"12 Church Street, Ruddington, Nottinghamshire, NG11 6HA"
2026-01-07,1904913,Chichas Restaurant,Restaurant/Cafe/Canteen,,4 Lodge Avenue,,Dagenham,RM8 2JA,Barking and Dagenham,AwaitingInspection,,FHRS,False,51.550701,0.113481,"4 Lodge Avenue, Dagenham, RM8 2JA"
2026-01-07,1904914,Eyeware Cafe,Restaurant/Cafe/Canteen,Unit 3 Leslie Hitchcock House,21 Minter Road,,Barking,IG11 0TH,Barking and Dagenham,AwaitingInspection,,FHRS,False,51.5205837,0.1077655,"Unit 3 Leslie Hitchcock House, 21 Minter Road, Barking, IG11 0TH"
2026-01-07,1904866,Omnia Coffee & Roaster,Restaurant/Cafe/Canteen,89 Wollaton Road,Beeston,Nottinghamshire,,NG9 2NP,Broxtowe,AwaitingInspection,,FHRS,False,52.9296629,-1.2188726,"89 Wollaton Road, Beeston, Nottinghamshire, NG9 2NP"
2026-01-08,1905249,Koh Lanta Thai Restaurant,Restaurant/Cafe/Canteen,42 Station Way,Buckhurst Hill,Essex,,IG9 6LN,Epping Forest,5,2025-12-15,FHRS,False,51.6175021,0.0443083,"42 Station Way, Buckhurst Hill, Essex, IG9 6LN"
2026-01-08,1905247,TARU,Restaurant/Cafe/Canteen,79 Queens Road,Buckhurst Hill,Essex,,IG9 5BW,Epping Forest,5,2025-12-01,FHRS,False,51.625632,0.04215,"79 Queens Road, Buckhurst Hill, Essex, IG9 5BW"
2026-01-08,1905357,Esquires Coffee Leatherhead,Restaurant/Cafe/Canteen,2,Swan Centre,,Leatherhead,KT22 8AH,Mole Valley,AwaitingInspection,,FHRS,False,,,"2, Swan Centre, Leatherhead, KT22 8AH"
2026-01-08,1905343,Giggleville,Restaurant/Cafe/Canteen,The Old Barn,Parrot Inn,,,RH5 5RZ,Mole Valley,AwaitingInspection,,FHRS,False,51.1606858,-0.3937803,"The Old Barn, Parrot Inn, RH5 5RZ"
2026-01-08,1905345,JAVA Caffe,Restaurant/Cafe/Canteen,33 South Street,Dorking,,,RH4 2JZ,Mole Valley,AwaitingInspection,,FHRS,False,51.2300155,-0.3341631,"33 South Street, Dorking, RH4 2JZ"
2026-01-08,1905342,LJs Brew & bites,Restaurant/Cafe/Canteen,204,Barnett Wood Lane,,Ashtead,KT21 2DB,Mole Valley,AwaitingInspection,,FHRS,False,51.3133176,-0.3104704,"204, Barnett Wood Lane, Ashtead, KT21 2DB"
2026-01-08,1905356,Powers,Restaurant/Cafe/Canteen,,,,,,Mole Valley,AwaitingInspection,,FHRS,False,,,
2026-01-08,1905346,"Surrey Hills Pizzeria, Cafe & Deli LTD",Restaurant/Cafe/Canteen,10 Beare Green Court,Old Horsham Road,,Beare Green,RH5 4SL,Mole Valley,AwaitingInspection,,FHRS,False,51.179687,-0.317914,"10 Beare Green Court, Old Horsham Road, Beare Green, RH5 4SL"
2026-01-08,1905352,Sweet Willow,Restaurant/Cafe/Canteen,297,High Street,,,RH4 1RE,Mole Valley,AwaitingInspection,,FHRS,False,51.2346771,-0.3268325,"297, High Street, RH4 1RE"
2026-01-08,1905190,Brewboss Cafe Ltd,Restaurant/Cafe/Canteen,95b Moss Road,Magheralave (Upper Belfast),Lisburn,Antrim,BT27 4NX,Lisburn and Castlereagh City,AwaitingInspection,,FHRS,False,54.5306077,-6.0356173,"95b Moss Road, Magheralave (Upper Belfast), Lisburn, Antrim, BT27 4NX"
2026-01-08,1905239,The Clubhouse,Restaurant/Cafe/Canteen,Prested Hall Health Club,Prested Hall Chase,Feering,Essex,CO5 9EE,Braintree,AwaitingInspection,,FHRS,False,51.843691,0.7346465,"Prested Hall Health Club, Prested Hall Chase, Feering, Essex, CO5 9EE"
2026-01-08,1905257,The Looking Glass Tearoom,Restaurant/Cafe/Canteen,,1 HIGH STREET,,Cleethorpes,DN35 8LA,North East Lincolnshire,AwaitingInspection,,FHRS,False,,,"1 HIGH STREET, Cleethorpes, DN35 8LA"
2026-01-08,1808165,"Allerford Village Shop, PO & Tea Gardens",Restaurant/Cafe/Canteen,Home of the Selworthy Pantry,The Post Office,Bossington Road,Selworthy,TA24 8HN,Somerset,5,2024-06-06,FHRS,False,51.211565,-3.5701965,"Home of the Selworthy Pantry, The Post Office, Bossington Road, Selworthy, TA24 8HN"
2026-01-08,1905215,Ebisu Express,Restaurant/Cafe/Canteen,33 Orchard,Paul Street,Taunton,Somerset,TA1 3TP,Somerset,AwaitingInspection,,FHRS,False,,,"33 Orchard, Paul Street, Taunton, Somerset, TA1 3TP"
2026-01-08,1905189,Pausa,Restaurant/Cafe/Canteen,Dunelm,12 Ivel Square,Yeovil,Somerset,BA20 1EY,Somerset,AwaitingInspection,,FHRS,False,,,"Dunelm, 12 Ivel Square, Yeovil, Somerset, BA20 1EY"
2026-01-08,1905313,Bablake Sporting Association,Restaurant/Cafe/Canteen,Sports Pavilion Norman Place Road,Coundon,,Coventry,CV6 2BU,Coventry,AwaitingInspection,,FHRS,False,,,"Sports Pavilion Norman Place Road, Coundon, Coventry, CV6 2BU"
2026-01-08,1905322,DAIU,Restaurant/Cafe/Canteen,Cathedral Lanes,,,Coventry,CV1 1LL,Coventry,AwaitingInspection,,FHRS,False,,,"Cathedral Lanes, Coventry, CV1 1LL"
2026-01-08,1905323,Hallworths,Restaurant/Cafe/Canteen,Ground Floor Two Friargate Station Square,,,Coventry,CV1 2FP,Coventry,AwaitingInspection,,FHRS,False,,,"Ground Floor Two Friargate Station Square, Coventry, CV1 2FP"
2026-01-08,1905321,Taste Of Africa Cuisine,Restaurant/Cafe/Canteen,76 Far Gosford Street,,,Coventry,CV1 5DZ,Coventry,AwaitingInspection,,FHRS,False,52.4082328,-1.4937094,"76 Far Gosford Street, Coventry, CV1 5DZ"
2026-01-08,1905319,The HOS corner,Restaurant/Cafe/Canteen,150 Far Gosford Street,,,Coventry,CV1 5DU,Coventry,AwaitingInspection,,FHRS,False,52.4071906,-1.497637,"150 Far Gosford Street, Coventry, CV1 5DU"
2026-01-08,1905330,The Teapot Cafe,Restaurant/Cafe/Canteen,Austin Drive,,,Coventry,CV6 7NS,Coventry,AwaitingInspection,,FHRS,False,52.43001463,-1.48511192,"Austin Drive, Coventry, CV6 7NS"
2026-01-08,1905325,The Tuck Shop,Restaurant/Cafe/Canteen,9 Paladine Way,,,Coventry,CV3 1NE,Coventry,AwaitingInspection,,FHRS,False,52.3964744,-1.4832118,"9 Paladine Way, Coventry, CV3 1NE"
2026-01-08,1905195,Parkway Cafe,Restaurant/Cafe/Canteen,Hillingdon Court Park,Parkway,,Uxbridge,UB10 9JX,Hillingdon,AwaitingInspection,,FHRS,False,,,"Hillingdon Court Park, Parkway, Uxbridge, UB10 9JX"
2026-01-08,1905196,Scooperb,Restaurant/Cafe/Canteen,,106 High Street,,Ruislip,HA4 8LS,Hillingdon,AwaitingInspection,,FHRS,False,51.574023,-0.424516,"106 High Street, Ruislip, HA4 8LS"
2026-01-08,1905286,Kabana Koffee,Restaurant/Cafe/Canteen,,70 Bargany Place,Glasgow,,G53 7ER,Glasgow City,Awaiting Inspection,2026-01-05,FHIS,False,55.8298986,-4.3569604,"70 Bargany Place, Glasgow, G53 7ER"
2026-01-08,1905285,The Baked Bouquet Glasgow,Restaurant/Cafe/Canteen,Flat 1/2,14 Kennedar Drive,Glasgow,,G51 4PT,Glasgow City,Awaiting Inspection,2025-12-24,FHIS,False,55.8629333,-4.3312169,"Flat 1/2, 14 Kennedar Drive, Glasgow, G51 4PT"
2026-01-08,1905287,YaoJi Kitchen,Restaurant/Cafe/Canteen,,1274 Argyle Street,Glasgow,,G3 8AA,Glasgow City,Awaiting Inspection,2026-01-07,FHIS,False,55.8666,-4.2896087,"1274 Argyle Street, Glasgow, G3 8AA"
2026-01-08,1905232,Bistro U Budynia,Restaurant/Cafe/Canteen,94 Bridge Street,Worksop,Nottinghamshire,,S80 1JA,Bassetlaw,AwaitingInspection,,FHRS,False,53.3025911,-1.1248072,"94 Bridge Street, Worksop, Nottinghamshire, S80 1JA"
2026-01-08,1905231,Muck Shifters Munch,Restaurant/Cafe/Canteen,Unit 14,West Stockwith Park,Stockwith Road,Misterton,DN10 4ES,Bassetlaw,AwaitingInspection,,FHRS,False,53.4382,-0.8216406,"Unit 14, West Stockwith Park, Stockwith Road, Misterton, DN10 4ES"
2026-01-08,1905228,The Bridge Church,Restaurant/Cafe/Canteen,32 Bridgegate,Retford,Nottinghamshire,,DN22 6AA,Bassetlaw,AwaitingInspection,,FHRS,False,53.323788,-0.943513,"32 Bridgegate, Retford, Nottinghamshire, DN22 6AA"
2026-01-08,1905234,Wafflin,Restaurant/Cafe/Canteen,8A The Arcade Hill Top,Knottingley,,,WF11 8EA,Wakefield,AwaitingInspection,,FHRS,False,53.7082619,-1.2557069,"8A The Arcade Hill Top, Knottingley, WF11 8EA"
2026-01-08,1905293,Stones Steakhouse LTD,Restaurant/Cafe/Canteen,Stones Steakhouse,31 East Street,Crediton,Devon,EX17 3AX,Mid Devon,AwaitingInspection,,FHRS,False,50.7889684,-3.6521219,"Stones Steakhouse, 31 East Street, Crediton, Devon, EX17 3AX"
2026-01-08,1905296,Thornes Farm Shop and Kitchen,Restaurant/Cafe/Canteen,Thorne's Farm Shop,Hawthorn Gardens,Stockleigh Pomeroy,Crediton,EX17 4BH,Mid Devon,AwaitingInspection,,FHRS,False,,,"Thorne's Farm Shop, Hawthorn Gardens, Stockleigh Pomeroy, Crediton, EX17 4BH"
2026-01-08,1905307,The Social Club,Restaurant/Cafe/Canteen,Maypole Boulevard,Harlow Innovation Park,Harlow,Essex,CM17 9TX,Harlow,AwaitingInspection,,FHRS,False,,,"Maypole Boulevard, Harlow Innovation Park, Harlow, Essex, CM17 9TX"
2026-01-08,554843,Tesco Family Dining Ltd,Restaurant/Cafe/Canteen,Family Dining Cafe,Tesco Extra,Station Road,Pool,TR15 3QJ,Cornwall,5,2025-04-10,FHRS,False,50.2215747,-5.2695959,"Family Dining Cafe, Tesco Extra, Station Road, Pool, TR15 3QJ"
2026-01-08,658781,Tesco Family Dining Ltd,Restaurant/Cafe/Canteen,Family Dining Cafe,Tesco Superstore,Daniels Lane,St Austell,PL25 3HR,Cornwall,5,2025-01-23,FHRS,False,50.340129,-4.7593727,"Family Dining Cafe, Tesco Superstore, Daniels Lane, St Austell, PL25 3HR"
2026-01-08,1905312,Thrift And Thrive Medway Limited,Restaurant/Cafe/Canteen,11 - 19 High Street,Chatham,Medway,,ME4 4EN,Medway,AwaitingInspection,,FHRS,False,51.3833302,0.5176339,"11 - 19 High Street, Chatham, Medway, ME4 4EN"
2026-01-08,1905218,The Osprey,Restaurant/Cafe/Canteen,New Farm Brewers Fayre,Strathaven Road,East Kilbride,Glasgow,G75 0QZ,South Lanarkshire,Awaiting Inspection,,FHIS,False,,,"New Farm Brewers Fayre, Strathaven Road, East Kilbride, Glasgow, G75 0QZ"
2026-01-08,1905282,Creamson,Restaurant/Cafe/Canteen,,9 Town Gate,Wyke,Bradford,BD12 9PA,Bradford,AwaitingInspection,,FHRS,False,53.7406939,-1.7680309,"9 Town Gate, Wyke, Bradford, BD12 9PA"
2026-01-08,1905270,Crumbb Bakehouse,Restaurant/Cafe/Canteen,,8 Longside Lane,Bradford,,BD7 1DF,Bradford,AwaitingInspection,,FHRS,False,53.7941025,-1.7644881,"8 Longside Lane, Bradford, BD7 1DF"
2026-01-08,1905277,Dixons Milk Ices,Restaurant/Cafe/Canteen,,373c Leeds Road,Bradford,,BD3 9BP,Bradford,AwaitingInspection,,FHRS,False,,,"373c Leeds Road, Bradford, BD3 9BP"
2026-01-08,1905278,Mr T's,Restaurant/Cafe/Canteen,,373 Leeds Road,Bradford,,BD3 9LT,Bradford,AwaitingInspection,,FHRS,False,53.7925174,-1.732817,"373 Leeds Road, Bradford, BD3 9LT"
2026-01-08,1905221,Blossom Bakery,Restaurant/Cafe/Canteen,,,,,,Telford and Wrekin Council,AwaitingInspection,,FHRS,False,,,
2026-01-08,1905223,FOOD AND WINE,Restaurant/Cafe/Canteen,Donnington Service Station Wellington Road,Donnington,Telford,Shropshire,TF2 8AJ,Telford and Wrekin Council,AwaitingInspection,,FHRS,False,,,"Donnington Service Station Wellington Road, Donnington, Telford, Shropshire, TF2 8AJ"
2026-01-08,1905220,Telford Tennis & Padel Centre,Restaurant/Cafe/Canteen,Telford Tennis Centre Oakengates Leisure Centre,Wrockwardine Wood,Telford,Shropshire,TF2 7AB,Telford and Wrekin Council,AwaitingInspection,,FHRS,False,,,"Telford Tennis Centre Oakengates Leisure Centre, Wrockwardine Wood, Telford, Shropshire, TF2 7AB"
2026-01-08,1905243,Lingwood on Church Street,Restaurant/Cafe/Canteen,,19 Church Street,,Hereford,HR1 2LR,Herefordshire,AwaitingInspection,,FHRS,False,52.0554308,-2.7160829,"19 Church Street, Hereford, HR1 2LR"
2026-01-08,1905244,The Inkpot,Restaurant/Cafe/Canteen,,20 Gloucester Road,,Ross-On-Wye,HR9 5LQ,Herefordshire,AwaitingInspection,,FHRS,False,51.913794,-2.5793,"20 Gloucester Road, Ross-On-Wye, HR9 5LQ"
2026-01-08,1869733,China Garden,Restaurant/Cafe/Canteen,2 Dawson Terrace,,,Harrogate,HG1 2AW,North Yorkshire,4,2025-09-16,FHRS,False,54.0034538,-1.5374692,"2 Dawson Terrace, Harrogate, HG1 2AW"
2026-01-08,1905169,Fyvie Castle,Restaurant/Cafe/Canteen,,National Trust For Scotland,Fyvie,Turriff,AB53 8JS,Aberdeenshire,Improvement Required,2025-12-19,FHIS,False,,,"National Trust For Scotland, Fyvie, Turriff, AB53 8JS"
2026-01-08,1540322,Mawi Cafe,Restaurant/Cafe/Canteen,24A Notting Hill Gate,LONDON,,,W11 3JE,Kensington and Chelsea,1,2025-11-26,FHRS,False,51.509773,-0.193685,"24A Notting Hill Gate, LONDON, W11 3JE"
2026-01-09,1905389,Pesto,Restaurant/Cafe/Canteen,,Unit R33 The Great Hall,The Trafford Centre,Manchester,M17 8BP,Trafford,AwaitingInspection,,FHRS,False,,,"Unit R33 The Great Hall, The Trafford Centre, Manchester, M17 8BP"
2026-01-09,1905371,Brew Shed,Restaurant/Cafe/Canteen,Unit 8,Halifax Autocars,Shay Lane,Holmfield,HX3 6QU,Calderdale,AwaitingInspection,,FHRS,False,53.7426893,-1.8778664,"Unit 8, Halifax Autocars, Shay Lane, Holmfield, HX3 6QU"
2026-01-09,1905370,Soul Wellness Hub And Cafe,Restaurant/Cafe/Canteen,Former Premier Saw Works,Burnley Road,Luddenden Foot,Sowerby Bridge,HX6 2TL,Calderdale,AwaitingInspection,,FHRS,False,53.7138715,-1.9174339,"Former Premier Saw Works, Burnley Road, Luddenden Foot, Sowerby Bridge, HX6 2TL"
2026-01-09,1905599,7th Heaven,Restaurant/Cafe/Canteen,100 High Street,Whitton,,,TW2 7LN,Richmond-Upon-Thames,AwaitingInspection,,FHRS,False,51.4506017,-0.3581711,"100 High Street, Whitton, TW2 7LN"
2026-01-09,1905597,Banon,Restaurant/Cafe/Canteen,214 Sandycombe Road,Richmond,,,TW9 2EQ,Richmond-Upon-Thames,AwaitingInspection,,FHRS,False,51.4721834,-0.2871293,"214 Sandycombe Road, Richmond, TW9 2EQ"
2026-01-09,1905600,Cap & Crown,Restaurant/Cafe/Canteen,,,,,,Richmond-Upon-Thames,AwaitingInspection,,FHRS,False,,,
2026-01-09,1905605,Deer Park View Nursing Home,Restaurant/Cafe/Canteen,Deer Park View Care Centre,Bushy Park Road,Teddington,,TW11 0DX,Richmond-Upon-Thames,AwaitingInspection,,FHRS,False,51.417969,-0.320773,"Deer Park View Care Centre, Bushy Park Road, Teddington, TW11 0DX"
2026-01-09,1905598,Mwn Vitamins,Restaurant/Cafe/Canteen,,,,,,Richmond-Upon-Thames,AwaitingInspection,,FHRS,False,,,
2026-01-09,1905596,Oliiv Ltd,Restaurant/Cafe/Canteen,,,,,,Richmond-Upon-Thames,AwaitingInspection,,FHRS,False,,,
2026-01-09,1574293,Riverside Indian Cuisine,Restaurant/Cafe/Canteen,2-4 High Street,Hampton,,,TW12 2SJ,Richmond-Upon-Thames,AwaitingInspection,,FHRS,False,51.4131997,-0.3624592,"2-4 High Street, Hampton, TW12 2SJ"
2026-01-09,1905594,Rose and Lion,Restaurant/Cafe/Canteen,11 London Road,Twickenham,,,TW1 3SX,Richmond-Upon-Thames,AwaitingInspection,,FHRS,False,51.4469944,-0.3285968,"11 London Road, Twickenham, TW1 3SX"
2026-01-09,1784047,SavourDough,Restaurant/Cafe/Canteen,3 Wallorton Gardens,East Sheen,London,,SW14 8DX,Richmond-Upon-Thames,5,2025-04-09,FHRS,False,51.4648603,-0.259416,"3 Wallorton Gardens, East Sheen, London, SW14 8DX"
2026-01-09,1905603,Thomas's College,Restaurant/Cafe/Canteen,Queens Road,Richmond,,,TW10 6JW,Richmond-Upon-Thames,AwaitingInspection,,FHRS,False,,,"Queens Road, Richmond, TW10 6JW"
2026-01-09,1905604,Weekend FeastHouse,Restaurant/Cafe/Canteen,,,,,,Richmond-Upon-Thames,AwaitingInspection,,FHRS,False,,,
2026-01-09,1905602,Yoyan Delights,Restaurant/Cafe/Canteen,,,,,,Richmond-Upon-Thames,AwaitingInspection,,FHRS,False,,,
2026-01-09,1905508,DOSA KADA,Restaurant/Cafe/Canteen,239 - 241 London Road,Croydon,,,CR0 2RL,Croydon,AwaitingInspection,,FHRS,False,51.3833389282227,-0.10818599909544,"239 - 241 London Road, Croydon, CR0 2RL"
2026-01-09,1905498,Heidi's Cafe London,Restaurant/Cafe/Canteen,17 Broom Road,Croydon,,,CR0 8NG,Croydon,AwaitingInspection,,FHRS,False,51.3697891235352,-0.0302859991788864,"17 Broom Road, Croydon, CR0 8NG"
2026-01-09,1888367,Meltin Memories,Restaurant/Cafe/Canteen,6 North End,Croydon,,,CR0 1UB,Croydon,AwaitingInspection,,FHRS,False,,,"6 North End, Croydon, CR0 1UB"
2026-01-09,1905499,Real Desi Dhaba,Restaurant/Cafe/Canteen,888 London Road,Thornton Heath,,,CR7 7PB,Croydon,AwaitingInspection,,FHRS,False,51.3966064453125,-0.115185998380184,"888 London Road, Thornton Heath, CR7 7PB"
2026-01-09,1905549,Baked&Loaded,Restaurant/Cafe/Canteen,84 High Street,Honiton,,,EX14 1JW,East Devon,AwaitingInspection,,FHRS,False,50.799153,-3.190029,"84 High Street, Honiton, EX14 1JW"
2026-01-09,1905548,The Dough Works,Restaurant/Cafe/Canteen,53 The Strand,Exmouth,,,EX8 1BR,East Devon,AwaitingInspection,,FHRS,False,50.619349,-3.413373,"53 The Strand, Exmouth, EX8 1BR"
2026-01-09,1905458,Rice On Wheels,Restaurant/Cafe/Canteen,,,,,,Runnymede,AwaitingInspection,,FHRS,False,,,
2026-01-09,1905456,Sea and Grill,Restaurant/Cafe/Canteen,,223 Ashton Old Road,Manchester,,M11 3WU,Manchester,AwaitingInspection,,FHRS,False,53.475063,-2.208373,"223 Ashton Old Road, Manchester, M11 3WU"
2026-01-09,1905364,Delilahs Delights Bakehouse & Brew,Restaurant/Cafe/Canteen,,,,,,Stroud,AwaitingInspection,,FHRS,False,,,
2026-01-09,1905538,Chopstix Noodle Bar At Roadchef South,Restaurant/Cafe/Canteen,Strensham M5 Southbound,Hill View Road,Strensham,Worcestershire,WR8 9LJ,Wychavon,AwaitingInspection,,FHRS,False,,,"Strensham M5 Southbound, Hill View Road, Strensham, Worcestershire, WR8 9LJ"
2026-01-09,1905542,Pat's Fish Bar,Restaurant/Cafe/Canteen,38 Lombard Street,Stourport On Severn,Worcestershire,,DY13 8DU,Wyre Forest,AwaitingInspection,,FHRS,False,52.342204,-2.277359,"38 Lombard Street, Stourport On Severn, Worcestershire, DY13 8DU"
2026-01-09,1905540,Pizza Boyz,Restaurant/Cafe/Canteen,22 High Street,Stourport On Severn,Worcestershire,,DY13 8BJ,Wyre Forest,AwaitingInspection,,FHRS,False,52.339781,-2.279325,"22 High Street, Stourport On Severn, Worcestershire, DY13 8BJ"
2026-01-09,1905541,Stourport Craft Corner,Restaurant/Cafe/Canteen,2 Parkes Passage,Stourport On Severn,Worcestershire,,DY13 9EA,Wyre Forest,AwaitingInspection,,FHRS,False,52.339982,-2.278182,"2 Parkes Passage, Stourport On Severn, Worcestershire, DY13 9EA"
2026-01-09,1905527,Gandies,Restaurant/Cafe/Canteen,Block A,Kempsey Eco Business Park,Kempsey,Worcestershire,WR5 3NY,Malvern Hills,AwaitingInspection,,FHRS,False,,,"Block A, Kempsey Eco Business Park, Kempsey, Worcestershire, WR5 3NY"
2026-01-09,1905405,banginfoodco,Restaurant/Cafe/Canteen,,15 Broad Row,Great Yarmouth,Norfolk,NR30 1HT,Great Yarmouth,AwaitingInspection,,FHRS,False,52.608056,1.723803,"15 Broad Row, Great Yarmouth, Norfolk, NR30 1HT"
2026-01-09,1905411,Evolve Day Services Ltd,Restaurant/Cafe/Canteen,,St James Health & Resource Centre,Admiralty Road,Great Yarmouth Norfolk,NR30 3DG,Great Yarmouth,AwaitingInspection,,FHRS,False,,,"St James Health & Resource Centre, Admiralty Road, Great Yarmouth Norfolk, NR30 3DG"
2026-01-09,1905414,Spice Café,Restaurant/Cafe/Canteen,,154 Northgate Street,Great Yarmouth,Norfolk,NR30 1BY,Great Yarmouth,AwaitingInspection,,FHRS,False,52.6162657,1.7281279,"154 Northgate Street, Great Yarmouth, Norfolk, NR30 1BY"
2026-01-09,1905591,ALIRI,Restaurant/Cafe/Canteen,,,,,,Wandsworth,AwaitingInspection,,FHRS,False,,,
2026-01-09,1905581,Bartlett Mitchell ltd,Restaurant/Cafe/Canteen,8 Viaduct Gardens,London,,,SW11 7BW,Wandsworth,AwaitingInspection,,FHRS,False,51.4829016,-0.1304168,"8 Viaduct Gardens, London, SW11 7BW"
2026-01-09,1905584,BEIJA-FLOR COFFEE LIMITED,Restaurant/Cafe/Canteen,,,,,,Wandsworth,AwaitingInspection,,FHRS,False,,,
2026-01-09,1905583,Big Cheeks Thai,Restaurant/Cafe/Canteen,12 Barley Walk,London,,,SW18 1UL,Wandsworth,AwaitingInspection,,FHRS,False,51.4580022,-0.1936195,"12 Barley Walk, London, SW18 1UL"
2026-01-09,1905569,Bill Cafe Ltd,Restaurant/Cafe/Canteen,,,,,,Wandsworth,AwaitingInspection,,FHRS,False,,,
2026-01-09,1905586,Caspian House Kitchen,Restaurant/Cafe/Canteen,Post Market,92A Balham High Road,London,,SW12 9AG,Wandsworth,AwaitingInspection,,FHRS,False,51.44631073,-0.14975172,"Post Market, 92A Balham High Road, London, SW12 9AG"
2026-01-09,1905588,D&D'S Kitchen,Restaurant/Cafe/Canteen,,,,,,Wandsworth,AwaitingInspection,,FHRS,False,,,
2026-01-09,1905585,Dipli,Restaurant/Cafe/Canteen,,,,,,Wandsworth,AwaitingInspection,,FHRS,False,,,
2026-01-09,1905577,Eve by Hannah,Restaurant/Cafe/Canteen,,,,,,Wandsworth,AwaitingInspection,,FHRS,False,,,
2026-01-09,1905576,Fluffy Bakery London,Restaurant/Cafe/Canteen,Mission Kitchen 1st Floor,Food Exchange New Covent Garden Market,Nine Elms Lane,London,SW8 5EL,Wandsworth,AwaitingInspection,,FHRS,False,51.479311,-0.1325742,"Mission Kitchen 1st Floor, Food Exchange New Covent Garden Market, Nine Elms Lane, London, SW8 5EL"
2026-01-09,1905619,House of Ora Ltd,Restaurant/Cafe/Canteen,Tram Tooting Ltd,46-48 Mitcham Road,London,,SW17 9NA,Wandsworth,AwaitingInspection,,FHRS,False,51.4267105,-0.1665869,"Tram Tooting Ltd, 46-48 Mitcham Road, London, SW17 9NA"
2026-01-09,1905575,Live Fast Brewery,Restaurant/Cafe/Canteen,Arch 79,Queens Circus,Queenstown Road,London,SW11 8NE,Wandsworth,AwaitingInspection,,FHRS,False,,,"Arch 79, Queens Circus, Queenstown Road, London, SW11 8NE"
2026-01-09,1905572,Lucky Chicken - Nine Elms,Restaurant/Cafe/Canteen,Kitchen 17 Food Stars,76-82 Stewarts Road,London,,SW8 4DE,Wandsworth,AwaitingInspection,,FHRS,False,51.4747988,-0.1405687,"Kitchen 17 Food Stars, 76-82 Stewarts Road, London, SW8 4DE"
2026-01-09,1905580,Marhaba Caffe,Restaurant/Cafe/Canteen,725-727 Garratt Lane,London,,,SW17 0PD,Wandsworth,AwaitingInspection,,FHRS,False,51.4348356,-0.1853828,"725-727 Garratt Lane, London, SW17 0PD"
2026-01-09,1905579,Nazar Caviar,Restaurant/Cafe/Canteen,,,,,,Wandsworth,AwaitingInspection,,FHRS,False,,,
2026-01-09,1905578,Spread Eagle,Restaurant/Cafe/Canteen,69-71 Wandsworth High Street,London,,,SW18 2PT,Wandsworth,5,2024-11-28,FHRS,False,51.4565652,-0.1923156,"69-71 Wandsworth High Street, London, SW18 2PT"
2026-01-09,1905592,Tortilla,Restaurant/Cafe/Canteen,The Junction Shopping Centre,20 St Johns Hill,London,,SW11 1SA,Wandsworth,5,2024-03-14,FHRS,False,51.4636806,-0.1689354,"The Junction Shopping Centre, 20 St Johns Hill, London, SW11 1SA"
2026-01-09,1905376,Gardener's Retreat Restaurant,Restaurant/Cafe/Canteen,Wyevale Garden Centre,Maidstone Road,Paddock Wood,Tonbridge,TN12 6QJ,Tunbridge Wells,AwaitingInspection,,FHRS,False,51.1916865,0.3928778,"Wyevale Garden Centre, Maidstone Road, Paddock Wood, Tonbridge, TN12 6QJ"
2026-01-09,1905446,Aura Wellness Bar,Restaurant/Cafe/Canteen,,30a Main Street,Catcliffe,Rotherham,S60 5SR,Rotherham,AwaitingInspection,,FHRS,False,53.3925595,-1.3607593,"30a Main Street, Catcliffe, Rotherham, S60 5SR"
2026-01-09,1905618,Alternative Movement LTD,Restaurant/Cafe/Canteen,Alternative Movement,RJL House,19 London Road,Purfleet-on-thames,RM19 1RJ,Thurrock,AwaitingInspection,,FHRS,False,51.478412,0.2554094,"Alternative Movement, RJL House, 19 London Road, Purfleet-on-thames, RM19 1RJ"
2026-01-09,1905608,Barbaros,Restaurant/Cafe/Canteen,37 Southend Road,Grays,Essex,,RM17 5NH,Thurrock,AwaitingInspection,,FHRS,False,51.4841374,0.3361469,"37 Southend Road, Grays, Essex, RM17 5NH"
2026-01-09,1905610,"BLB Old Corringham, Brick Lane Bagel Co Corringham",Restaurant/Cafe/Canteen,Brick Lane Bagel Co,66B Woodbrooke Way,Corringham,Essex,SS17 9DW,Thurrock,AwaitingInspection,,FHRS,False,51.5304557,0.4613658,"Brick Lane Bagel Co, 66B Woodbrooke Way, Corringham, Essex, SS17 9DW"
2026-01-09,1905609,Maki & Ramen,Restaurant/Cafe/Canteen,Maki And Ramen,Unit 2,The Boardwalk Lakeside Shopping Centre,West Thurrock Way,RM20 2ZN,Thurrock,AwaitingInspection,,FHRS,False,51.4869105,0.2814693,"Maki And Ramen, Unit 2, The Boardwalk Lakeside Shopping Centre, West Thurrock Way, RM20 2ZN"
2026-01-09,1905441,Rice And Roll Andover Limited,Restaurant/Cafe/Canteen,49 Bridge Street,Andover,Hampshire,,SP10 1BG,Test Valley,AwaitingInspection,,FHRS,False,51.205958,-1.48127,"49 Bridge Street, Andover, Hampshire, SP10 1BG"
2026-01-09,1905424,Karak & falafel,Restaurant/Cafe/Canteen,,45-49 Market Square,Basildon,Essex,SS14 1DE,Basildon,AwaitingInspection,,FHRS,False,51.5694472,0.4571287,"45-49 Market Square, Basildon, Essex, SS14 1DE"
2026-01-09,1905422,Madame You,Restaurant/Cafe/Canteen,,91 High Street,Billericay,Essex,CM12 9AS,Basildon,AwaitingInspection,,FHRS,False,51.625584,0.417242,"91 High Street, Billericay, Essex, CM12 9AS"
2026-01-09,1905428,Nasi Isda,Restaurant/Cafe/Canteen,77 Eastgate Centre,Southernhay,Basildon,Essex,SS14 1AF,Basildon,AwaitingInspection,,FHRS,False,51.5694418,0.4605128,"77 Eastgate Centre, Southernhay, Basildon, Essex, SS14 1AF"
2026-01-09,1905400,Crossroads Newcastle,Restaurant/Cafe/Canteen,Ouseburn Community Centre Mowbray Street,,Newcastle Upon Tyne,,NE6 5PA,Newcastle Upon Tyne,AwaitingInspection,,FHRS,False,,,"Ouseburn Community Centre Mowbray Street, Newcastle Upon Tyne, NE6 5PA"
2026-01-09,1905393,Juice Upp,Restaurant/Cafe/Canteen,39B West Road,,Newcastle Upon Tyne,,NE4 9PX,Newcastle Upon Tyne,AwaitingInspection,,FHRS,False,54.9759915,-1.6564969,"39B West Road, Newcastle Upon Tyne, NE4 9PX"
2026-01-09,1905394,Reform Studio,Restaurant/Cafe/Canteen,9 Side,,Newcastle Upon Tyne,,NE1 3JE,Newcastle Upon Tyne,AwaitingInspection,,FHRS,False,54.9690571,-1.6081997,"9 Side, Newcastle Upon Tyne, NE1 3JE"
2026-01-09,1905403,Say When,Restaurant/Cafe/Canteen,Gosforth,,Newcastle Upon Tyne,,NE3 1HA,Newcastle Upon Tyne,AwaitingInspection,,FHRS,False,,,"Gosforth, Newcastle Upon Tyne, NE3 1HA"
2026-01-09,1905399,SEGMARG LTD TRADING AS PANKU,Restaurant/Cafe/Canteen,Unit 5 Newcastle Shopping Park Fossway,,Newcastle Upon Tyne,,NE6 2UJ,Newcastle Upon Tyne,AwaitingInspection,,FHRS,False,54.9793036,-1.5728633,"Unit 5 Newcastle Shopping Park Fossway, Newcastle Upon Tyne, NE6 2UJ"
2026-01-09,638731,Breakfast Junction Ltd,Restaurant/Cafe/Canteen,Rohan Gardens,All Saints Road,,Warwick,CV34 5NW,Warwick,AwaitingInspection,,FHRS,False,52.2922553,-1.5707465,"Rohan Gardens, All Saints Road, Warwick, CV34 5NW"
2026-01-09,1905545,RCCG Restoration Chapel,Restaurant/Cafe/Canteen,First Floor Unit 1 Restoration House,West Chirton Industrial Estate South,Norham Road,North Shields,NE29 7TN,North Tyneside,AwaitingInspection,,FHRS,True,55.0046245,-1.4776165,"First Floor Unit 1 Restoration House, West Chirton Industrial Estate South, Norham Road, North Shields, NE29 7TN"
2026-01-09,1905457,Supershakes,Restaurant/Cafe/Canteen,,12 Erebus Gardens,London,,E14 9AS,Tower Hamlets,AwaitingInspection,,FHRS,False,51.5013585,-0.0226629,"12 Erebus Gardens, London, E14 9AS"
2026-01-09,1795616,The Avenue Cafe,Restaurant/Cafe/Canteen,@ The Avenue School,60 Christchurch Avenue,London,,NW6 7BH,Brent,4,2025-01-30,FHRS,False,51.5423291,-0.2114089,"@ The Avenue School, 60 Christchurch Avenue, London, NW6 7BH"
2026-01-09,848180,SHUKR Deli and Desserts,Restaurant/Cafe/Canteen,,1A Winton Street,Littleborough,Lancashire,OL15 8AR,Rochdale,AwaitingInspection,,FHRS,False,53.64245,-2.099415,"1A Winton Street, Littleborough, Lancashire, OL15 8AR"
2026-01-09,1630382,The Coffee House,Restaurant/Cafe/Canteen,,Unit 1 Riverside Walk,Rochdale,,OL16 1BE,Rochdale,AwaitingInspection,,FHRS,False,53.6176837,-2.1549241,"Unit 1 Riverside Walk, Rochdale, OL16 1BE"
2026-01-09,1905509,Cumin Indian Restaurant,Restaurant/Cafe/Canteen,16 Falconwood Parade,Welling,Kent,,DA16 2PL,Bexley,AwaitingInspection,,FHRS,False,51.456735,0.094455,"16 Falconwood Parade, Welling, Kent, DA16 2PL"
2026-01-09,1085889,N'Fes Turkish Cuisine & Gift Shop,Restaurant/Cafe/Canteen,21 - 27 Upper Wickham Lane,Welling,Kent,,DA16 3AB,Bexley,5,2025-05-20,FHRS,False,51.4632367,0.1084836,"21 - 27 Upper Wickham Lane, Welling, Kent, DA16 3AB"
2026-01-09,1905560,BAO SH,Restaurant/Cafe/Canteen,,,,,,Merton,AwaitingInspection,,FHRS,False,,,
2026-01-09,1905557,Chaaye Khana,Restaurant/Cafe/Canteen,3 Britannia Point,7-9 Christchurch Road,Colliers Wood,,SW19 2FA,Merton,AwaitingInspection,,FHRS,False,51.4173856,-0.1784015,"3 Britannia Point, 7-9 Christchurch Road, Colliers Wood, SW19 2FA"
2026-01-09,1905623,Dog 'N' Bun,Restaurant/Cafe/Canteen,15 Abbotsbury Road,Morden,,,SM4 5LJ,Merton,AwaitingInspection,,FHRS,False,51.402475,-0.191991,"15 Abbotsbury Road, Morden, SM4 5LJ"
2026-01-09,1905562,Faith Food Bunker,Restaurant/Cafe/Canteen,,,,,,Merton,AwaitingInspection,,FHRS,False,,,
2026-01-09,1905568,Inner Space. Brahma Kumaris UK,Restaurant/Cafe/Canteen,5-7 High Street Collier's Wood,Colliers Wood,,,SW19 2JE,Merton,AwaitingInspection,,FHRS,False,51.4213248,-0.1747872,"5-7 High Street Collier's Wood, Colliers Wood, SW19 2JE"
2026-01-09,1905622,King of Wings,Restaurant/Cafe/Canteen,15 Abbotsbury Road,Morden,,,SM4 5LJ,Merton,AwaitingInspection,,FHRS,False,51.402475,-0.191991,"15 Abbotsbury Road, Morden, SM4 5LJ"
2026-01-09,1905563,Milan's Barkery,Restaurant/Cafe/Canteen,12 Evesham Road,Morden,,,SM4 6PP,Merton,AwaitingInspection,,FHRS,False,51.388971,-0.1934355,"12 Evesham Road, Morden, SM4 6PP"
2026-01-09,1905566,Pakorize Ltd,Restaurant/Cafe/Canteen,303-305 Mitcham Road,Tooting,London,,SW17 9JQ,Merton,AwaitingInspection,,FHRS,False,51.421314,-0.160224,"303-305 Mitcham Road, Tooting, London, SW17 9JQ"
2026-01-09,1905564,Rebalance Me UK,Restaurant/Cafe/Canteen,,,,,,Merton,AwaitingInspection,,FHRS,False,,,
2026-01-09,1905567,Set The Table,Restaurant/Cafe/Canteen,36 Oxford Close,Mitcham,,,CR4 1DY,Merton,AwaitingInspection,,FHRS,False,51.4016689,-0.1450881,"36 Oxford Close, Mitcham, CR4 1DY"
2026-01-09,1905558,Slice of Bliss Ltd,Restaurant/Cafe/Canteen,,,,,,Merton,AwaitingInspection,,FHRS,False,,,
2026-01-09,1905621,Tinseltown,Restaurant/Cafe/Canteen,15 Abbotsbury Road,Morden,,,SM4 5LJ,Merton,AwaitingInspection,,FHRS,False,51.402475,-0.191991,"15 Abbotsbury Road, Morden, SM4 5LJ"
2026-01-09,1905516,The Cove,Restaurant/Cafe/Canteen,1 Cove Road,Gourock,,,PA19 1RS,Inverclyde,Awaiting Inspection,2026-01-05,FHIS,False,55.9566338,-4.8032571,"1 Cove Road, Gourock, PA19 1RS"
2026-01-09,1905466,Den 97,Restaurant/Cafe/Canteen,5 Nightingale Walk,,Farnham,,GU9 7WF,Waverley,AwaitingInspection,,FHRS,False,51.21543,-0.7945655,"5 Nightingale Walk, Farnham, GU9 7WF"
2026-01-09,1905464,Green olive meze and grill,Restaurant/Cafe/Canteen,10-12 Petworth Road,,Haslemere,,GU27 2HR,Waverley,AwaitingInspection,,FHRS,False,51.0871298,-0.7086863,"10-12 Petworth Road, Haslemere, GU27 2HR"
2026-01-09,1905463,Kalm Club at Hurlands,Restaurant/Cafe/Canteen,6 Farnham Trading Estate,,Farnham,,GU9 9NN,Waverley,AwaitingInspection,,FHRS,False,51.2232027,-0.7723809,"6 Farnham Trading Estate, Farnham, GU9 9NN"
2026-01-09,1317843,Charlie's Bistro,Restaurant/Cafe/Canteen,,22 High Cross Street,Brampton,,CA8 1RP,Cumberland,5,2025-11-26,FHRS,False,54.9427529,-2.7342937,"22 High Cross Street, Brampton, CA8 1RP"
2026-01-09,1905493,Daisy Lane,Restaurant/Cafe/Canteen,1 Tower Court,West Tower Street,Carlisle,,CA3 8QT,Cumberland,AwaitingInspection,,FHRS,True,54.8968158,-2.9373064,"1 Tower Court, West Tower Street, Carlisle, CA3 8QT"
2026-01-09,301541,Dora Turkish Cuisine,Restaurant/Cafe/Canteen,The Black Lion,517 Durdar Road,Carlisle,,CA2 4TX,Cumberland,5,2025-12-08,FHRS,False,54.850121,-2.929485,"The Black Lion, 517 Durdar Road, Carlisle, CA2 4TX"
2026-01-09,1905470,Khao Keang,Restaurant/Cafe/Canteen,,1-5 Lowther Street,Carlisle,,CA3 8ES,Cumberland,5,2025-12-11,FHRS,False,54.8924631,-2.9332059,"1-5 Lowther Street, Carlisle, CA3 8ES"
2026-01-09,946498,Pepe's Piri Piri,Restaurant/Cafe/Canteen,,68 Botchergate,Carlisle,,CA1 1QL,Cumberland,5,2025-11-27,FHRS,False,54.890508,-2.930508,"68 Botchergate, Carlisle, CA1 1QL"
2026-01-09,1905491,Rebuild Site,Restaurant/Cafe/Canteen,2 Unit A,Dukes Drive,Kingmoor Park North,,CA6 4SH,Cumberland,5,2025-12-11,FHRS,False,54.9310599,-2.9638954,"2 Unit A, Dukes Drive, Kingmoor Park North, CA6 4SH"
2026-01-10,1905824,RIYASAT RESTAURANT LTD,Restaurant/Cafe/Canteen,The Old Siege House,75 East Street,Colchester,Essex,CO1 2TS,Colchester,AwaitingInspection,,FHRS,False,51.8902679,0.9157649,"The Old Siege House, 75 East Street, Colchester, Essex, CO1 2TS"
2026-01-10,1905779,JB Sushi bar,Restaurant/Cafe/Canteen,35 Biggin Street,,Dover,,CT16 1BU,Dover,AwaitingInspection,,FHRS,False,51.1264444,1.3122681,"35 Biggin Street, Dover, CT16 1BU"
2026-01-10,1905776,The Earl and the Pussycat Kitchen and Bar,Restaurant/Cafe/Canteen,26-28 Strand Street,,Sandwich,,CT13 9DS,Dover,AwaitingInspection,,FHRS,False,51.2762472,1.3405188,"26-28 Strand Street, Sandwich, CT13 9DS"
2026-01-10,1905803,Cafe at the Quarry,Restaurant/Cafe/Canteen,Unit 1a Madeline Court,,Mansfield,Nottinghamshire,NG18 4XW,Mansfield,AwaitingInspection,,FHRS,False,,,"Unit 1a Madeline Court, Mansfield, Nottinghamshire, NG18 4XW"
2026-01-10,1905965,Docelicia Boutique,Restaurant/Cafe/Canteen,,677 Seven Sisters Road,Tottenham,London,N15 5LA,Haringey,5,2025-11-07,FHRS,False,51.5821867,-0.0746708,"677 Seven Sisters Road, Tottenham, London, N15 5LA"
2026-01-10,1905771,Popeyes,Restaurant/Cafe/Canteen,467 Clepington Road,Dundee,,,DD3 8RX,Dundee City,Awaiting Inspection,2026-01-09,FHIS,False,56.481475,-2.994383,"467 Clepington Road, Dundee, DD3 8RX"
2026-01-10,1905995,Asil Bistro Kitchen Bar,Restaurant/Cafe/Canteen,1 Church Hill Road,,,,EN4 8SY,Barnet,AwaitingInspection,,FHRS,False,51.6423666,-0.1627161,"1 Church Hill Road, EN4 8SY"
2026-01-10,1905990,GalGal Hala Burger,Restaurant/Cafe/Canteen,Montrose Park Montrose Avenue,,,,NW9 5BY,Barnet,AwaitingInspection,,FHRS,False,,,"Montrose Park Montrose Avenue, NW9 5BY"
2026-01-10,1905979,JIU Beijing Dumpling And Noodle Bar,Restaurant/Cafe/Canteen,12 Sutton Parade Church Road,,,,NW4 1RR,Barnet,AwaitingInspection,,FHRS,False,,,"12 Sutton Parade Church Road, NW4 1RR"
2026-01-10,1905994,Malaysia Boleh,Restaurant/Cafe/Canteen,7-13 Station Road,,,,HA8 7JE,Barnet,AwaitingInspection,,FHRS,False,,,"7-13 Station Road, HA8 7JE"
2026-01-10,1905998,Shahabbas Persian Grill,Restaurant/Cafe/Canteen,692 - 694 High Road London,,,,N12 9PY,Barnet,AwaitingInspection,,FHRS,False,,,"692 - 694 High Road London, N12 9PY"
2026-01-10,1905976,Shangri La,Restaurant/Cafe/Canteen,35 - 37 Friern Barnet Road,,,,N11 1ND,Barnet,AwaitingInspection,,FHRS,False,51.6160328,-0.1433967,"35 - 37 Friern Barnet Road, N11 1ND"
2026-01-10,1905981,Smokez,Restaurant/Cafe/Canteen,Scratchwood Open Space Barnet Way,,,,NW7 3AW,Barnet,AwaitingInspection,,FHRS,False,,,"Scratchwood Open Space Barnet Way, NW7 3AW"
2026-01-10,1766497,Top Wings / OMG Peri Peri,Restaurant/Cafe/Canteen,757 Finchley Road London,,,,NW11 8DL,Barnet,0,2025-12-10,FHRS,False,51.564227,-0.196952,"757 Finchley Road London, NW11 8DL"
2026-01-10,1905993,Yard Sale Pizza,Restaurant/Cafe/Canteen,70 High Road,,,,N2 9PN,Barnet,AwaitingInspection,,FHRS,False,51.5890524,-0.1636944,"70 High Road, N2 9PN"
2026-01-10,1905709,Soul & Sage,Restaurant/Cafe/Canteen,16 Imeary Street,South Shields,Tyne & Wear,,NE33 4EG,South Tyneside,AwaitingInspection,,FHRS,False,54.9871939,-1.4243658,"16 Imeary Street, South Shields, Tyne & Wear, NE33 4EG"
2026-01-10,1905862,The Heart & Spoon Kitchen,Restaurant/Cafe/Canteen,2 St Basils Stores,Laurel Road,Bassaleg,Newport,NP10 8NN,Newport,AwaitingInspection,,FHRS,False,,,"2 St Basils Stores, Laurel Road, Bassaleg, Newport, NP10 8NN"
2026-01-10,1905688,7th Heaven,Restaurant/Cafe/Canteen,403 Hoe Street,,Walthamstow,,E17 9AP,Waltham Forest,AwaitingInspection,,FHRS,False,51.5758598,-0.0133977,"403 Hoe Street, Walthamstow, E17 9AP"
2026-01-10,1905684,F&A Lounge,Restaurant/Cafe/Canteen,Ground Floor 573 High Road Leytonstone,,Leytonstone,,E11 4PB,Waltham Forest,AwaitingInspection,,FHRS,True,51.5610672,0.0082333,"Ground Floor 573 High Road Leytonstone, Leytonstone, E11 4PB"
2026-01-10,1905689,Rio’s Piri Piri,Restaurant/Cafe/Canteen,228 Hoe Street,,Walthamstow,,E17 3AY,Waltham Forest,AwaitingInspection,,FHRS,False,51.5843076,-0.019482,"228 Hoe Street, Walthamstow, E17 3AY"
2026-01-10,1905835,Shapla Tandoori,Restaurant/Cafe/Canteen,Shapla Tandoori Queens Square,,Attleborough,Norfolk,NR17 2AF,Breckland,AwaitingInspection,,FHRS,False,52.5183306,1.0155533,"Shapla Tandoori Queens Square, Attleborough, Norfolk, NR17 2AF"
2026-01-10,1905836,The Rose Of India,Restaurant/Cafe/Canteen,The Balti House 20 London Road,,Attleborough,Norfolk,NR17 2BU,Breckland,3,2025-12-02,FHRS,False,52.514922,1.0102636,"The Balti House 20 London Road, Attleborough, Norfolk, NR17 2BU"
2026-01-10,1905967,Cosy Corner Cafe,Restaurant/Cafe/Canteen,,,,,,Merthyr Tudful,AwaitingInspection,,FHRS,False,,,
2026-01-10,1905636,Brixham Yacht Club,Restaurant/Cafe/Canteen,Brixham Yacht Club Overgang Road Brixham,,,,TQ5 8AR,Torbay,AwaitingInspection,,FHRS,False,,,"Brixham Yacht Club Overgang Road Brixham, TQ5 8AR"
2026-01-10,1905638,Orchestrate Ltd,Restaurant/Cafe/Canteen,Towcester Racecourse,London Road,Towcester,,NN12 6LB,West Northamptonshire,5,2026-01-07,FHRS,False,52.1276776,-0.9724191,"Towcester Racecourse, London Road, Towcester, NN12 6LB"
2026-01-10,1905896,"Argyll Hotel, Ullapool",Restaurant/Cafe/Canteen,Argyle Hotel,18 Argyle Street,Ullapool,Highland,IV26 2UB,Highland,Awaiting Inspection,,FHIS,False,57.8967795,-5.1560642,"Argyle Hotel, 18 Argyle Street, Ullapool, Highland, IV26 2UB"
2026-01-10,1905897,Ferry Boat Inn Ullapool,Restaurant/Cafe/Canteen,,26-27 Shore Street,Ullapool,,IV26 2UJ,Highland,Awaiting Inspection,,FHIS,False,57.896571,-5.1557759,"26-27 Shore Street, Ullapool, IV26 2UJ"
2026-01-10,560799,Glenaladale Estate Deer Larder,Restaurant/Cafe/Canteen,,Slatach,Glenfinnan,Inverness-Shire,PH37 4LT,Highland,Awaiting Inspection,2010-03-25,FHIS,False,56.870565,-5.445399,"Slatach, Glenfinnan, Inverness-Shire, PH37 4LT"
2026-01-10,1647272,Howie's Bakehouse And Bar,Restaurant/Cafe/Canteen,7 Wood Street,Old Town,Swindon,,SN1 4AN,Swindon,1,2025-08-28,FHRS,False,51.552334,-1.775879,"7 Wood Street, Old Town, Swindon, SN1 4AN"
2026-01-10,1905868,Suvai Express,Restaurant/Cafe/Canteen,86 Manchester Road,Swindon,,,SN1 2AJ,Swindon,AwaitingInspection,,FHRS,False,51.5656535,-1.7768856,"86 Manchester Road, Swindon, SN1 2AJ"
2026-01-10,1905867,Swindon Lightning Cheerleading Club CIC (HAF),Restaurant/Cafe/Canteen,6 Headlands Trading Estate Road,Upper Stratton,Swindon,,SN2 7JQ,Swindon,AwaitingInspection,,FHRS,False,51.5833934,-1.7675468,"6 Headlands Trading Estate Road, Upper Stratton, Swindon, SN2 7JQ"
2026-01-10,1905654,BBQ 22,Restaurant/Cafe/Canteen,,,11 Edward Street,Belfast,BT1 2LR,Belfast City,AwaitingInspection,,FHRS,False,54.603593,-5.9274178,"11 Edward Street, Belfast, BT1 2LR"
2026-01-10,1905648,Happy Yemen Restaurant,Restaurant/Cafe/Canteen,,,1 University Road,Belfast,BT7 1NA,Belfast City,AwaitingInspection,,FHRS,False,54.58746,-5.936527,"1 University Road, Belfast, BT7 1NA"
2026-01-10,1905652,KION,Restaurant/Cafe/Canteen,,,405 Upper Newtownards Road,Belfast,BT4 3LH,Belfast City,AwaitingInspection,,FHRS,False,54.594509,-5.856172,"405 Upper Newtownards Road, Belfast, BT4 3LH"
2026-01-10,1905650,The3cscoffee,Restaurant/Cafe/Canteen,,,35 Beechmount Avenue,Belfast,BT12 7NA,Belfast City,AwaitingInspection,,FHRS,False,54.5928907,-5.9633326,"35 Beechmount Avenue, Belfast, BT12 7NA"
2026-01-10,1905926,The Human Experience,Restaurant/Cafe/Canteen,32 Main Street,Barton under Needwood,Burton upon Trent,,DE13 8AA,East Staffordshire,AwaitingInspection,,FHRS,False,52.7648293,-1.7230106,"32 Main Street, Barton under Needwood, Burton upon Trent, DE13 8AA"
2026-01-10,1337676,English Heritage Trust - Green Grocer,Restaurant/Cafe/Canteen,Down House Luxted Road,Downe,Orpington,,BR6 7JT,Bromley,Exempt,,FHRS,False,51.3314336,0.0534665,"Down House Luxted Road, Downe, Orpington, BR6 7JT"
2026-01-10,1905882,The Artisan,Restaurant/Cafe/Canteen,1 Princess Parade Crofton Road,,Orpington,,BR6 8NP,Bromley,AwaitingInspection,,FHRS,False,51.3676451,0.0567367,"1 Princess Parade Crofton Road, Orpington, BR6 8NP"
2026-01-10,1905883,Viva Cafe Bistro,Restaurant/Cafe/Canteen,108 - 110 High Street,Penge,London,,SE20 7EZ,Bromley,AwaitingInspection,,FHRS,False,51.415309,-0.053426,"108 - 110 High Street, Penge, London, SE20 7EZ"
2026-01-10,1902000,Craft Ventures,Restaurant/Cafe/Canteen,45 - 47 Fore Street,Heavitree,,,EX1 2QN,Exeter City,AwaitingInspection,,FHRS,False,50.7215969,-3.5058277,"45 - 47 Fore Street, Heavitree, EX1 2QN"
2026-01-10,1905755,Portal Pizza Cafe,Restaurant/Cafe/Canteen,1B The Crescent,Exeter Central Station,Queen Street,Exeter,EX4 3SB,Exeter City,AwaitingInspection,,FHRS,False,50.7260484,-3.5333883,"1B The Crescent, Exeter Central Station, Queen Street, Exeter, EX4 3SB"
2026-01-10,1887740,The Dragon's Den,Restaurant/Cafe/Canteen,40 Sidwell Street,Exeter,,,EX4 6NS,Exeter City,AwaitingInspection,,FHRS,False,50.7272952,-3.5240843,"40 Sidwell Street, Exeter, EX4 6NS"
2026-01-10,1905885,Adventure Centre,Restaurant/Cafe/Canteen,Unit 3b Hawthorn Trading Estate,Foundry Lane,Horsham,,,Horsham,AwaitingInspection,,FHRS,False,51.0725345,-0.3155111,"Unit 3b Hawthorn Trading Estate, Foundry Lane, Horsham"
2026-01-10,1905887,Little Gwyn's,Restaurant/Cafe/Canteen,First Floor Alexandra House,11 Queen Street,Horsham,,RH13 5AA,Horsham,AwaitingInspection,,FHRS,False,51.0608123,-0.3233209,"First Floor Alexandra House, 11 Queen Street, Horsham, RH13 5AA"
2026-01-10,1905833,Exmoor Flowers and Cafe,Restaurant/Cafe/Canteen,3 Queen Street,Lynton,Devon,,EX35 6AA,North Devon,AwaitingInspection,,FHRS,False,51.2293424,-3.8343168,"3 Queen Street, Lynton, Devon, EX35 6AA"
2026-01-10,1905959,Brags And Brams,Restaurant/Cafe/Canteen,,263-265 HACKNEY ROAD E2 8NA,Hackney,London,,Hackney,AwaitingInspection,,FHRS,False,51.5312777,-0.0685421,"263-265 HACKNEY ROAD E2 8NA, Hackney, London"
2026-01-10,1321556,Browniegod,Restaurant/Cafe/Canteen,,Unit 5A 2A Belsham Street London E9 6NG,Hackney,London,E9 6NG,Hackney,AwaitingInspection,,FHRS,False,51.545632,-0.0513579,"Unit 5A 2A Belsham Street London E9 6NG, Hackney, London, E9 6NG"
2026-01-10,1905956,Honi Poke,Restaurant/Cafe/Canteen,,42 Great Eastern Street London,Hackney,London,,Hackney,AwaitingInspection,,FHRS,False,,,"42 Great Eastern Street London, Hackney, London"
